{"place_id": "belgium_4", "place_name": "Antwerp", "place_lat": "51.215807", "place_lon": "4.421165", "place_brief_desc": "Hub of fashion, design, and diamonds.", "place_longer_desc": "The second-largest city in Belgium and a major port, Antwerp is a hub of fashion, design, and diamonds. Why not visit the Cathedral of Our Lady or be equally as awestruck by the Centraal Station. The Diamond Museum is worth a nosey, as is the trendy Zuid district. You can also shop for some of the best clothes and jewellery in Europe - apparently (I didn\u2019t notice them last time I was there but \u2026).", "place_image": "./static/images/antwerp.png", "place_tags": "history", "place_links": "./static/cards/antwerp.html", "place_country": "Belgium", "hops": [{"place_id": "austria_1", "place_name": "Vienna", "place_lat": "48.207037", "place_lon": "16.341553", "duration_min": "1225", "duration_max": "1225", "duration_median": "1225", "duration_count": "2"}, {"place_id": "belgium_1", "place_name": "Brussels", "place_lat": "50.835375", "place_lon": "4.335695", "duration_min": "34", "duration_max": "80", "duration_median": "54", "duration_count": "40"}, {"place_id": "belgium_12", "place_name": "Hasselt", "place_lat": "50.930876", "place_lon": "5.327062", "duration_min": "135", "duration_max": "140", "duration_median": "138", "duration_count": "2"}, {"place_id": "belgium_2", "place_name": "Bruges", "place_lat": "51.196939", "place_lon": "3.217078", "duration_min": "75", "duration_max": "160", "duration_median": "120", "duration_count": "4"}, {"place_id": "belgium_3", "place_name": "Ghent", "place_lat": "51.035627", "place_lon": "3.710612", "duration_min": "50", "duration_max": "65", "duration_median": "61", "duration_count": "8"}, {"place_id": "belgium_7", "place_name": "Namur", "place_lat": "50.468983", "place_lon": "4.862499", "duration_min": "165", "duration_max": "165", "duration_median": "165", "duration_count": "1"}, {"place_id": "belgium_9", "place_name": "Mechelen", "place_lat": "51.017505", "place_lon": "4.483469", "duration_min": "12", "duration_max": "12", "duration_median": "14", "duration_count": "2"}, {"place_id": "croatia_1", "place_name": "Zagreb", "place_lat": "45.807411", "place_lon": "15.990291", "duration_min": "1360", "duration_max": "1395", "duration_median": "1380", "duration_count": "2"}, {"place_id": "czechia_1", "place_name": "Prague", "place_lat": "50.081926", "place_lon": "14.451481", "duration_min": "875", "duration_max": "875", "duration_median": "885", "duration_count": "1"}, {"place_id": "france_153", "place_name": "Calais", "place_lat": "50.947695", "place_lon": "1.8538", "duration_min": "170", "duration_max": "305", "duration_median": "230", "duration_count": "4"}, {"place_id": "france_155", "place_name": "Lille", "place_lat": "50.64501", "place_lon": "3.082257", "duration_min": "105", "duration_max": "190", "duration_median": "142", "duration_count": "10"}, {"place_id": "france_162", "place_name": "Strasbourg", "place_lat": "48.585339", "place_lon": "7.734067", "duration_min": "395", "duration_max": "530", "duration_median": "452", "duration_count": "7"}, {"place_id": "france_19", "place_name": "Paris", "place_lat": "48.8404960", "place_lon": "2.36707900", "duration_min": "255", "duration_max": "375", "duration_median": "333", "duration_count": "9"}, {"place_id": "france_93", "place_name": "Lyon", "place_lat": "45.7605960", "place_lon": "4.85940900", "duration_min": "640", "duration_max": "695", "duration_median": "660", "duration_count": "3"}, {"place_id": "Germany_3", "place_name": "Nuremberg", "place_lat": "49.450748", "place_lon": "11.077955", "duration_min": "660", "duration_max": "660", "duration_median": "660", "duration_count": "1"}, {"place_id": "Germany_4", "place_name": "Munich", "place_lat": "48.140364", "place_lon": "11.558744", "duration_min": "795", "duration_max": "860", "duration_median": "817", "duration_count": "6"}, {"place_id": "Germany_6", "place_name": "Freiburg", "place_lat": "47.997974", "place_lon": "7.841344", "duration_min": "545", "duration_max": "545", "duration_median": "545", "duration_count": "2"}, {"place_id": "Germany_7", "place_name": "Hamburg", "place_lat": "53.55711", "place_lon": "9.997434", "duration_min": "605", "duration_max": "605", "duration_median": "605", "duration_count": "1"}, {"place_id": "Germany_8", "place_name": "Heidelberg", "place_lat": "49.403582", "place_lon": "8.67548", "duration_min": "524", "duration_max": "525", "duration_median": "525", "duration_count": "2"}, {"place_id": "Germany_9", "place_name": "Aachen", "place_lat": "50.767641", "place_lon": "6.09119", "duration_min": "170", "duration_max": "250", "duration_median": "210", "duration_count": "7"}, {"place_id": "netherlands_1", "place_name": "Amsterdam", "place_lat": "52.379191", "place_lon": "4.899427", "duration_min": "68", "duration_max": "128", "duration_median": "89", "duration_count": "8"}, {"place_id": "netherlands_2", "place_name": "Rotterdam", "place_lat": "51.924804", "place_lon": "4.468771", "duration_min": "31", "duration_max": "105", "duration_median": "77", "duration_count": "23"}, {"place_id": "netherlands_3", "place_name": "Utrecht", "place_lat": "52.089397", "place_lon": "5.109864", "duration_min": "100", "duration_max": "115", "duration_median": "108", "duration_count": "8"}, {"place_id": "netherlands_4", "place_name": "Den Haag", "place_lat": "52.080408", "place_lon": "4.325169", "duration_min": "110", "duration_max": "145", "duration_median": "136", "duration_count": "8"}, {"place_id": "netherlands_5", "place_name": "Delft", "place_lat": "52.005752", "place_lon": "4.356901", "duration_min": "125", "duration_max": "125", "duration_median": "130", "duration_count": "1"}, {"place_id": "netherlands_8", "place_name": "Maastricht", "place_lat": "50.849811", "place_lon": "5.705876", "duration_min": "190", "duration_max": "195", "duration_median": "193", "duration_count": "2"}, {"place_id": "poland_1", "place_name": "Krakow", "place_lat": "50.069934", "place_lon": "19.940546", "duration_min": "1340", "duration_max": "1340", "duration_median": "1340", "duration_count": "1"}, {"place_id": "poland_2", "place_name": "Warsaw", "place_lat": "52.224729", "place_lon": "21.001417", "duration_min": "1270", "duration_max": "1270", "duration_median": "1270", "duration_count": "1"}, {"place_id": "poland_6", "place_name": "Poznan", "place_lat": "52.410249", "place_lon": "16.905366", "duration_min": "1030", "duration_max": "1030", "duration_median": "1030", "duration_count": "1"}, {"place_id": "romania_3", "place_name": "Sibiu", "place_lat": "45.799977", "place_lon": "24.161575", "duration_min": "1695", "duration_max": "1695", "duration_median": "1695", "duration_count": "2"}, {"place_id": "slovakia_1", "place_name": "Bratislava", "place_lat": "48.154135", "place_lon": "17.097852", "duration_min": "1245", "duration_max": "1325", "duration_median": "1292", "duration_count": "4"}, {"place_id": "switzerland_6", "place_name": "Zurich", "place_lat": "47.378968", "place_lon": "8.540534", "duration_min": "620", "duration_max": "690", "duration_median": "666", "duration_count": "4"}, {"place_id": "uk_1", "place_name": "London", "place_lat": "51.511654", "place_lon": "-0.117493", "duration_min": "480", "duration_max": "600", "duration_median": "552", "duration_count": "4"}]}