{"place_id": "belgium_2", "place_name": "Bruges", "place_lat": "51.196939", "place_lon": "3.217078", "place_brief_desc": "Fairy-tale town with picturesque canals, medieval buildings, and charming squares.", "place_longer_desc": "Often called the Venice of the North, Bruges is a fairy-tale town with picturesque canals, medieval buildings, and charming squares.", "place_image": "./static/images/bruges.png", "place_tags": "history", "place_links": "./static/cards/bruges.html", "place_country": "Belgium", "hops": [{"place_id": "belgium_1", "place_name": "Brussels", "place_lat": "50.835375", "place_lon": "4.335695", "duration_min": "85", "duration_max": "110", "duration_median": "101", "duration_count": "7"}, {"place_id": "belgium_12", "place_name": "Hasselt", "place_lat": "50.930876", "place_lon": "5.327062", "duration_min": "230", "duration_max": "230", "duration_median": "235", "duration_count": "2"}, {"place_id": "belgium_3", "place_name": "Ghent", "place_lat": "51.035627", "place_lon": "3.710612", "duration_min": "40", "duration_max": "50", "duration_median": "44", "duration_count": "7"}, {"place_id": "belgium_4", "place_name": "Antwerp", "place_lat": "51.215807", "place_lon": "4.421165", "duration_min": "80", "duration_max": "150", "duration_median": "114", "duration_count": "4"}, {"place_id": "belgium_5", "place_name": "Leuven", "place_lat": "50.881543", "place_lon": "4.716146", "duration_min": "170", "duration_max": "170", "duration_median": "175", "duration_count": "2"}, {"place_id": "czechia_1", "place_name": "Prague", "place_lat": "50.081926", "place_lon": "14.451481", "duration_min": "1005", "duration_max": "1005", "duration_median": "1015", "duration_count": "2"}, {"place_id": "france_153", "place_name": "Calais", "place_lat": "50.947695", "place_lon": "1.8538", "duration_min": "115", "duration_max": "115", "duration_median": "115", "duration_count": "2"}, {"place_id": "france_155", "place_name": "Lille", "place_lat": "50.64501", "place_lon": "3.082257", "duration_min": "70", "duration_max": "90", "duration_median": "75", "duration_count": "4"}, {"place_id": "france_19", "place_name": "Paris", "place_lat": "48.8404960", "place_lon": "2.36707900", "duration_min": "260", "duration_max": "370", "duration_median": "295", "duration_count": "4"}, {"place_id": "france_6", "place_name": "Rennes", "place_lat": "48.1030710", "place_lon": "-1.6721310", "duration_min": "595", "duration_max": "595", "duration_median": "595", "duration_count": "1"}, {"place_id": "Germany_3", "place_name": "Nuremberg", "place_lat": "49.450748", "place_lon": "11.077955", "duration_min": "775", "duration_max": "775", "duration_median": "780", "duration_count": "2"}, {"place_id": "Germany_9", "place_name": "Aachen", "place_lat": "50.767641", "place_lon": "6.09119", "duration_min": "320", "duration_max": "320", "duration_median": "325", "duration_count": "2"}, {"place_id": "netherlands_2", "place_name": "Rotterdam", "place_lat": "51.924804", "place_lon": "4.468771", "duration_min": "180", "duration_max": "255", "duration_median": "213", "duration_count": "3"}, {"place_id": "netherlands_4", "place_name": "Den Haag", "place_lat": "52.080408", "place_lon": "4.325169", "duration_min": "190", "duration_max": "235", "duration_median": "212", "duration_count": "2"}, {"place_id": "netherlands_8", "place_name": "Maastricht", "place_lat": "50.849811", "place_lon": "5.705876", "duration_min": "285", "duration_max": "285", "duration_median": "290", "duration_count": "2"}, {"place_id": "poland_1", "place_name": "Krakow", "place_lat": "50.069934", "place_lon": "19.940546", "duration_min": "1400", "duration_max": "1400", "duration_median": "1400", "duration_count": "2"}, {"place_id": "poland_3", "place_name": "Wroclaw", "place_lat": "51.098075", "place_lon": "17.037084", "duration_min": "1145", "duration_max": "1145", "duration_median": "1145", "duration_count": "2"}, {"place_id": "uk_1", "place_name": "London", "place_lat": "51.511654", "place_lon": "-0.117493", "duration_min": "395", "duration_max": "410", "duration_median": "415", "duration_count": "2"}]}