{"place_id": "belgium_5", "place_name": "Leuven", "place_lat": "50.881543", "place_lon": "4.716146", "place_brief_desc": "A university town with a youthful vibe, Leuven is a great place to visit for culture and beer lovers.", "place_longer_desc": "A university town with a youthful vibe, Leuven is a great place to visit for culture and beer lovers. You can admire the Town Hall, the majestic University Library, the serene Beguinage, and the Stella Artois brewery. You can also enjoy some of the best nightlife and student atmosphere in Belgium.", "place_image": "./static/images/leuven.png", "place_tags": "history", "place_links": "./static/cards/leuven.html", "place_country": "Belgium", "hops": [{"place_id": "belgium_1", "place_name": "Brussels", "place_lat": "50.835375", "place_lon": "4.335695", "duration_min": "15", "duration_max": "45", "duration_median": "39", "duration_count": "3"}, {"place_id": "belgium_12", "place_name": "Hasselt", "place_lat": "50.930876", "place_lon": "5.327062", "duration_min": "55", "duration_max": "55", "duration_median": "55", "duration_count": "2"}, {"place_id": "belgium_2", "place_name": "Bruges", "place_lat": "51.196939", "place_lon": "3.217078", "duration_min": "160", "duration_max": "160", "duration_median": "162", "duration_count": "2"}, {"place_id": "belgium_3", "place_name": "Ghent", "place_lat": "51.035627", "place_lon": "3.710612", "duration_min": "110", "duration_max": "110", "duration_median": "115", "duration_count": "2"}, {"place_id": "czechia_1", "place_name": "Prague", "place_lat": "50.081926", "place_lon": "14.451481", "duration_min": "820", "duration_max": "820", "duration_median": "835", "duration_count": "2"}, {"place_id": "Germany_3", "place_name": "Nuremberg", "place_lat": "49.450748", "place_lon": "11.077955", "duration_min": "590", "duration_max": "590", "duration_median": "600", "duration_count": "2"}, {"place_id": "Germany_9", "place_name": "Aachen", "place_lat": "50.767641", "place_lon": "6.09119", "duration_min": "145", "duration_max": "145", "duration_median": "145", "duration_count": "2"}, {"place_id": "netherlands_8", "place_name": "Maastricht", "place_lat": "50.849811", "place_lon": "5.705876", "duration_min": "110", "duration_max": "110", "duration_median": "110", "duration_count": "2"}]}