{"place_id": "belgium_12", "place_name": "Hasselt", "place_lat": "50.930876", "place_lon": "5.327062", "place_brief_desc": "Home of Belgian Jenever which inspired gin", "place_longer_desc": "Home of Belgian Jenever which inspired gin", "place_image": "./static/images/hasselt.png", "place_tags": "history", "place_links": "./static/cards/hasselt.html", "place_country": "Belgium", "hops": [{"place_id": "belgium_1", "place_name": "Brussels", "place_lat": "50.835375", "place_lon": "4.335695", "duration_min": "70", "duration_max": "95", "duration_median": "85", "duration_count": "4"}, {"place_id": "belgium_2", "place_name": "Bruges", "place_lat": "51.196939", "place_lon": "3.217078", "duration_min": "210", "duration_max": "210", "duration_median": "212", "duration_count": "2"}, {"place_id": "belgium_3", "place_name": "Ghent", "place_lat": "51.035627", "place_lon": "3.710612", "duration_min": "160", "duration_max": "160", "duration_median": "165", "duration_count": "2"}, {"place_id": "belgium_4", "place_name": "Antwerp", "place_lat": "51.215807", "place_lon": "4.421165", "duration_min": "130", "duration_max": "135", "duration_median": "133", "duration_count": "2"}, {"place_id": "belgium_5", "place_name": "Leuven", "place_lat": "50.881543", "place_lon": "4.716146", "duration_min": "45", "duration_max": "45", "duration_median": "45", "duration_count": "2"}, {"place_id": "croatia_1", "place_name": "Zagreb", "place_lat": "45.807411", "place_lon": "15.990291", "duration_min": "1220", "duration_max": "1250", "duration_median": "1237", "duration_count": "2"}, {"place_id": "czechia_1", "place_name": "Prague", "place_lat": "50.081926", "place_lon": "14.451481", "duration_min": "755", "duration_max": "755", "duration_median": "770", "duration_count": "2"}, {"place_id": "Germany_3", "place_name": "Nuremberg", "place_lat": "49.450748", "place_lon": "11.077955", "duration_min": "525", "duration_max": "525", "duration_median": "535", "duration_count": "2"}, {"place_id": "Germany_4", "place_name": "Munich", "place_lat": "48.140364", "place_lon": "11.558744", "duration_min": "655", "duration_max": "655", "duration_median": "655", "duration_count": "2"}, {"place_id": "Germany_9", "place_name": "Aachen", "place_lat": "50.767641", "place_lon": "6.09119", "duration_min": "80", "duration_max": "85", "duration_median": "82", "duration_count": "4"}, {"place_id": "netherlands_8", "place_name": "Maastricht", "place_lat": "50.849811", "place_lon": "5.705876", "duration_min": "42", "duration_max": "58", "duration_median": "52", "duration_count": "6"}]}