{"place_id": "belgium_3", "place_name": "Ghent", "place_lat": "51.035627", "place_lon": "3.710612", "place_brief_desc": "Lively, cultural, steeped in history and less busy than Bruges.", "place_longer_desc": "If Bruges is Venice then this is Verona. It\u2019s lively, cultural, steeped in history and less busy than Bruges. Have a wander around Gravensteen castle, St. Bavo's Cathedral, edgy Graffiti Street or groovy Patershol district. You can also sample some of the local specialties, such as waterzooi stew and cuberdon \u2018noses\u2019 (nose-shaped jelly babies)", "place_image": "./static/images/ghent.png", "place_tags": "history", "place_links": "./static/cards/ghent.html", "place_country": "Belgium", "hops": [{"place_id": "belgium_1", "place_name": "Brussels", "place_lat": "50.835375", "place_lon": "4.335695", "duration_min": "60", "duration_max": "60", "duration_median": "60", "duration_count": "6"}, {"place_id": "belgium_12", "place_name": "Hasselt", "place_lat": "50.930876", "place_lon": "5.327062", "duration_min": "180", "duration_max": "180", "duration_median": "187", "duration_count": "2"}, {"place_id": "belgium_2", "place_name": "Bruges", "place_lat": "51.196939", "place_lon": "3.217078", "duration_min": "40", "duration_max": "55", "duration_median": "45", "duration_count": "6"}, {"place_id": "belgium_4", "place_name": "Antwerp", "place_lat": "51.215807", "place_lon": "4.421165", "duration_min": "50", "duration_max": "70", "duration_median": "63", "duration_count": "9"}, {"place_id": "belgium_5", "place_name": "Leuven", "place_lat": "50.881543", "place_lon": "4.716146", "duration_min": "120", "duration_max": "120", "duration_median": "127", "duration_count": "2"}, {"place_id": "czechia_1", "place_name": "Prague", "place_lat": "50.081926", "place_lon": "14.451481", "duration_min": "960", "duration_max": "960", "duration_median": "967", "duration_count": "2"}, {"place_id": "denmark_1", "place_name": "Copenhagen", "place_lat": "55.688237", "place_lon": "12.578426", "duration_min": "1000", "duration_max": "1000", "duration_median": "1000", "duration_count": "2"}, {"place_id": "denmark_3", "place_name": "Odense", "place_lat": "55.401778", "place_lon": "10.386002", "duration_min": "855", "duration_max": "855", "duration_median": "855", "duration_count": "2"}, {"place_id": "france_153", "place_name": "Calais", "place_lat": "50.947695", "place_lon": "1.8538", "duration_min": "150", "duration_max": "170", "duration_median": "160", "duration_count": "2"}, {"place_id": "france_155", "place_name": "Lille", "place_lat": "50.64501", "place_lon": "3.082257", "duration_min": "55", "duration_max": "100", "duration_median": "69", "duration_count": "7"}, {"place_id": "france_19", "place_name": "Paris", "place_lat": "48.8404960", "place_lon": "2.36707900", "duration_min": "220", "duration_max": "320", "duration_median": "280", "duration_count": "4"}, {"place_id": "Germany_3", "place_name": "Nuremberg", "place_lat": "49.450748", "place_lon": "11.077955", "duration_min": "730", "duration_max": "730", "duration_median": "732", "duration_count": "2"}, {"place_id": "Germany_7", "place_name": "Hamburg", "place_lat": "53.55711", "place_lon": "9.997434", "duration_min": "580", "duration_max": "580", "duration_median": "580", "duration_count": "2"}, {"place_id": "Germany_9", "place_name": "Aachen", "place_lat": "50.767641", "place_lon": "6.09119", "duration_min": "270", "duration_max": "270", "duration_median": "277", "duration_count": "2"}, {"place_id": "netherlands_2", "place_name": "Rotterdam", "place_lat": "51.924804", "place_lon": "4.468771", "duration_min": "125", "duration_max": "160", "duration_median": "153", "duration_count": "7"}, {"place_id": "netherlands_3", "place_name": "Utrecht", "place_lat": "52.089397", "place_lon": "5.109864", "duration_min": "185", "duration_max": "185", "duration_median": "185", "duration_count": "1"}, {"place_id": "netherlands_4", "place_name": "Den Haag", "place_lat": "52.080408", "place_lon": "4.325169", "duration_min": "140", "duration_max": "240", "duration_median": "184", "duration_count": "8"}, {"place_id": "netherlands_8", "place_name": "Maastricht", "place_lat": "50.849811", "place_lon": "5.705876", "duration_min": "235", "duration_max": "235", "duration_median": "242", "duration_count": "2"}, {"place_id": "poland_1", "place_name": "Krakow", "place_lat": "50.069934", "place_lon": "19.940546", "duration_min": "1350", "duration_max": "1350", "duration_median": "1350", "duration_count": "2"}, {"place_id": "poland_2", "place_name": "Warsaw", "place_lat": "52.224729", "place_lon": "21.001417", "duration_min": "1330", "duration_max": "1330", "duration_median": "1330", "duration_count": "2"}, {"place_id": "poland_3", "place_name": "Wroclaw", "place_lat": "51.098075", "place_lon": "17.037084", "duration_min": "1095", "duration_max": "1095", "duration_median": "1095", "duration_count": "2"}, {"place_id": "poland_6", "place_name": "Poznan", "place_lat": "52.410249", "place_lon": "16.905366", "duration_min": "1090", "duration_max": "1090", "duration_median": "1090", "duration_count": "2"}, {"place_id": "uk_1", "place_name": "London", "place_lat": "51.511654", "place_lon": "-0.117493", "duration_min": "430", "duration_max": "465", "duration_median": "465", "duration_count": "2"}]}