{"place_id": "croatia_1", "place_name": "Zagreb", "place_lat": "45.807411", "place_lon": "15.990291", "place_brief_desc": "Croatia's capital and largest city, known for its medieval Old Town, Upper Town, and Lower Town.", "place_longer_desc": "Zagreb is a charming city with a lot to offer visitors. The Old Town is home to many well-preserved medieval buildings, including the Zagreb Cathedral and the St. Mark's Church. Visitors can also visit the Upper Town, a hilltop neighborhood with stunning views of the city, and the Lower Town, a lively neighborhood with shops, restaurants, and bars. Zagreb is also a great place to enjoy Croatian cuisine and culture.", "place_image": "./static/images/zagreb.png", "place_tags": "history", "place_links": "./static/cards/zagreb.html", "place_country": "Croatia", "hops": [{"place_id": "austria_1", "place_name": "Vienna", "place_lat": "48.207037", "place_lon": "16.341553", "duration_min": "305", "duration_max": "305", "duration_median": "307", "duration_count": "1"}, {"place_id": "austria_2", "place_name": "Salzburg", "place_lat": "47.813848", "place_lon": "13.045514", "duration_min": "515", "duration_max": "515", "duration_median": "515", "duration_count": "1"}, {"place_id": "austria_3", "place_name": "Graz", "place_lat": "47.072301", "place_lon": "15.416437", "duration_min": "239", "duration_max": "239", "duration_median": "239", "duration_count": "1"}, {"place_id": "austria_4", "place_name": "Innsbruck", "place_lat": "47.263331", "place_lon": "11.400506", "duration_min": "639", "duration_max": "639", "duration_median": "639", "duration_count": "1"}, {"place_id": "belgium_1", "place_name": "Brussels", "place_lat": "50.835375", "place_lon": "4.335695", "duration_min": "1350", "duration_max": "1380", "duration_median": "1368", "duration_count": "2"}, {"place_id": "belgium_12", "place_name": "Hasselt", "place_lat": "50.930876", "place_lon": "5.327062", "duration_min": "1275", "duration_max": "1305", "duration_median": "1293", "duration_count": "2"}, {"place_id": "belgium_4", "place_name": "Antwerp", "place_lat": "51.215807", "place_lon": "4.421165", "duration_min": "1410", "duration_max": "1445", "duration_median": "1430", "duration_count": "2"}, {"place_id": "bulgaria_1", "place_name": "Sofia", "place_lat": "42.712209", "place_lon": "23.321039", "duration_min": "735", "duration_max": "735", "duration_median": "735", "duration_count": "2"}, {"place_id": "bulgaria_2", "place_name": "Plovdiv", "place_lat": "42.134068", "place_lon": "24.740247", "duration_min": "900", "duration_max": "900", "duration_median": "900", "duration_count": "2"}, {"place_id": "croatia_2", "place_name": "Split", "place_lat": "43.504887", "place_lon": "16.44279", "duration_min": "270", "duration_max": "420", "duration_median": "324", "duration_count": "12"}, {"place_id": "czechia_1", "place_name": "Prague", "place_lat": "50.081926", "place_lon": "14.451481", "duration_min": "590", "duration_max": "600", "duration_median": "603", "duration_count": "5"}, {"place_id": "czechia_5", "place_name": "Brno", "place_lat": "49.190537", "place_lon": "16.612776", "duration_min": "450", "duration_max": "530", "duration_median": "485", "duration_count": "3"}, {"place_id": "france_105", "place_name": "Marseille", "place_lat": "43.3030300", "place_lon": "5.38055500", "duration_min": "1120", "duration_max": "1120", "duration_median": "1120", "duration_count": "1"}, {"place_id": "france_162", "place_name": "Strasbourg", "place_lat": "48.585339", "place_lon": "7.734067", "duration_min": "860", "duration_max": "875", "duration_median": "869", "duration_count": "2"}, {"place_id": "france_19", "place_name": "Paris", "place_lat": "48.8404960", "place_lon": "2.36707900", "duration_min": "1225", "duration_max": "1320", "duration_median": "1262", "duration_count": "3"}, {"place_id": "france_93", "place_name": "Lyon", "place_lat": "45.7605960", "place_lon": "4.85940900", "duration_min": "990", "duration_max": "1225", "duration_median": "1107", "duration_count": "2"}, {"place_id": "Germany_2", "place_name": "Dresden", "place_lat": "51.040221", "place_lon": "13.731409", "duration_min": "710", "duration_max": "710", "duration_median": "731", "duration_count": "2"}, {"place_id": "Germany_3", "place_name": "Nuremberg", "place_lat": "49.450748", "place_lon": "11.077955", "duration_min": "570", "duration_max": "710", "duration_median": "651", "duration_count": "6"}, {"place_id": "Germany_4", "place_name": "Munich", "place_lat": "48.140364", "place_lon": "11.558744", "duration_min": "470", "duration_max": "610", "duration_median": "531", "duration_count": "20"}, {"place_id": "Germany_6", "place_name": "Freiburg", "place_lat": "47.997974", "place_lon": "7.841344", "duration_min": "880", "duration_max": "895", "duration_median": "888", "duration_count": "2"}, {"place_id": "Germany_7", "place_name": "Hamburg", "place_lat": "53.55711", "place_lon": "9.997434", "duration_min": "1265", "duration_max": "1265", "duration_median": "1265", "duration_count": "2"}, {"place_id": "Germany_9", "place_name": "Aachen", "place_lat": "50.767641", "place_lon": "6.09119", "duration_min": "1185", "duration_max": "1215", "duration_median": "1203", "duration_count": "2"}, {"place_id": "hungary_1", "place_name": "Budapest", "place_lat": "47.519551", "place_lon": "19.054084", "duration_min": "350", "duration_max": "381", "duration_median": "365", "duration_count": "2"}, {"place_id": "italy_1", "place_name": "Venice", "place_lat": "45.444427", "place_lon": "12.315491", "duration_min": "385", "duration_max": "445", "duration_median": "421", "duration_count": "3"}, {"place_id": "italy_3", "place_name": "Florence", "place_lat": "43.765835", "place_lon": "11.249928", "duration_min": "725", "duration_max": "725", "duration_median": "725", "duration_count": "1"}, {"place_id": "italy_5", "place_name": "Naples", "place_lat": "40.860791", "place_lon": "14.257611", "duration_min": "1065", "duration_max": "1065", "duration_median": "1065", "duration_count": "1"}, {"place_id": "italy_8", "place_name": "Turin", "place_lat": "45.067428", "place_lon": "7.672976", "duration_min": "705", "duration_max": "725", "duration_median": "717", "duration_count": "2"}, {"place_id": "netherlands_2", "place_name": "Rotterdam", "place_lat": "51.924804", "place_lon": "4.468771", "duration_min": "1370", "duration_max": "1370", "duration_median": "1370", "duration_count": "2"}, {"place_id": "netherlands_4", "place_name": "Den Haag", "place_lat": "52.080408", "place_lon": "4.325169", "duration_min": "1405", "duration_max": "1405", "duration_median": "1405", "duration_count": "2"}, {"place_id": "netherlands_8", "place_name": "Maastricht", "place_lat": "50.849811", "place_lon": "5.705876", "duration_min": "1225", "duration_max": "1255", "duration_median": "1243", "duration_count": "2"}, {"place_id": "poland_1", "place_name": "Krakow", "place_lat": "50.069934", "place_lon": "19.940546", "duration_min": "755", "duration_max": "815", "duration_median": "785", "duration_count": "5"}, {"place_id": "poland_2", "place_name": "Warsaw", "place_lat": "52.224729", "place_lon": "21.001417", "duration_min": "975", "duration_max": "1080", "duration_median": "1040", "duration_count": "3"}, {"place_id": "slovakia_1", "place_name": "Bratislava", "place_lat": "48.154135", "place_lon": "17.097852", "duration_min": "360", "duration_max": "415", "duration_median": "388", "duration_count": "4"}, {"place_id": "slovakia_2", "place_name": "Kosice", "place_lat": "48.722918", "place_lon": "21.268721", "duration_min": "505", "duration_max": "520", "duration_median": "512", "duration_count": "2"}, {"place_id": "slovakia_3", "place_name": "Banska Bystrica", "place_lat": "48.734658", "place_lon": "19.163006", "duration_min": "525", "duration_max": "561", "duration_median": "543", "duration_count": "2"}, {"place_id": "slovenia_1", "place_name": "Ljubljana", "place_lat": "46.058687", "place_lon": "14.51294", "duration_min": "115", "duration_max": "175", "duration_median": "152", "duration_count": "26"}, {"place_id": "switzerland_2", "place_name": "Bern", "place_lat": "46.948834", "place_lon": "7.439131", "duration_min": "890", "duration_max": "890", "duration_median": "890", "duration_count": "1"}, {"place_id": "switzerland_3", "place_name": "Geneva", "place_lat": "46.210209", "place_lon": "6.142455", "duration_min": "1080", "duration_max": "1080", "duration_median": "1080", "duration_count": "1"}, {"place_id": "switzerland_6", "place_name": "Zurich", "place_lat": "47.378968", "place_lon": "8.540534", "duration_min": "775", "duration_max": "775", "duration_median": "775", "duration_count": "1"}]}