{"place_id": "czechia_5", "place_name": "Brno", "place_lat": "49.190537", "place_lon": "16.612776", "place_brief_desc": "The second largest city and the cultural hub of the Czech Republic.", "place_longer_desc": "The second largest city and the cultural hub of the Czech Republic, Brno is located in the southeast of the country. Brno has a vibrant nightlife, a modern art scene, and a variety of museums and galleries. You can also visit the nearby Moravian Karst, a natural wonder with caves and gorges. You can take a direct train from Prague to Brno in about two and a half hours.", "place_image": "./static/images/brno.png", "place_tags": "history", "place_links": "./static/cards/brno.html", "place_country": "Czechia", "hops": [{"place_id": "austria_1", "place_name": "Vienna", "place_lat": "48.207037", "place_lon": "16.341553", "duration_min": "95", "duration_max": "115", "duration_median": "117", "duration_count": "2"}, {"place_id": "croatia_1", "place_name": "Zagreb", "place_lat": "45.807411", "place_lon": "15.990291", "duration_min": "430", "duration_max": "490", "duration_median": "461", "duration_count": "3"}, {"place_id": "croatia_2", "place_name": "Split", "place_lat": "43.504887", "place_lon": "16.44279", "duration_min": "880", "duration_max": "880", "duration_median": "880", "duration_count": "1"}, {"place_id": "czechia_1", "place_name": "Prague", "place_lat": "50.081926", "place_lon": "14.451481", "duration_min": "145", "duration_max": "180", "duration_median": "161", "duration_count": "26"}, {"place_id": "czechia_10", "place_name": "Ceske Budejovice", "place_lat": "48.974616", "place_lon": "14.48875", "duration_min": "220", "duration_max": "220", "duration_median": "222", "duration_count": "2"}, {"place_id": "czechia_2", "place_name": "Cesky Krumlov", "place_lat": "48.822429", "place_lon": "14.317299", "duration_min": "250", "duration_max": "250", "duration_median": "252", "duration_count": "2"}, {"place_id": "czechia_6", "place_name": "Pilsen", "place_lat": "49.746889", "place_lon": "13.377351", "duration_min": "236", "duration_max": "280", "duration_median": "258", "duration_count": "4"}, {"place_id": "czechia_7", "place_name": "Olomouc", "place_lat": "49.593128", "place_lon": "17.277932", "duration_min": "60", "duration_max": "70", "duration_median": "64", "duration_count": "18"}, {"place_id": "czechia_8", "place_name": "Telc", "place_lat": "49.1826", "place_lon": "15.464278", "duration_min": "105", "duration_max": "105", "duration_median": "105", "duration_count": "2"}, {"place_id": "czechia_9", "place_name": "Liberec", "place_lat": "50.761429", "place_lon": "15.045947", "duration_min": "285", "duration_max": "285", "duration_median": "285", "duration_count": "2"}, {"place_id": "estonia_1", "place_name": "Tallinn", "place_lat": "59.437296", "place_lon": "24.744777", "duration_min": "1570", "duration_max": "1630", "duration_median": "1600", "duration_count": "2"}, {"place_id": "france_161", "place_name": "Nice", "place_lat": "43.704825", "place_lon": "7.261765", "duration_min": "1165", "duration_max": "1165", "duration_median": "1165", "duration_count": "1"}, {"place_id": "france_19", "place_name": "Paris", "place_lat": "48.8404960", "place_lon": "2.36707900", "duration_min": "990", "duration_max": "990", "duration_median": "990", "duration_count": "2"}, {"place_id": "Germany_2", "place_name": "Dresden", "place_lat": "51.040221", "place_lon": "13.731409", "duration_min": "260", "duration_max": "440", "duration_median": "316", "duration_count": "8"}, {"place_id": "Germany_3", "place_name": "Nuremberg", "place_lat": "49.450748", "place_lon": "11.077955", "duration_min": "410", "duration_max": "410", "duration_median": "410", "duration_count": "2"}, {"place_id": "Germany_4", "place_name": "Munich", "place_lat": "48.140364", "place_lon": "11.558744", "duration_min": "445", "duration_max": "590", "duration_median": "507", "duration_count": "6"}, {"place_id": "Germany_7", "place_name": "Hamburg", "place_lat": "53.55711", "place_lon": "9.997434", "duration_min": "760", "duration_max": "805", "duration_median": "787", "duration_count": "4"}, {"place_id": "hungary_6", "place_name": "Szeged", "place_lat": "46.23981", "place_lon": "20.143181", "duration_min": "395", "duration_max": "395", "duration_median": "395", "duration_count": "2"}, {"place_id": "hungary_7", "place_name": "Gyor", "place_lat": "47.681986", "place_lon": "17.634795", "duration_min": "170", "duration_max": "230", "duration_median": "196", "duration_count": "3"}, {"place_id": "lithuania_1", "place_name": "Vilnius", "place_lat": "54.670236", "place_lon": "25.282908", "duration_min": "1010", "duration_max": "1070", "duration_median": "1057", "duration_count": "2"}, {"place_id": "poland_1", "place_name": "Krakow", "place_lat": "50.069934", "place_lon": "19.940546", "duration_min": "275", "duration_max": "330", "duration_median": "303", "duration_count": "12"}, {"place_id": "poland_2", "place_name": "Warsaw", "place_lat": "52.224729", "place_lon": "21.001417", "duration_min": "435", "duration_max": "495", "duration_median": "480", "duration_count": "4"}, {"place_id": "poland_3", "place_name": "Wroclaw", "place_lat": "51.098075", "place_lon": "17.037084", "duration_min": "260", "duration_max": "330", "duration_median": "290", "duration_count": "4"}, {"place_id": "poland_4", "place_name": "Gdansk", "place_lat": "54.365843", "place_lon": "18.64396", "duration_min": "685", "duration_max": "740", "duration_median": "721", "duration_count": "3"}, {"place_id": "poland_6", "place_name": "Poznan", "place_lat": "52.410249", "place_lon": "16.905366", "duration_min": "420", "duration_max": "465", "duration_median": "450", "duration_count": "3"}, {"place_id": "romania_3", "place_name": "Sibiu", "place_lat": "45.799977", "place_lon": "24.161575", "duration_min": "836", "duration_max": "836", "duration_median": "836", "duration_count": "2"}, {"place_id": "slovakia_1", "place_name": "Bratislava", "place_lat": "48.154135", "place_lon": "17.097852", "duration_min": "92", "duration_max": "195", "duration_median": "119", "duration_count": "10"}, {"place_id": "slovakia_2", "place_name": "Kosice", "place_lat": "48.722918", "place_lon": "21.268721", "duration_min": "435", "duration_max": "570", "duration_median": "505", "duration_count": "2"}, {"place_id": "slovakia_3", "place_name": "Banska Bystrica", "place_lat": "48.734658", "place_lon": "19.163006", "duration_min": "355", "duration_max": "355", "duration_median": "357", "duration_count": "1"}, {"place_id": "slovakia_4", "place_name": "Zilina", "place_lat": "49.227043", "place_lon": "18.746006", "duration_min": "195", "duration_max": "195", "duration_median": "198", "duration_count": "1"}, {"place_id": "slovenia_1", "place_name": "Ljubljana", "place_lat": "46.058687", "place_lon": "14.51294", "duration_min": "455", "duration_max": "460", "duration_median": "457", "duration_count": "2"}]}