{"place_id": "czechia_2", "place_name": "Cesky Krumlov", "place_lat": "48.822429", "place_lon": "14.317299", "place_brief_desc": "Picturesque town surrounded by a meandering river and a medieval castle.", "place_longer_desc": "A UNESCO World Heritage Site, Cesky Krumlov is a picturesque town in the south of the country, surrounded by a meandering river and a medieval castle. The town has a charming atmosphere, with cobblestone streets, colorful houses, and cozy cafes.", "place_image": "./static/images/cesky krumlov.png", "place_tags": "history", "place_links": "./static/cards/cesky krumlov.html", "place_country": "Czechia", "hops": [{"place_id": "czechia_1", "place_name": "Prague", "place_lat": "50.081926", "place_lon": "14.451481", "duration_min": "155", "duration_max": "185", "duration_median": "169", "duration_count": "4"}, {"place_id": "czechia_10", "place_name": "Ceske Budejovice", "place_lat": "48.974616", "place_lon": "14.48875", "duration_min": "25", "duration_max": "30", "duration_median": "27", "duration_count": "6"}, {"place_id": "czechia_5", "place_name": "Brno", "place_lat": "49.190537", "place_lon": "16.612776", "duration_min": "255", "duration_max": "255", "duration_median": "255", "duration_count": "2"}, {"place_id": "czechia_8", "place_name": "Telc", "place_lat": "49.1826", "place_lon": "15.464278", "duration_min": "140", "duration_max": "140", "duration_median": "140", "duration_count": "2"}, {"place_id": "czechia_9", "place_name": "Liberec", "place_lat": "50.761429", "place_lon": "15.045947", "duration_min": "265", "duration_max": "265", "duration_median": "270", "duration_count": "1"}, {"place_id": "Germany_4", "place_name": "Munich", "place_lat": "48.140364", "place_lon": "11.558744", "duration_min": "330", "duration_max": "335", "duration_median": "333", "duration_count": "2"}, {"place_id": "italy_1", "place_name": "Venice", "place_lat": "45.444427", "place_lon": "12.315491", "duration_min": "630", "duration_max": "630", "duration_median": "630", "duration_count": "1"}, {"place_id": "slovenia_1", "place_name": "Ljubljana", "place_lat": "46.058687", "place_lon": "14.51294", "duration_min": "412", "duration_max": "412", "duration_median": "412", "duration_count": "1"}]}