{"place_id": "czechia_1", "place_name": "Prague", "place_lat": "50.081926", "place_lon": "14.451481", "place_brief_desc": "A must-see destination for anyone visiting the country.", "place_longer_desc": "The capital and largest city of the Czech Republic, Prague is a must-see destination for anyone visiting the country. Prague has a stunning old town, a majestic castle, a famous astronomical clock, and many other attractions. You can easily reach Prague by train from any major city in Europe.", "place_image": "./static/images/prague.png", "place_tags": "history", "place_links": "./static/cards/prague.html", "place_country": "Czechia", "hops": [{"place_id": "austria_4", "place_name": "Innsbruck", "place_lat": "47.263331", "place_lon": "11.400506", "duration_min": "450", "duration_max": "450", "duration_median": "450", "duration_count": "2"}, {"place_id": "belgium_1", "place_name": "Brussels", "place_lat": "50.835375", "place_lon": "4.335695", "duration_min": "835", "duration_max": "890", "duration_median": "871", "duration_count": "4"}, {"place_id": "belgium_12", "place_name": "Hasselt", "place_lat": "50.930876", "place_lon": "5.327062", "duration_min": "775", "duration_max": "775", "duration_median": "787", "duration_count": "2"}, {"place_id": "belgium_2", "place_name": "Bruges", "place_lat": "51.196939", "place_lon": "3.217078", "duration_min": "1000", "duration_max": "1000", "duration_median": "1010", "duration_count": "2"}, {"place_id": "belgium_3", "place_name": "Ghent", "place_lat": "51.035627", "place_lon": "3.710612", "duration_min": "955", "duration_max": "955", "duration_median": "962", "duration_count": "2"}, {"place_id": "belgium_4", "place_name": "Antwerp", "place_lat": "51.215807", "place_lon": "4.421165", "duration_min": "900", "duration_max": "900", "duration_median": "910", "duration_count": "1"}, {"place_id": "belgium_5", "place_name": "Leuven", "place_lat": "50.881543", "place_lon": "4.716146", "duration_min": "830", "duration_max": "830", "duration_median": "842", "duration_count": "2"}, {"place_id": "croatia_1", "place_name": "Zagreb", "place_lat": "45.807411", "place_lon": "15.990291", "duration_min": "545", "duration_max": "575", "duration_median": "577", "duration_count": "5"}, {"place_id": "croatia_2", "place_name": "Split", "place_lat": "43.504887", "place_lon": "16.44279", "duration_min": "965", "duration_max": "965", "duration_median": "970", "duration_count": "1"}, {"place_id": "czechia_10", "place_name": "Ceske Budejovice", "place_lat": "48.974616", "place_lon": "14.48875", "duration_min": "100", "duration_max": "155", "duration_median": "129", "duration_count": "7"}, {"place_id": "czechia_2", "place_name": "Cesky Krumlov", "place_lat": "48.822429", "place_lon": "14.317299", "duration_min": "145", "duration_max": "185", "duration_median": "169", "duration_count": "4"}, {"place_id": "czechia_3", "place_name": "Karlovy Vary", "place_lat": "50.235668", "place_lon": "12.866854", "duration_min": "95", "duration_max": "100", "duration_median": "110", "duration_count": "3"}, {"place_id": "czechia_5", "place_name": "Brno", "place_lat": "49.190537", "place_lon": "16.612776", "duration_min": "140", "duration_max": "180", "duration_median": "161", "duration_count": "25"}, {"place_id": "czechia_6", "place_name": "Pilsen", "place_lat": "49.746889", "place_lon": "13.377351", "duration_min": "67", "duration_max": "100", "duration_median": "90", "duration_count": "13"}, {"place_id": "czechia_7", "place_name": "Olomouc", "place_lat": "49.593128", "place_lon": "17.277932", "duration_min": "220", "duration_max": "270", "duration_median": "239", "duration_count": "10"}, {"place_id": "czechia_9", "place_name": "Liberec", "place_lat": "50.761429", "place_lon": "15.045947", "duration_min": "90", "duration_max": "105", "duration_median": "100", "duration_count": "6"}, {"place_id": "denmark_1", "place_name": "Copenhagen", "place_lat": "55.688237", "place_lon": "12.578426", "duration_min": "780", "duration_max": "840", "duration_median": "816", "duration_count": "8"}, {"place_id": "estonia_1", "place_name": "Tallinn", "place_lat": "59.437296", "place_lon": "24.744777", "duration_min": "1740", "duration_max": "1800", "duration_median": "1770", "duration_count": "2"}, {"place_id": "france_123", "place_name": "Montpellier", "place_lat": "43.6047800", "place_lon": "3.88116800", "duration_min": "1200", "duration_max": "1285", "duration_median": "1251", "duration_count": "4"}, {"place_id": "france_127", "place_name": "Narbonne", "place_lat": "43.1906640", "place_lon": "3.00556200", "duration_min": "1300", "duration_max": "1340", "duration_median": "1323", "duration_count": "2"}, {"place_id": "france_155", "place_name": "Lille", "place_lat": "50.64501", "place_lon": "3.082257", "duration_min": "1065", "duration_max": "1065", "duration_median": "1065", "duration_count": "2"}, {"place_id": "france_162", "place_name": "Strasbourg", "place_lat": "48.585339", "place_lon": "7.734067", "duration_min": "575", "duration_max": "730", "duration_median": "633", "duration_count": "6"}, {"place_id": "france_19", "place_name": "Paris", "place_lat": "48.8404960", "place_lon": "2.36707900", "duration_min": "775", "duration_max": "1245", "duration_median": "964", "duration_count": "6"}, {"place_id": "france_93", "place_name": "Lyon", "place_lat": "45.7605960", "place_lon": "4.85940900", "duration_min": "875", "duration_max": "1000", "duration_median": "943", "duration_count": "4"}, {"place_id": "Germany_1", "place_name": "Berlin", "place_lat": "52.520501", "place_lon": "13.386988", "duration_min": "280", "duration_max": "295", "duration_median": "293", "duration_count": "6"}, {"place_id": "Germany_2", "place_name": "Dresden", "place_lat": "51.040221", "place_lon": "13.731409", "duration_min": "109", "duration_max": "115", "duration_median": "113", "duration_count": "33"}, {"place_id": "Germany_3", "place_name": "Nuremberg", "place_lat": "49.450748", "place_lon": "11.077955", "duration_min": "195", "duration_max": "400", "duration_median": "240", "duration_count": "22"}, {"place_id": "Germany_4", "place_name": "Munich", "place_lat": "48.140364", "place_lon": "11.558744", "duration_min": "285", "duration_max": "335", "duration_median": "312", "duration_count": "10"}, {"place_id": "Germany_6", "place_name": "Freiburg", "place_lat": "47.997974", "place_lon": "7.841344", "duration_min": "475", "duration_max": "710", "duration_median": "601", "duration_count": "8"}, {"place_id": "Germany_7", "place_name": "Hamburg", "place_lat": "53.55711", "place_lon": "9.997434", "duration_min": "545", "duration_max": "655", "duration_median": "608", "duration_count": "8"}, {"place_id": "Germany_8", "place_name": "Heidelberg", "place_lat": "49.403582", "place_lon": "8.67548", "duration_min": "394", "duration_max": "400", "duration_median": "423", "duration_count": "2"}, {"place_id": "Germany_9", "place_name": "Aachen", "place_lat": "50.767641", "place_lon": "6.09119", "duration_min": "685", "duration_max": "695", "duration_median": "703", "duration_count": "4"}, {"place_id": "hungary_6", "place_name": "Szeged", "place_lat": "46.23981", "place_lon": "20.143181", "duration_min": "555", "duration_max": "595", "duration_median": "574", "duration_count": "3"}, {"place_id": "hungary_7", "place_name": "Gyor", "place_lat": "47.681986", "place_lon": "17.634795", "duration_min": "325", "duration_max": "325", "duration_median": "330", "duration_count": "2"}, {"place_id": "italy_1", "place_name": "Venice", "place_lat": "45.444427", "place_lon": "12.315491", "duration_min": "795", "duration_max": "795", "duration_median": "795", "duration_count": "1"}, {"place_id": "lithuania_1", "place_name": "Vilnius", "place_lat": "54.670236", "place_lon": "25.282908", "duration_min": "1180", "duration_max": "1240", "duration_median": "1227", "duration_count": "2"}, {"place_id": "netherlands_2", "place_name": "Rotterdam", "place_lat": "51.924804", "place_lon": "4.468771", "duration_min": "980", "duration_max": "980", "duration_median": "990", "duration_count": "2"}, {"place_id": "netherlands_3", "place_name": "Utrecht", "place_lat": "52.089397", "place_lon": "5.109864", "duration_min": "890", "duration_max": "890", "duration_median": "890", "duration_count": "2"}, {"place_id": "netherlands_4", "place_name": "Den Haag", "place_lat": "52.080408", "place_lon": "4.325169", "duration_min": "1015", "duration_max": "1015", "duration_median": "1025", "duration_count": "2"}, {"place_id": "netherlands_8", "place_name": "Maastricht", "place_lat": "50.849811", "place_lon": "5.705876", "duration_min": "725", "duration_max": "725", "duration_median": "737", "duration_count": "2"}, {"place_id": "norway_2", "place_name": "Oslo", "place_lat": "59.909527", "place_lon": "10.781842", "duration_min": "1355", "duration_max": "1355", "duration_median": "1355", "duration_count": "3"}, {"place_id": "poland_1", "place_name": "Krakow", "place_lat": "50.069934", "place_lon": "19.940546", "duration_min": "440", "duration_max": "530", "duration_median": "485", "duration_count": "13"}, {"place_id": "poland_2", "place_name": "Warsaw", "place_lat": "52.224729", "place_lon": "21.001417", "duration_min": "520", "duration_max": "665", "duration_median": "609", "duration_count": "8"}, {"place_id": "poland_3", "place_name": "Wroclaw", "place_lat": "51.098075", "place_lon": "17.037084", "duration_min": "245", "duration_max": "335", "duration_median": "286", "duration_count": "12"}, {"place_id": "poland_4", "place_name": "Gdansk", "place_lat": "54.365843", "place_lon": "18.64396", "duration_min": "725", "duration_max": "725", "duration_median": "725", "duration_count": "1"}, {"place_id": "poland_6", "place_name": "Poznan", "place_lat": "52.410249", "place_lon": "16.905366", "duration_min": "430", "duration_max": "490", "duration_median": "463", "duration_count": "3"}, {"place_id": "romania_3", "place_name": "Sibiu", "place_lat": "45.799977", "place_lon": "24.161575", "duration_min": "1005", "duration_max": "1005", "duration_median": "1005", "duration_count": "2"}, {"place_id": "slovakia_1", "place_name": "Bratislava", "place_lat": "48.154135", "place_lon": "17.097852", "duration_min": "249", "duration_max": "265", "duration_median": "268", "duration_count": "5"}, {"place_id": "slovakia_2", "place_name": "Kosice", "place_lat": "48.722918", "place_lon": "21.268721", "duration_min": "610", "duration_max": "735", "duration_median": "674", "duration_count": "2"}, {"place_id": "slovakia_3", "place_name": "Banska Bystrica", "place_lat": "48.734658", "place_lon": "19.163006", "duration_min": "520", "duration_max": "520", "duration_median": "520", "duration_count": "1"}, {"place_id": "slovakia_4", "place_name": "Zilina", "place_lat": "49.227043", "place_lon": "18.746006", "duration_min": "370", "duration_max": "370", "duration_median": "373", "duration_count": "1"}, {"place_id": "slovenia_1", "place_name": "Ljubljana", "place_lat": "46.058687", "place_lon": "14.51294", "duration_min": "570", "duration_max": "607", "duration_median": "585", "duration_count": "4"}, {"place_id": "slovenia_2", "place_name": "Bled", "place_lat": "46.368302", "place_lon": "14.082303", "duration_min": "516", "duration_max": "516", "duration_median": "516", "duration_count": "2"}, {"place_id": "spain_1", "place_name": "Barcelona", "place_lat": "41.37922", "place_lon": "2.140624", "duration_min": "1500", "duration_max": "1520", "duration_median": "1511", "duration_count": "2"}, {"place_id": "sweden_1", "place_name": "Stockholm", "place_lat": "59.330963", "place_lon": "18.066134", "duration_min": "1405", "duration_max": "1405", "duration_median": "1408", "duration_count": "3"}, {"place_id": "sweden_3", "place_name": "Malmo", "place_lat": "55.609231", "place_lon": "13.00126", "duration_min": "890", "duration_max": "920", "duration_median": "906", "duration_count": "6"}, {"place_id": "sweden_5", "place_name": "Linkoping", "place_lat": "58.416014", "place_lon": "15.626677", "duration_min": "1250", "duration_max": "1250", "duration_median": "1251", "duration_count": "3"}, {"place_id": "switzerland_2", "place_name": "Bern", "place_lat": "46.948834", "place_lon": "7.439131", "duration_min": "640", "duration_max": "640", "duration_median": "646", "duration_count": "2"}, {"place_id": "switzerland_3", "place_name": "Geneva", "place_lat": "46.210209", "place_lon": "6.142455", "duration_min": "785", "duration_max": "785", "duration_median": "791", "duration_count": "2"}, {"place_id": "switzerland_6", "place_name": "Zurich", "place_lat": "47.378968", "place_lon": "8.540534", "duration_min": "590", "duration_max": "680", "duration_median": "643", "duration_count": "6"}]}