{"place_id": "france_159", "place_name": "Tarascon", "place_lat": "43.801172", "place_lon": "4.656925", "place_brief_desc": "Mirrored town of Beaucaire on the Rhone, historic with myths and literature", "place_longer_desc": "Mirrored town of Beaucaire on the Rhone, historic with myths and literature", "place_image": "./static/images/tarascon.png", "place_tags": "museums|history|kids| culture", "place_links": "./static/cards/tarascon.html", "place_country": "France", "hops": [{"place_id": "france_105", "place_name": "Marseille", "place_lat": "43.3030300", "place_lon": "5.38055500", "duration_min": "61", "duration_max": "63", "duration_median": "63", "duration_count": "2"}, {"place_id": "france_106", "place_name": "Arles", "place_lat": "43.6853590", "place_lon": "4.63210900", "duration_min": "7", "duration_max": "7", "duration_median": "7", "duration_count": "2"}, {"place_id": "france_123", "place_name": "Montpellier", "place_lat": "43.6047800", "place_lon": "3.88116800", "duration_min": "54", "duration_max": "63", "duration_median": "62", "duration_count": "4"}, {"place_id": "france_124", "place_name": "Sete", "place_lat": "43.4128080", "place_lon": "3.69641000", "duration_min": "76", "duration_max": "89", "duration_median": "85", "duration_count": "3"}, {"place_id": "france_125", "place_name": "Nimes", "place_lat": "43.8323870", "place_lon": "4.36608100", "duration_min": "17", "duration_max": "22", "duration_median": "22", "duration_count": "4"}, {"place_id": "france_127", "place_name": "Narbonne", "place_lat": "43.1906640", "place_lon": "3.00556200", "duration_min": "120", "duration_max": "122", "duration_median": "128", "duration_count": "2"}, {"place_id": "france_145", "place_name": "Perpignan", "place_lat": "42.6960790", "place_lon": "2.87962200", "duration_min": "178", "duration_max": "178", "duration_median": "182", "duration_count": "1"}, {"place_id": "france_148", "place_name": "Collioure", "place_lat": "42.5269200", "place_lon": "3.07824800", "duration_min": "205", "duration_max": "205", "duration_median": "210", "duration_count": "1"}, {"place_id": "france_152", "place_name": "Avignon", "place_lat": "43.941304", "place_lon": "4.805256", "duration_min": "11", "duration_max": "13", "duration_median": "14", "duration_count": "3"}, {"place_id": "spain_806", "place_name": "Portbou", "place_lat": "42.4244940", "place_lon": "3.15785800", "duration_min": "223", "duration_max": "223", "duration_median": "231", "duration_count": "1"}]}