{"place_id": "france_38", "place_name": "Toulouse", "place_lat": "43.6114370", "place_lon": "1.45423700", "place_brief_desc": "Proud capital of the Occitan region of France which has had a distinctly independent culture and language.", "place_longer_desc": "Toulouse, known as 'La Ville Rose', is the proud capital of the Occitan region of France which has had a distinctly independent culture and language - hence its bilingual street signs. Wandering around the city with its rose-coloured bricks, it does feel markedly different from the yellow limestone which dominates so many parts of France.", "place_image": "./static/images/toulouse.png", "place_tags": "history|food", "place_links": "./static/cards/toulouse.html", "place_country": "France", "hops": [{"place_id": "belgium_1", "place_name": "Brussels", "place_lat": "50.835375", "place_lon": "4.335695", "duration_min": "900", "duration_max": "900", "duration_median": "900", "duration_count": "1"}, {"place_id": "france_10", "place_name": "La Rochelle", "place_lat": "46.1527030", "place_lon": "-1.1452880", "duration_min": "305", "duration_max": "370", "duration_median": "346", "duration_count": "3"}, {"place_id": "france_105", "place_name": "Marseille", "place_lat": "43.3030300", "place_lon": "5.38055500", "duration_min": "226", "duration_max": "440", "duration_median": "353", "duration_count": "11"}, {"place_id": "france_106", "place_name": "Arles", "place_lat": "43.6853590", "place_lon": "4.63210900", "duration_min": "183", "duration_max": "183", "duration_median": "185", "duration_count": "1"}, {"place_id": "france_123", "place_name": "Montpellier", "place_lat": "43.6047800", "place_lon": "3.88116800", "duration_min": "127", "duration_max": "215", "duration_median": "173", "duration_count": "26"}, {"place_id": "france_124", "place_name": "Sete", "place_lat": "43.4128080", "place_lon": "3.69641000", "duration_min": "109", "duration_max": "139", "duration_median": "116", "duration_count": "7"}, {"place_id": "france_125", "place_name": "Nimes", "place_lat": "43.8323870", "place_lon": "4.36608100", "duration_min": "155", "duration_max": "320", "duration_median": "222", "duration_count": "15"}, {"place_id": "france_127", "place_name": "Narbonne", "place_lat": "43.1906640", "place_lon": "3.00556200", "duration_min": "72", "duration_max": "125", "duration_median": "94", "duration_count": "16"}, {"place_id": "france_145", "place_name": "Perpignan", "place_lat": "42.6960790", "place_lon": "2.87962200", "duration_min": "148", "duration_max": "195", "duration_median": "171", "duration_count": "11"}, {"place_id": "france_148", "place_name": "Collioure", "place_lat": "42.5269200", "place_lon": "3.07824800", "duration_min": "176", "duration_max": "176", "duration_median": "182", "duration_count": "1"}, {"place_id": "france_155", "place_name": "Lille", "place_lat": "50.64501", "place_lon": "3.082257", "duration_min": "750", "duration_max": "790", "duration_median": "770", "duration_count": "2"}, {"place_id": "france_19", "place_name": "Paris", "place_lat": "48.8404960", "place_lon": "2.36707900", "duration_min": "255", "duration_max": "595", "duration_median": "503", "duration_count": "16"}, {"place_id": "france_24", "place_name": "Bordeaux", "place_lat": "44.8258230", "place_lon": "-0.5560120", "duration_min": "121", "duration_max": "200", "duration_median": "174", "duration_count": "22"}, {"place_id": "france_28", "place_name": "Limoges", "place_lat": "45.8372180", "place_lon": "1.26900800", "duration_min": "194", "duration_max": "240", "duration_median": "220", "duration_count": "9"}, {"place_id": "france_6", "place_name": "Rennes", "place_lat": "48.1030710", "place_lon": "-1.6721310", "duration_min": "525", "duration_max": "660", "duration_median": "580", "duration_count": "6"}, {"place_id": "france_72", "place_name": "Carcassonne", "place_lat": "43.2181650", "place_lon": "2.35243000", "duration_min": "41", "duration_max": "95", "duration_median": "62", "duration_count": "14"}, {"place_id": "france_80", "place_name": "Lourdes", "place_lat": "43.1006000", "place_lon": "-0.0418120", "duration_min": "107", "duration_max": "175", "duration_median": "145", "duration_count": "4"}, {"place_id": "france_83", "place_name": "Bayonne", "place_lat": "43.4970180", "place_lon": "-1.4701940", "duration_min": "206", "duration_max": "275", "duration_median": "242", "duration_count": "8"}, {"place_id": "france_85", "place_name": "Hendaye", "place_lat": "43.3531650", "place_lon": "-1.7820950", "duration_min": "244", "duration_max": "340", "duration_median": "294", "duration_count": "5"}, {"place_id": "france_93", "place_name": "Lyon", "place_lat": "45.7605960", "place_lon": "4.85940900", "duration_min": "245", "duration_max": "505", "duration_median": "389", "duration_count": "14"}, {"place_id": "italy_8", "place_name": "Turin", "place_lat": "45.067428", "place_lon": "7.672976", "duration_min": "720", "duration_max": "875", "duration_median": "797", "duration_count": "2"}, {"place_id": "portugal_4", "place_name": "Porto", "place_lat": "41.148823", "place_lon": "-8.584932", "duration_min": "970", "duration_max": "970", "duration_median": "970", "duration_count": "1"}, {"place_id": "romania_3", "place_name": "Sibiu", "place_lat": "45.799977", "place_lon": "24.161575", "duration_min": "2445", "duration_max": "2445", "duration_median": "2445", "duration_count": "1"}, {"place_id": "slovenia_1", "place_name": "Ljubljana", "place_lat": "46.058687", "place_lon": "14.51294", "duration_min": "1465", "duration_max": "1465", "duration_median": "1498", "duration_count": "1"}, {"place_id": "spain_1", "place_name": "Barcelona", "place_lat": "41.37922", "place_lon": "2.140624", "duration_min": "310", "duration_max": "385", "duration_median": "331", "duration_count": "16"}, {"place_id": "spain_105", "place_name": "Girona", "place_lat": "41.9793030", "place_lon": "2.81700600", "duration_min": "260", "duration_max": "260", "duration_median": "260", "duration_count": "1"}, {"place_id": "spain_44", "place_name": "San Sebastian", "place_lat": "43.317669", "place_lon": "-1.976704", "duration_min": "275", "duration_max": "370", "duration_median": "324", "duration_count": "7"}, {"place_id": "spain_55", "place_name": "Zaragoza", "place_lat": "41.658649", "place_lon": "-0.911615", "duration_min": "346", "duration_max": "360", "duration_median": "353", "duration_count": "2"}, {"place_id": "spain_804", "place_name": "Puigcerda", "place_lat": "42.428908", "place_lon": "1.924085", "duration_min": "153", "duration_max": "153", "duration_median": "160", "duration_count": "1"}, {"place_id": "spain_806", "place_name": "Portbou", "place_lat": "42.4244940", "place_lon": "3.15785800", "duration_min": "193", "duration_max": "193", "duration_median": "202", "duration_count": "1"}, {"place_id": "switzerland_2", "place_name": "Bern", "place_lat": "46.948834", "place_lon": "7.439131", "duration_min": "840", "duration_max": "840", "duration_median": "840", "duration_count": "1"}, {"place_id": "switzerland_3", "place_name": "Geneva", "place_lat": "46.210209", "place_lon": "6.142455", "duration_min": "680", "duration_max": "690", "duration_median": "685", "duration_count": "2"}, {"place_id": "switzerland_6", "place_name": "Zurich", "place_lat": "47.378968", "place_lon": "8.540534", "duration_min": "940", "duration_max": "940", "duration_median": "940", "duration_count": "1"}]}