{"place_id": "france_10", "place_name": "La Rochelle", "place_lat": "46.1527030", "place_lon": "-1.1452880", "place_brief_desc": "La Rochelle, capital of Charente-Maritime and one of the most livable cities in France, is a pretty good place to go and get nautical.", "place_longer_desc": "La Rochelle, capital of Charente-Maritime and one of the most livable cities in France, is a pretty good place to go and get nautical.", "place_image": "./static/images/la rochelle.png", "place_tags": "history", "place_links": "./static/cards/la rochelle.html", "place_country": "France", "hops": [{"place_id": "france_145", "place_name": "Perpignan", "place_lat": "42.6960790", "place_lon": "2.87962200", "duration_min": "465", "duration_max": "465", "duration_median": "465", "duration_count": "1"}, {"place_id": "france_15", "place_name": "Saintes", "place_lat": "45.7488860", "place_lon": "-0.6173560", "duration_min": "47", "duration_max": "60", "duration_median": "58", "duration_count": "4"}, {"place_id": "france_19", "place_name": "Paris", "place_lat": "48.8404960", "place_lon": "2.36707900", "duration_min": "148", "duration_max": "490", "duration_median": "335", "duration_count": "5"}, {"place_id": "france_24", "place_name": "Bordeaux", "place_lat": "44.8258230", "place_lon": "-0.5560120", "duration_min": "130", "duration_max": "170", "duration_median": "150", "duration_count": "8"}, {"place_id": "france_38", "place_name": "Toulouse", "place_lat": "43.6114370", "place_lon": "1.45423700", "duration_min": "305", "duration_max": "375", "duration_median": "350", "duration_count": "3"}, {"place_id": "france_6", "place_name": "Rennes", "place_lat": "48.1030710", "place_lon": "-1.6721310", "duration_min": "215", "duration_max": "285", "duration_median": "230", "duration_count": "5"}, {"place_id": "france_83", "place_name": "Bayonne", "place_lat": "43.4970180", "place_lon": "-1.4701940", "duration_min": "285", "duration_max": "315", "duration_median": "303", "duration_count": "3"}, {"place_id": "france_85", "place_name": "Hendaye", "place_lat": "43.3531650", "place_lon": "-1.7820950", "duration_min": "345", "duration_max": "364", "duration_median": "354", "duration_count": "2"}, {"place_id": "france_93", "place_name": "Lyon", "place_lat": "45.7605960", "place_lon": "4.85940900", "duration_min": "645", "duration_max": "645", "duration_median": "645", "duration_count": "1"}, {"place_id": "spain_1", "place_name": "Barcelona", "place_lat": "41.37922", "place_lon": "2.140624", "duration_min": "625", "duration_max": "625", "duration_median": "625", "duration_count": "1"}, {"place_id": "spain_162", "place_name": "Algeciras", "place_lat": "36.1268310", "place_lon": "-5.4511080", "duration_min": "1445", "duration_max": "1445", "duration_median": "1445", "duration_count": "1"}, {"place_id": "spain_44", "place_name": "San Sebastian", "place_lat": "43.317669", "place_lon": "-1.976704", "duration_min": "385", "duration_max": "395", "duration_median": "388", "duration_count": "3"}]}