{"place_id": "france_152", "place_name": "Avignon", "place_lat": "43.941304", "place_lon": "4.805256", "place_brief_desc": "Famous UNESCO former home of the popes", "place_longer_desc": "Famous UNESCO former home of the popes", "place_image": "./static/images/avignon.png", "place_tags": "museums|history|kids| culture", "place_links": "./static/cards/avignon.html", "place_country": "France", "hops": [{"place_id": "belgium_1", "place_name": "Brussels", "place_lat": "50.835375", "place_lon": "4.335695", "duration_min": "278", "duration_max": "278", "duration_median": "296", "duration_count": "1"}, {"place_id": "france_105", "place_name": "Marseille", "place_lat": "43.3030300", "place_lon": "5.38055500", "duration_min": "28", "duration_max": "105", "duration_median": "49", "duration_count": "55"}, {"place_id": "france_106", "place_name": "Arles", "place_lat": "43.6853590", "place_lon": "4.63210900", "duration_min": "16", "duration_max": "27", "duration_median": "18", "duration_count": "20"}, {"place_id": "france_123", "place_name": "Montpellier", "place_lat": "43.6047800", "place_lon": "3.88116800", "duration_min": "46", "duration_max": "76", "duration_median": "70", "duration_count": "4"}, {"place_id": "france_124", "place_name": "Sete", "place_lat": "43.4128080", "place_lon": "3.69641000", "duration_min": "92", "duration_max": "106", "duration_median": "101", "duration_count": "2"}, {"place_id": "france_125", "place_name": "Nimes", "place_lat": "43.8323870", "place_lon": "4.36608100", "duration_min": "17", "duration_max": "39", "duration_median": "32", "duration_count": "5"}, {"place_id": "france_127", "place_name": "Narbonne", "place_lat": "43.1906640", "place_lon": "3.00556200", "duration_min": "118", "duration_max": "137", "duration_median": "129", "duration_count": "2"}, {"place_id": "france_145", "place_name": "Perpignan", "place_lat": "42.6960790", "place_lon": "2.87962200", "duration_min": "155", "duration_max": "194", "duration_median": "176", "duration_count": "2"}, {"place_id": "france_148", "place_name": "Collioure", "place_lat": "42.5269200", "place_lon": "3.07824800", "duration_min": "221", "duration_max": "221", "duration_median": "225", "duration_count": "1"}, {"place_id": "france_155", "place_name": "Lille", "place_lat": "50.64501", "place_lon": "3.082257", "duration_min": "230", "duration_max": "280", "duration_median": "256", "duration_count": "6"}, {"place_id": "france_156", "place_name": "Carpentras", "place_lat": "44.048672", "place_lon": "5.044674", "duration_min": "30", "duration_max": "30", "duration_median": "36", "duration_count": "1"}, {"place_id": "france_159", "place_name": "Tarascon", "place_lat": "43.801172", "place_lon": "4.656925", "duration_min": "11", "duration_max": "13", "duration_median": "13", "duration_count": "3"}, {"place_id": "france_160", "place_name": "Orange", "place_lat": "44.137557", "place_lon": "4.819396", "duration_min": "13", "duration_max": "70", "duration_median": "22", "duration_count": "43"}, {"place_id": "france_161", "place_name": "Nice", "place_lat": "43.704825", "place_lon": "7.261765", "duration_min": "173", "duration_max": "210", "duration_median": "201", "duration_count": "9"}, {"place_id": "france_162", "place_name": "Strasbourg", "place_lat": "48.585339", "place_lon": "7.734067", "duration_min": "291", "duration_max": "334", "duration_median": "319", "duration_count": "9"}, {"place_id": "france_163", "place_name": "Arras", "place_lat": "50.286889", "place_lon": "2.781829", "duration_min": "247", "duration_max": "252", "duration_median": "249", "duration_count": "3"}, {"place_id": "france_19", "place_name": "Paris", "place_lat": "48.8404960", "place_lon": "2.36707900", "duration_min": "157", "duration_max": "234", "duration_median": "202", "duration_count": "8"}, {"place_id": "france_2", "place_name": "Versailles", "place_lat": "48.7956490", "place_lon": "2.13592400", "duration_min": "212", "duration_max": "229", "duration_median": "228", "duration_count": "3"}, {"place_id": "france_6", "place_name": "Rennes", "place_lat": "48.1030710", "place_lon": "-1.6721310", "duration_min": "290", "duration_max": "317", "duration_median": "312", "duration_count": "4"}, {"place_id": "france_93", "place_name": "Lyon", "place_lat": "45.7605960", "place_lon": "4.85940900", "duration_min": "61", "duration_max": "160", "duration_median": "102", "duration_count": "50"}, {"place_id": "spain_1", "place_name": "Barcelona", "place_lat": "41.37922", "place_lon": "2.140624", "duration_min": "238", "duration_max": "238", "duration_median": "238", "duration_count": "1"}, {"place_id": "spain_104", "place_name": "Figueres", "place_lat": "42.2647710", "place_lon": "2.94354700", "duration_min": "180", "duration_max": "180", "duration_median": "180", "duration_count": "1"}, {"place_id": "spain_105", "place_name": "Girona", "place_lat": "41.9793030", "place_lon": "2.81700600", "duration_min": "197", "duration_max": "197", "duration_median": "197", "duration_count": "1"}, {"place_id": "spain_55", "place_name": "Zaragoza", "place_lat": "41.658649", "place_lon": "-0.911615", "duration_min": "342", "duration_max": "342", "duration_median": "342", "duration_count": "1"}, {"place_id": "spain_806", "place_name": "Portbou", "place_lat": "42.4244940", "place_lon": "3.15785800", "duration_min": "238", "duration_max": "238", "duration_median": "247", "duration_count": "1"}, {"place_id": "switzerland_2", "place_name": "Bern", "place_lat": "46.948834", "place_lon": "7.439131", "duration_min": "434", "duration_max": "434", "duration_median": "434", "duration_count": "1"}, {"place_id": "switzerland_3", "place_name": "Geneva", "place_lat": "46.210209", "place_lon": "6.142455", "duration_min": "219", "duration_max": "299", "duration_median": "259", "duration_count": "2"}, {"place_id": "switzerland_6", "place_name": "Zurich", "place_lat": "47.378968", "place_lon": "8.540534", "duration_min": "525", "duration_max": "525", "duration_median": "525", "duration_count": "1"}]}