{"place_id": "france_28", "place_name": "Limoges", "place_lat": "45.8372180", "place_lon": "1.26900800", "place_brief_desc": "Known for its decorated porcelain, much of which is on display at the Mus\u00e9e National Adrien Dubouch\u00e9.", "place_longer_desc": "Limoges is a city in southwest-central France. It\u2019s known for its decorated porcelain, much of which is on display at the Mus\u00e9e National Adrien Dubouch\u00e9. In the historic center, medieval timber-frame houses line Rue de la Boucherie. Set in the former Episcopal Palace, the Mus\u00e9e des Beaux-Arts showcases the history of the city's medieval enamel. The Gothic Cath\u00e9drale St-\u00c9tienne de Limoges took 6 centuries to complete", "place_image": "./static/images/limoges.png", "place_tags": "history|art", "place_links": "./static/cards/limoges.html", "place_country": "France", "hops": [{"place_id": "belgium_1", "place_name": "Brussels", "place_lat": "50.835375", "place_lon": "4.335695", "duration_min": "665", "duration_max": "665", "duration_median": "665", "duration_count": "1"}, {"place_id": "france_127", "place_name": "Narbonne", "place_lat": "43.1906640", "place_lon": "3.00556200", "duration_min": "329", "duration_max": "329", "duration_median": "329", "duration_count": "1"}, {"place_id": "france_145", "place_name": "Perpignan", "place_lat": "42.6960790", "place_lon": "2.87962200", "duration_min": "389", "duration_max": "425", "duration_median": "403", "duration_count": "3"}, {"place_id": "france_155", "place_name": "Lille", "place_lat": "50.64501", "place_lon": "3.082257", "duration_min": "555", "duration_max": "555", "duration_median": "555", "duration_count": "1"}, {"place_id": "france_19", "place_name": "Paris", "place_lat": "48.8404960", "place_lon": "2.36707900", "duration_min": "190", "duration_max": "350", "duration_median": "289", "duration_count": "11"}, {"place_id": "france_24", "place_name": "Bordeaux", "place_lat": "44.8258230", "place_lon": "-0.5560120", "duration_min": "129", "duration_max": "129", "duration_median": "147", "duration_count": "1"}, {"place_id": "france_38", "place_name": "Toulouse", "place_lat": "43.6114370", "place_lon": "1.45423700", "duration_min": "195", "duration_max": "235", "duration_median": "222", "duration_count": "9"}, {"place_id": "spain_1", "place_name": "Barcelona", "place_lat": "41.37922", "place_lon": "2.140624", "duration_min": "539", "duration_max": "585", "duration_median": "556", "duration_count": "3"}]}