{"place_id": "france_24", "place_name": "Bordeaux", "place_lat": "44.8258230", "place_lon": "-0.5560120", "place_brief_desc": "Global capital of wine with great architecture and food.", "place_longer_desc": "Bordeaux, resting on the banks of the Garonne is the global capital of wine and it would be rude not to get straight to the point and pay a visit to La Cit\u00e9 du Vin where you can learn about how the giggle-juice is made and maybe do some tasting?", "place_image": "./static/images/bordeaux.png", "place_tags": "history|kids|city break", "place_links": "./static/cards/bordeaux.html", "place_country": "France", "hops": [{"place_id": "belgium_1", "place_name": "Brussels", "place_lat": "50.835375", "place_lon": "4.335695", "duration_min": "710", "duration_max": "720", "duration_median": "716", "duration_count": "3"}, {"place_id": "france_1", "place_name": "Futuroscope", "place_lat": "46.6699180", "place_lon": "0.37720900", "duration_min": "127", "duration_max": "190", "duration_median": "162", "duration_count": "3"}, {"place_id": "france_10", "place_name": "La Rochelle", "place_lat": "46.1527030", "place_lon": "-1.1452880", "duration_min": "125", "duration_max": "170", "duration_median": "151", "duration_count": "8"}, {"place_id": "france_105", "place_name": "Marseille", "place_lat": "43.3030300", "place_lon": "5.38055500", "duration_min": "363", "duration_max": "630", "duration_median": "546", "duration_count": "7"}, {"place_id": "france_106", "place_name": "Arles", "place_lat": "43.6853590", "place_lon": "4.63210900", "duration_min": "320", "duration_max": "320", "duration_median": "326", "duration_count": "1"}, {"place_id": "france_123", "place_name": "Montpellier", "place_lat": "43.6047800", "place_lon": "3.88116800", "duration_min": "264", "duration_max": "420", "duration_median": "376", "duration_count": "9"}, {"place_id": "france_124", "place_name": "Sete", "place_lat": "43.4128080", "place_lon": "3.69641000", "duration_min": "246", "duration_max": "246", "duration_median": "253", "duration_count": "1"}, {"place_id": "france_125", "place_name": "Nimes", "place_lat": "43.8323870", "place_lon": "4.36608100", "duration_min": "292", "duration_max": "480", "duration_median": "413", "duration_count": "3"}, {"place_id": "france_127", "place_name": "Narbonne", "place_lat": "43.1906640", "place_lon": "3.00556200", "duration_min": "209", "duration_max": "320", "duration_median": "277", "duration_count": "3"}, {"place_id": "france_145", "place_name": "Perpignan", "place_lat": "42.6960790", "place_lon": "2.87962200", "duration_min": "350", "duration_max": "375", "duration_median": "368", "duration_count": "3"}, {"place_id": "france_15", "place_name": "Saintes", "place_lat": "45.7488860", "place_lon": "-0.6173560", "duration_min": "80", "duration_max": "99", "duration_median": "93", "duration_count": "6"}, {"place_id": "france_155", "place_name": "Lille", "place_lat": "50.64501", "place_lon": "3.082257", "duration_min": "265", "duration_max": "635", "duration_median": "491", "duration_count": "5"}, {"place_id": "france_162", "place_name": "Strasbourg", "place_lat": "48.585339", "place_lon": "7.734067", "duration_min": "319", "duration_max": "905", "duration_median": "563", "duration_count": "5"}, {"place_id": "france_19", "place_name": "Paris", "place_lat": "48.8404960", "place_lon": "2.36707900", "duration_min": "123", "duration_max": "540", "duration_median": "393", "duration_count": "33"}, {"place_id": "france_28", "place_name": "Limoges", "place_lat": "45.8372180", "place_lon": "1.26900800", "duration_min": "134", "duration_max": "134", "duration_median": "150", "duration_count": "1"}, {"place_id": "france_38", "place_name": "Toulouse", "place_lat": "43.6114370", "place_lon": "1.45423700", "duration_min": "122", "duration_max": "225", "duration_median": "176", "duration_count": "22"}, {"place_id": "france_6", "place_name": "Rennes", "place_lat": "48.1030710", "place_lon": "-1.6721310", "duration_min": "345", "duration_max": "465", "duration_median": "382", "duration_count": "9"}, {"place_id": "france_72", "place_name": "Carcassonne", "place_lat": "43.2181650", "place_lon": "2.35243000", "duration_min": "179", "duration_max": "290", "duration_median": "236", "duration_count": "2"}, {"place_id": "france_80", "place_name": "Lourdes", "place_lat": "43.1006000", "place_lon": "-0.0418120", "duration_min": "145", "duration_max": "245", "duration_median": "191", "duration_count": "3"}, {"place_id": "france_83", "place_name": "Bayonne", "place_lat": "43.4970180", "place_lon": "-1.4701940", "duration_min": "104", "duration_max": "195", "duration_median": "147", "duration_count": "18"}, {"place_id": "france_85", "place_name": "Hendaye", "place_lat": "43.3531650", "place_lon": "-1.7820950", "duration_min": "143", "duration_max": "245", "duration_median": "190", "duration_count": "9"}, {"place_id": "france_93", "place_name": "Lyon", "place_lat": "45.7605960", "place_lon": "4.85940900", "duration_min": "410", "duration_max": "490", "duration_median": "466", "duration_count": "11"}, {"place_id": "Germany_6", "place_name": "Freiburg", "place_lat": "47.997974", "place_lon": "7.841344", "duration_min": "409", "duration_max": "409", "duration_median": "410", "duration_count": "1"}, {"place_id": "italy_1", "place_name": "Venice", "place_lat": "45.444427", "place_lon": "12.315491", "duration_min": "1080", "duration_max": "1080", "duration_median": "1080", "duration_count": "1"}, {"place_id": "italy_8", "place_name": "Turin", "place_lat": "45.067428", "place_lon": "7.672976", "duration_min": "745", "duration_max": "1065", "duration_median": "825", "duration_count": "4"}, {"place_id": "portugal_4", "place_name": "Porto", "place_lat": "41.148823", "place_lon": "-8.584932", "duration_min": "900", "duration_max": "1045", "duration_median": "983", "duration_count": "4"}, {"place_id": "romania_3", "place_name": "Sibiu", "place_lat": "45.799977", "place_lon": "24.161575", "duration_min": "2635", "duration_max": "2635", "duration_median": "2635", "duration_count": "1"}, {"place_id": "slovenia_1", "place_name": "Ljubljana", "place_lat": "46.058687", "place_lon": "14.51294", "duration_min": "1645", "duration_max": "1645", "duration_median": "1688", "duration_count": "1"}, {"place_id": "spain_1", "place_name": "Barcelona", "place_lat": "41.37922", "place_lon": "2.140624", "duration_min": "500", "duration_max": "580", "duration_median": "526", "duration_count": "7"}, {"place_id": "spain_105", "place_name": "Girona", "place_lat": "41.9793030", "place_lon": "2.81700600", "duration_min": "455", "duration_max": "455", "duration_median": "455", "duration_count": "1"}, {"place_id": "spain_162", "place_name": "Algeciras", "place_lat": "36.1268310", "place_lon": "-5.4511080", "duration_min": "1285", "duration_max": "1285", "duration_median": "1285", "duration_count": "1"}, {"place_id": "spain_44", "place_name": "San Sebastian", "place_lat": "43.317669", "place_lon": "-1.976704", "duration_min": "165", "duration_max": "275", "duration_median": "219", "duration_count": "17"}, {"place_id": "switzerland_3", "place_name": "Geneva", "place_lat": "46.210209", "place_lon": "6.142455", "duration_min": "645", "duration_max": "780", "duration_median": "706", "duration_count": "3"}]}