{"place_id": "france_85", "place_name": "Hendaye", "place_lat": "43.3531650", "place_lon": "-1.7820950", "place_brief_desc": "Popular surfing destination renowned for its soft beach break waves suitable for beginners.", "place_longer_desc": "Hendaye is a popular surfing destination renowned for its soft beach break waves suitable for beginners. Trains leave from here to Spain - or just walk across the border...", "place_image": "./static/images/hendaye.png", "place_tags": "beaches", "place_links": "./static/cards/hendaye.html", "place_country": "France", "hops": [{"place_id": "france_10", "place_name": "La Rochelle", "place_lat": "46.1527030", "place_lon": "-1.1452880", "duration_min": "330", "duration_max": "344", "duration_median": "337", "duration_count": "2"}, {"place_id": "france_125", "place_name": "Nimes", "place_lat": "43.8323870", "place_lon": "4.36608100", "duration_min": "460", "duration_max": "460", "duration_median": "460", "duration_count": "1"}, {"place_id": "france_19", "place_name": "Paris", "place_lat": "48.8404960", "place_lon": "2.36707900", "duration_min": "276", "duration_max": "775", "duration_median": "612", "duration_count": "5"}, {"place_id": "france_24", "place_name": "Bordeaux", "place_lat": "44.8258230", "place_lon": "-0.5560120", "duration_min": "144", "duration_max": "250", "duration_median": "189", "duration_count": "9"}, {"place_id": "france_38", "place_name": "Toulouse", "place_lat": "43.6114370", "place_lon": "1.45423700", "duration_min": "245", "duration_max": "330", "duration_median": "288", "duration_count": "5"}, {"place_id": "france_6", "place_name": "Rennes", "place_lat": "48.1030710", "place_lon": "-1.6721310", "duration_min": "550", "duration_max": "564", "duration_median": "557", "duration_count": "2"}, {"place_id": "france_80", "place_name": "Lourdes", "place_lat": "43.1006000", "place_lon": "-0.0418120", "duration_min": "136", "duration_max": "147", "duration_median": "148", "duration_count": "2"}, {"place_id": "france_83", "place_name": "Bayonne", "place_lat": "43.4970180", "place_lon": "-1.4701940", "duration_min": "30", "duration_max": "65", "duration_median": "50", "duration_count": "12"}, {"place_id": "france_93", "place_name": "Lyon", "place_lat": "45.7605960", "place_lon": "4.85940900", "duration_min": "645", "duration_max": "645", "duration_median": "645", "duration_count": "1"}, {"place_id": "portugal_4", "place_name": "Porto", "place_lat": "41.148823", "place_lon": "-8.584932", "duration_min": "645", "duration_max": "885", "duration_median": "780", "duration_count": "3"}, {"place_id": "spain_139", "place_name": "Tolosa", "place_lat": "43.131936", "place_lon": "-2.085247", "duration_min": "38", "duration_max": "60", "duration_median": "52", "duration_count": "5"}, {"place_id": "spain_162", "place_name": "Algeciras", "place_lat": "36.1268310", "place_lon": "-5.4511080", "duration_min": "1080", "duration_max": "1080", "duration_median": "1080", "duration_count": "1"}, {"place_id": "spain_20", "place_name": "Madrid", "place_lat": "40.4720993", "place_lon": "-3.6824687", "duration_min": "311", "duration_max": "430", "duration_median": "388", "duration_count": "3"}, {"place_id": "spain_44", "place_name": "San Sebastian", "place_lat": "43.317669", "place_lon": "-1.976704", "duration_min": "15", "duration_max": "35", "duration_median": "27", "duration_count": "22"}, {"place_id": "switzerland_2", "place_name": "Bern", "place_lat": "46.948834", "place_lon": "7.439131", "duration_min": "1090", "duration_max": "1090", "duration_median": "1090", "duration_count": "1"}, {"place_id": "switzerland_3", "place_name": "Geneva", "place_lat": "46.210209", "place_lon": "6.142455", "duration_min": "855", "duration_max": "940", "duration_median": "897", "duration_count": "2"}, {"place_id": "switzerland_6", "place_name": "Zurich", "place_lat": "47.378968", "place_lon": "8.540534", "duration_min": "1190", "duration_max": "1190", "duration_median": "1190", "duration_count": "1"}]}