{"place_id": "Germany_4", "place_name": "Munich", "place_lat": "48.140364", "place_lon": "11.558744", "place_brief_desc": "The capital of Bavaria is a popular destination for its Oktoberfest, its beer halls and its fairy-tale castles.", "place_longer_desc": "The capital of Bavaria is a popular destination for its Oktoberfest, its beer halls and its fairy-tale castles. You can enjoy the festive atmosphere at Marienplatz, see the famous Glockenspiel clock, visit the impressive Munich Residenz palace and museum, and take a day trip to Neuschwanstein Castle, one of the most spectacular castles in the world", "place_image": "./static/images/munich.png", "place_tags": "history", "place_links": "./static/cards/munich.html", "place_country": "Germany", "hops": [{"place_id": "austria_1", "place_name": "Vienna", "place_lat": "48.207037", "place_lon": "16.341553", "duration_min": "335", "duration_max": "350", "duration_median": "340", "duration_count": "5"}, {"place_id": "austria_2", "place_name": "Salzburg", "place_lat": "47.813848", "place_lon": "13.045514", "duration_min": "85", "duration_max": "98", "duration_median": "104", "duration_count": "4"}, {"place_id": "austria_4", "place_name": "Innsbruck", "place_lat": "47.263331", "place_lon": "11.400506", "duration_min": "106", "duration_max": "150", "duration_median": "136", "duration_count": "15"}, {"place_id": "austria_5", "place_name": "Bregenz", "place_lat": "47.503001", "place_lon": "9.739623", "duration_min": "145", "duration_max": "175", "duration_median": "155", "duration_count": "8"}, {"place_id": "belgium_1", "place_name": "Brussels", "place_lat": "50.835375", "place_lon": "4.335695", "duration_min": "720", "duration_max": "775", "duration_median": "746", "duration_count": "8"}, {"place_id": "belgium_12", "place_name": "Hasselt", "place_lat": "50.930876", "place_lon": "5.327062", "duration_min": "665", "duration_max": "665", "duration_median": "665", "duration_count": "2"}, {"place_id": "belgium_4", "place_name": "Antwerp", "place_lat": "51.215807", "place_lon": "4.421165", "duration_min": "800", "duration_max": "825", "duration_median": "811", "duration_count": "6"}, {"place_id": "belgium_7", "place_name": "Namur", "place_lat": "50.468983", "place_lon": "4.862499", "duration_min": "675", "duration_max": "675", "duration_median": "675", "duration_count": "2"}, {"place_id": "bulgaria_1", "place_name": "Sofia", "place_lat": "42.712209", "place_lon": "23.321039", "duration_min": "1295", "duration_max": "1295", "duration_median": "1295", "duration_count": "2"}, {"place_id": "bulgaria_2", "place_name": "Plovdiv", "place_lat": "42.134068", "place_lon": "24.740247", "duration_min": "1460", "duration_max": "1460", "duration_median": "1460", "duration_count": "2"}, {"place_id": "croatia_1", "place_name": "Zagreb", "place_lat": "45.807411", "place_lon": "15.990291", "duration_min": "440", "duration_max": "565", "duration_median": "509", "duration_count": "20"}, {"place_id": "croatia_2", "place_name": "Split", "place_lat": "43.504887", "place_lon": "16.44279", "duration_min": "905", "duration_max": "920", "duration_median": "916", "duration_count": "4"}, {"place_id": "czechia_1", "place_name": "Prague", "place_lat": "50.081926", "place_lon": "14.451481", "duration_min": "290", "duration_max": "325", "duration_median": "308", "duration_count": "10"}, {"place_id": "czechia_10", "place_name": "Ceske Budejovice", "place_lat": "48.974616", "place_lon": "14.48875", "duration_min": "355", "duration_max": "355", "duration_median": "355", "duration_count": "2"}, {"place_id": "czechia_2", "place_name": "Cesky Krumlov", "place_lat": "48.822429", "place_lon": "14.317299", "duration_min": "320", "duration_max": "320", "duration_median": "320", "duration_count": "2"}, {"place_id": "czechia_5", "place_name": "Brno", "place_lat": "49.190537", "place_lon": "16.612776", "duration_min": "440", "duration_max": "580", "duration_median": "500", "duration_count": "6"}, {"place_id": "czechia_6", "place_name": "Pilsen", "place_lat": "49.746889", "place_lon": "13.377351", "duration_min": "235", "duration_max": "275", "duration_median": "255", "duration_count": "4"}, {"place_id": "czechia_7", "place_name": "Olomouc", "place_lat": "49.593128", "place_lon": "17.277932", "duration_min": "505", "duration_max": "550", "duration_median": "527", "duration_count": "4"}, {"place_id": "czechia_8", "place_name": "Telc", "place_lat": "49.1826", "place_lon": "15.464278", "duration_min": "465", "duration_max": "465", "duration_median": "465", "duration_count": "2"}, {"place_id": "denmark_1", "place_name": "Copenhagen", "place_lat": "55.688237", "place_lon": "12.578426", "duration_min": "1030", "duration_max": "1030", "duration_median": "1030", "duration_count": "2"}, {"place_id": "france_105", "place_name": "Marseille", "place_lat": "43.3030300", "place_lon": "5.38055500", "duration_min": "880", "duration_max": "880", "duration_median": "880", "duration_count": "2"}, {"place_id": "france_123", "place_name": "Montpellier", "place_lat": "43.6047800", "place_lon": "3.88116800", "duration_min": "1035", "duration_max": "1035", "duration_median": "1035", "duration_count": "2"}, {"place_id": "france_161", "place_name": "Nice", "place_lat": "43.704825", "place_lon": "7.261765", "duration_min": "710", "duration_max": "710", "duration_median": "710", "duration_count": "2"}, {"place_id": "france_162", "place_name": "Strasbourg", "place_lat": "48.585339", "place_lon": "7.734067", "duration_min": "226", "duration_max": "390", "duration_median": "323", "duration_count": "18"}, {"place_id": "france_19", "place_name": "Paris", "place_lat": "48.8404960", "place_lon": "2.36707900", "duration_min": "670", "duration_max": "820", "duration_median": "733", "duration_count": "15"}, {"place_id": "france_93", "place_name": "Lyon", "place_lat": "45.7605960", "place_lon": "4.85940900", "duration_min": "705", "duration_max": "705", "duration_median": "713", "duration_count": "2"}, {"place_id": "Germany_1", "place_name": "Berlin", "place_lat": "52.520501", "place_lon": "13.386988", "duration_min": "234", "duration_max": "234", "duration_median": "326", "duration_count": "1"}, {"place_id": "Germany_10", "place_name": "Lubeck", "place_lat": "53.86767", "place_lon": "10.669737", "duration_min": "439", "duration_max": "720", "duration_median": "630", "duration_count": "3"}, {"place_id": "Germany_2", "place_name": "Dresden", "place_lat": "51.040221", "place_lon": "13.731409", "duration_min": "390", "duration_max": "410", "duration_median": "400", "duration_count": "4"}, {"place_id": "Germany_3", "place_name": "Nuremberg", "place_lat": "49.450748", "place_lon": "11.077955", "duration_min": "62", "duration_max": "180", "duration_median": "130", "duration_count": "32"}, {"place_id": "Germany_5", "place_name": "Cologne", "place_lat": "50.941312", "place_lon": "6.967206", "duration_min": "235", "duration_max": "479", "duration_median": "423", "duration_count": "3"}, {"place_id": "Germany_6", "place_name": "Freiburg", "place_lat": "47.997974", "place_lon": "7.841344", "duration_min": "244", "duration_max": "395", "duration_median": "359", "duration_count": "12"}, {"place_id": "Germany_7", "place_name": "Hamburg", "place_lat": "53.55711", "place_lon": "9.997434", "duration_min": "356", "duration_max": "960", "duration_median": "706", "duration_count": "8"}, {"place_id": "Germany_8", "place_name": "Heidelberg", "place_lat": "49.403582", "place_lon": "8.67548", "duration_min": "177", "duration_max": "370", "duration_median": "300", "duration_count": "13"}, {"place_id": "Germany_9", "place_name": "Aachen", "place_lat": "50.767641", "place_lon": "6.09119", "duration_min": "575", "duration_max": "600", "duration_median": "587", "duration_count": "4"}, {"place_id": "hungary_7", "place_name": "Gyor", "place_lat": "47.681986", "place_lon": "17.634795", "duration_min": "405", "duration_max": "450", "duration_median": "427", "duration_count": "4"}, {"place_id": "italy_1", "place_name": "Venice", "place_lat": "45.444427", "place_lon": "12.315491", "duration_min": "410", "duration_max": "505", "duration_median": "470", "duration_count": "9"}, {"place_id": "italy_11", "place_name": "Assisi", "place_lat": "43.070820", "place_lon": "12.618917", "duration_min": "760", "duration_max": "770", "duration_median": "768", "duration_count": "2"}, {"place_id": "italy_5", "place_name": "Naples", "place_lat": "40.860791", "place_lon": "14.257611", "duration_min": "875", "duration_max": "875", "duration_median": "883", "duration_count": "2"}, {"place_id": "italy_8", "place_name": "Turin", "place_lat": "45.067428", "place_lon": "7.672976", "duration_min": "545", "duration_max": "545", "duration_median": "547", "duration_count": "2"}, {"place_id": "netherlands_2", "place_name": "Rotterdam", "place_lat": "51.924804", "place_lon": "4.468771", "duration_min": "785", "duration_max": "815", "duration_median": "800", "duration_count": "4"}, {"place_id": "netherlands_3", "place_name": "Utrecht", "place_lat": "52.089397", "place_lon": "5.109864", "duration_min": "665", "duration_max": "665", "duration_median": "665", "duration_count": "2"}, {"place_id": "netherlands_4", "place_name": "Den Haag", "place_lat": "52.080408", "place_lon": "4.325169", "duration_min": "820", "duration_max": "850", "duration_median": "835", "duration_count": "4"}, {"place_id": "netherlands_8", "place_name": "Maastricht", "place_lat": "50.849811", "place_lon": "5.705876", "duration_min": "615", "duration_max": "615", "duration_median": "615", "duration_count": "2"}, {"place_id": "poland_1", "place_name": "Krakow", "place_lat": "50.069934", "place_lon": "19.940546", "duration_min": "795", "duration_max": "795", "duration_median": "795", "duration_count": "2"}, {"place_id": "poland_2", "place_name": "Warsaw", "place_lat": "52.224729", "place_lon": "21.001417", "duration_min": "885", "duration_max": "910", "duration_median": "897", "duration_count": "4"}, {"place_id": "poland_3", "place_name": "Wroclaw", "place_lat": "51.098075", "place_lon": "17.037084", "duration_min": "630", "duration_max": "630", "duration_median": "640", "duration_count": "4"}, {"place_id": "poland_4", "place_name": "Gdansk", "place_lat": "54.365843", "place_lon": "18.64396", "duration_min": "1015", "duration_max": "1185", "duration_median": "1100", "duration_count": "4"}, {"place_id": "romania_3", "place_name": "Sibiu", "place_lat": "45.799977", "place_lon": "24.161575", "duration_min": "1120", "duration_max": "1120", "duration_median": "1120", "duration_count": "2"}, {"place_id": "slovakia_1", "place_name": "Bratislava", "place_lat": "48.154135", "place_lon": "17.097852", "duration_min": "400", "duration_max": "435", "duration_median": "424", "duration_count": "10"}, {"place_id": "slovakia_2", "place_name": "Kosice", "place_lat": "48.722918", "place_lon": "21.268721", "duration_min": "805", "duration_max": "810", "duration_median": "807", "duration_count": "2"}, {"place_id": "slovenia_1", "place_name": "Ljubljana", "place_lat": "46.058687", "place_lon": "14.51294", "duration_min": "310", "duration_max": "381", "duration_median": "348", "duration_count": "22"}, {"place_id": "slovenia_2", "place_name": "Bled", "place_lat": "46.368302", "place_lon": "14.082303", "duration_min": "316", "duration_max": "320", "duration_median": "320", "duration_count": "3"}, {"place_id": "spain_1", "place_name": "Barcelona", "place_lat": "41.37922", "place_lon": "2.140624", "duration_min": "1300", "duration_max": "1300", "duration_median": "1300", "duration_count": "2"}, {"place_id": "switzerland_2", "place_name": "Bern", "place_lat": "46.948834", "place_lon": "7.439131", "duration_min": "405", "duration_max": "405", "duration_median": "405", "duration_count": "2"}, {"place_id": "switzerland_3", "place_name": "Geneva", "place_lat": "46.210209", "place_lon": "6.142455", "duration_min": "560", "duration_max": "560", "duration_median": "566", "duration_count": "2"}, {"place_id": "switzerland_6", "place_name": "Zurich", "place_lat": "47.378968", "place_lon": "8.540534", "duration_min": "230", "duration_max": "300", "duration_median": "277", "duration_count": "14"}]}