{"place_id": "Germany_2", "place_name": "Dresden", "place_lat": "51.040221", "place_lon": "13.731409", "place_brief_desc": "Beautifully restored city with stunning Baroque architecture and packed museums.", "place_longer_desc": "Dresden: The city of Dresden was heavily bombed during World War II, but has been beautifully restored to its former glory. You can admire the stunning Baroque architecture of the Zwinger Palace, the Semper Opera House and the Frauenkirche, as well as explore the rich collections of art and history in the museums.", "place_image": "./static/images/dresden.png", "place_tags": "history", "place_links": "./static/cards/dresden.html", "place_country": "Germany", "hops": [{"place_id": "belgium_1", "place_name": "Brussels", "place_lat": "50.835375", "place_lon": "4.335695", "duration_min": "720", "duration_max": "720", "duration_median": "720", "duration_count": "2"}, {"place_id": "croatia_1", "place_name": "Zagreb", "place_lat": "45.807411", "place_lon": "15.990291", "duration_min": "685", "duration_max": "685", "duration_median": "709", "duration_count": "2"}, {"place_id": "czechia_1", "place_name": "Prague", "place_lat": "50.081926", "place_lon": "14.451481", "duration_min": "100", "duration_max": "115", "duration_median": "112", "duration_count": "33"}, {"place_id": "czechia_10", "place_name": "Ceske Budejovice", "place_lat": "48.974616", "place_lon": "14.48875", "duration_min": "249", "duration_max": "249", "duration_median": "259", "duration_count": "2"}, {"place_id": "czechia_5", "place_name": "Brno", "place_lat": "49.190537", "place_lon": "16.612776", "duration_min": "260", "duration_max": "440", "duration_median": "315", "duration_count": "8"}, {"place_id": "czechia_9", "place_name": "Liberec", "place_lat": "50.761429", "place_lon": "15.045947", "duration_min": "114", "duration_max": "185", "duration_median": "162", "duration_count": "5"}, {"place_id": "denmark_1", "place_name": "Copenhagen", "place_lat": "55.688237", "place_lon": "12.578426", "duration_min": "720", "duration_max": "720", "duration_median": "720", "duration_count": "2"}, {"place_id": "france_155", "place_name": "Lille", "place_lat": "50.64501", "place_lon": "3.082257", "duration_min": "945", "duration_max": "945", "duration_median": "945", "duration_count": "2"}, {"place_id": "france_162", "place_name": "Strasbourg", "place_lat": "48.585339", "place_lon": "7.734067", "duration_min": "610", "duration_max": "610", "duration_median": "610", "duration_count": "2"}, {"place_id": "france_19", "place_name": "Paris", "place_lat": "48.8404960", "place_lon": "2.36707900", "duration_min": "855", "duration_max": "1125", "duration_median": "995", "duration_count": "4"}, {"place_id": "Germany_1", "place_name": "Berlin", "place_lat": "52.520501", "place_lon": "13.386988", "duration_min": "99", "duration_max": "188", "duration_median": "159", "duration_count": "16"}, {"place_id": "Germany_3", "place_name": "Nuremberg", "place_lat": "49.450748", "place_lon": "11.077955", "duration_min": "245", "duration_max": "280", "duration_median": "258", "duration_count": "6"}, {"place_id": "Germany_4", "place_name": "Munich", "place_lat": "48.140364", "place_lon": "11.558744", "duration_min": "400", "duration_max": "420", "duration_median": "410", "duration_count": "4"}, {"place_id": "Germany_5", "place_name": "Cologne", "place_lat": "50.941312", "place_lon": "6.967206", "duration_min": "435", "duration_max": "436", "duration_median": "442", "duration_count": "3"}, {"place_id": "Germany_6", "place_name": "Freiburg", "place_lat": "47.997974", "place_lon": "7.841344", "duration_min": "539", "duration_max": "539", "duration_median": "550", "duration_count": "1"}, {"place_id": "Germany_7", "place_name": "Hamburg", "place_lat": "53.55711", "place_lon": "9.997434", "duration_min": "246", "duration_max": "535", "duration_median": "431", "duration_count": "9"}, {"place_id": "Germany_8", "place_name": "Heidelberg", "place_lat": "49.403582", "place_lon": "8.67548", "duration_min": "524", "duration_max": "604", "duration_median": "557", "duration_count": "3"}, {"place_id": "Germany_9", "place_name": "Aachen", "place_lat": "50.767641", "place_lon": "6.09119", "duration_min": "475", "duration_max": "475", "duration_median": "478", "duration_count": "2"}, {"place_id": "hungary_6", "place_name": "Szeged", "place_lat": "46.23981", "place_lon": "20.143181", "duration_min": "680", "duration_max": "680", "duration_median": "686", "duration_count": "2"}, {"place_id": "hungary_7", "place_name": "Gyor", "place_lat": "47.681986", "place_lon": "17.634795", "duration_min": "445", "duration_max": "445", "duration_median": "457", "duration_count": "2"}, {"place_id": "netherlands_2", "place_name": "Rotterdam", "place_lat": "51.924804", "place_lon": "4.468771", "duration_min": "735", "duration_max": "735", "duration_median": "735", "duration_count": "2"}, {"place_id": "netherlands_3", "place_name": "Utrecht", "place_lat": "52.089397", "place_lon": "5.109864", "duration_min": "770", "duration_max": "770", "duration_median": "770", "duration_count": "2"}, {"place_id": "netherlands_4", "place_name": "Den Haag", "place_lat": "52.080408", "place_lon": "4.325169", "duration_min": "770", "duration_max": "770", "duration_median": "770", "duration_count": "2"}, {"place_id": "netherlands_8", "place_name": "Maastricht", "place_lat": "50.849811", "place_lon": "5.705876", "duration_min": "610", "duration_max": "610", "duration_median": "610", "duration_count": "2"}, {"place_id": "poland_1", "place_name": "Krakow", "place_lat": "50.069934", "place_lon": "19.940546", "duration_min": "435", "duration_max": "460", "duration_median": "451", "duration_count": "3"}, {"place_id": "poland_2", "place_name": "Warsaw", "place_lat": "52.224729", "place_lon": "21.001417", "duration_min": "465", "duration_max": "565", "duration_median": "526", "duration_count": "10"}, {"place_id": "poland_3", "place_name": "Wroclaw", "place_lat": "51.098075", "place_lon": "17.037084", "duration_min": "210", "duration_max": "255", "duration_median": "235", "duration_count": "16"}, {"place_id": "romania_3", "place_name": "Sibiu", "place_lat": "45.799977", "place_lon": "24.161575", "duration_min": "1130", "duration_max": "1130", "duration_median": "1130", "duration_count": "2"}, {"place_id": "slovakia_1", "place_name": "Bratislava", "place_lat": "48.154135", "place_lon": "17.097852", "duration_min": "370", "duration_max": "390", "duration_median": "389", "duration_count": "4"}, {"place_id": "slovenia_1", "place_name": "Ljubljana", "place_lat": "46.058687", "place_lon": "14.51294", "duration_min": "703", "duration_max": "703", "duration_median": "713", "duration_count": "2"}, {"place_id": "slovenia_2", "place_name": "Bled", "place_lat": "46.368302", "place_lon": "14.082303", "duration_min": "641", "duration_max": "641", "duration_median": "651", "duration_count": "2"}, {"place_id": "sweden_3", "place_name": "Malmo", "place_lat": "55.609231", "place_lon": "13.00126", "duration_min": "921", "duration_max": "921", "duration_median": "923", "duration_count": "1"}, {"place_id": "switzerland_6", "place_name": "Zurich", "place_lat": "47.378968", "place_lon": "8.540534", "duration_min": "705", "duration_max": "715", "duration_median": "718", "duration_count": "4"}]}