{"place_id": "Germany_10", "place_name": "Lubeck", "place_lat": "53.86767", "place_lon": "10.669737", "place_brief_desc": "Beautiful city in northern Germany with a rich medieval history and architecture.", "place_longer_desc": "L\u00fcbeck is a beautiful city in northern Germany with a rich medieval history and architecture that is a UNESCO World Heritage Site. The Holsten Gate is the city's landmark and a remnant of the old fortifications. The old town is full of charming gabled houses, churches and courtyards. It\u2019s also the home of marzipan, a sweet treat made from almonds and sugar that comes in many shapes and flavours. L\u00fcbeck is also an ideal starting point for exploring the Baltic Sea coast. The city is located on the Trave, which flows about 20 kilometres further into the Baltic Sea. From here you can go on day trips on historic ships or visit the nearby beaches and seaside resorts.", "place_image": "./static/images/lubeck.png", "place_tags": "history", "place_links": "./static/cards/lubeck.html", "place_country": "Germany", "hops": [{"place_id": "denmark_1", "place_name": "Copenhagen", "place_lat": "55.688237", "place_lon": "12.578426", "duration_min": "265", "duration_max": "305", "duration_median": "285", "duration_count": "12"}, {"place_id": "Germany_3", "place_name": "Nuremberg", "place_lat": "49.450748", "place_lon": "11.077955", "duration_min": "368", "duration_max": "575", "duration_median": "506", "duration_count": "3"}, {"place_id": "Germany_4", "place_name": "Munich", "place_lat": "48.140364", "place_lon": "11.558744", "duration_min": "443", "duration_max": "725", "duration_median": "633", "duration_count": "3"}, {"place_id": "Germany_5", "place_name": "Cologne", "place_lat": "50.941312", "place_lon": "6.967206", "duration_min": "267", "duration_max": "267", "duration_median": "272", "duration_count": "1"}, {"place_id": "Germany_7", "place_name": "Hamburg", "place_lat": "53.55711", "place_lon": "9.997434", "duration_min": "33", "duration_max": "85", "duration_median": "61", "duration_count": "14"}, {"place_id": "netherlands_2", "place_name": "Rotterdam", "place_lat": "51.924804", "place_lon": "4.468771", "duration_min": "555", "duration_max": "555", "duration_median": "555", "duration_count": "2"}, {"place_id": "netherlands_4", "place_name": "Den Haag", "place_lat": "52.080408", "place_lon": "4.325169", "duration_min": "525", "duration_max": "525", "duration_median": "525", "duration_count": "2"}, {"place_id": "netherlands_9", "place_name": "Groningen", "place_lat": "53.210684", "place_lon": "6.564274", "duration_min": "340", "duration_max": "340", "duration_median": "340", "duration_count": "2"}, {"place_id": "norway_2", "place_name": "Oslo", "place_lat": "59.909527", "place_lon": "10.781842", "duration_min": "835", "duration_max": "835", "duration_median": "836", "duration_count": "4"}, {"place_id": "poland_1", "place_name": "Krakow", "place_lat": "50.069934", "place_lon": "19.940546", "duration_min": "710", "duration_max": "710", "duration_median": "710", "duration_count": "2"}, {"place_id": "poland_3", "place_name": "Wroclaw", "place_lat": "51.098075", "place_lon": "17.037084", "duration_min": "480", "duration_max": "480", "duration_median": "480", "duration_count": "2"}, {"place_id": "poland_4", "place_name": "Gdansk", "place_lat": "54.365843", "place_lon": "18.64396", "duration_min": "695", "duration_max": "695", "duration_median": "695", "duration_count": "2"}, {"place_id": "sweden_3", "place_name": "Malmo", "place_lat": "55.609231", "place_lon": "13.00126", "duration_min": "360", "duration_max": "380", "duration_median": "376", "duration_count": "8"}]}