{"place_id": "hungary_7", "place_name": "Gyor", "place_lat": "47.681986", "place_lon": "17.634795", "place_brief_desc": "This elegant city in north-western Hungary is a major industrial and cultural hub.", "place_longer_desc": "This elegant city in north-western Hungary is a major industrial and cultural hub. It has a beautiful old town with baroque and neoclassical buildings, as well as modern attractions such as the Audi Hungaria factory and museum. You can see the Cathedral, the Town Hall, and the R\u00e1ba Quelle Thermal Spa.", "place_image": "./static/images/gyor.png", "place_tags": "history", "place_links": "./static/cards/gyor.html", "place_country": "Hungary", "hops": [{"place_id": "austria_1", "place_name": "Vienna", "place_lat": "48.207037", "place_lon": "16.341553", "duration_min": "76", "duration_max": "115", "duration_median": "102", "duration_count": "4"}, {"place_id": "czechia_1", "place_name": "Prague", "place_lat": "50.081926", "place_lon": "14.451481", "duration_min": "330", "duration_max": "330", "duration_median": "338", "duration_count": "2"}, {"place_id": "czechia_5", "place_name": "Brno", "place_lat": "49.190537", "place_lon": "16.612776", "duration_min": "174", "duration_max": "174", "duration_median": "174", "duration_count": "2"}, {"place_id": "france_162", "place_name": "Strasbourg", "place_lat": "48.585339", "place_lon": "7.734067", "duration_min": "805", "duration_max": "815", "duration_median": "810", "duration_count": "4"}, {"place_id": "france_19", "place_name": "Paris", "place_lat": "48.8404960", "place_lon": "2.36707900", "duration_min": "1165", "duration_max": "1180", "duration_median": "1172", "duration_count": "4"}, {"place_id": "Germany_2", "place_name": "Dresden", "place_lat": "51.040221", "place_lon": "13.731409", "duration_min": "445", "duration_max": "445", "duration_median": "455", "duration_count": "2"}, {"place_id": "Germany_3", "place_name": "Nuremberg", "place_lat": "49.450748", "place_lon": "11.077955", "duration_min": "540", "duration_max": "540", "duration_median": "540", "duration_count": "2"}, {"place_id": "Germany_4", "place_name": "Munich", "place_lat": "48.140364", "place_lon": "11.558744", "duration_min": "415", "duration_max": "445", "duration_median": "430", "duration_count": "4"}, {"place_id": "hungary_1", "place_name": "Budapest", "place_lat": "47.519551", "place_lon": "19.054084", "duration_min": "82", "duration_max": "83", "duration_median": "83", "duration_count": "2"}, {"place_id": "hungary_5", "place_name": "Debrecen", "place_lat": "47.519631", "place_lon": "21.628792", "duration_min": "279", "duration_max": "320", "duration_median": "299", "duration_count": "2"}, {"place_id": "poland_2", "place_name": "Warsaw", "place_lat": "52.224729", "place_lon": "21.001417", "duration_min": "601", "duration_max": "601", "duration_median": "601", "duration_count": "1"}, {"place_id": "romania_10", "place_name": "Bucharest", "place_lat": "44.428816", "place_lon": "26.10382", "duration_min": "1029", "duration_max": "1029", "duration_median": "1029", "duration_count": "1"}, {"place_id": "romania_2", "place_name": "Brasov", "place_lat": "46.226398", "place_lon": "24.795737", "duration_min": "740", "duration_max": "740", "duration_median": "740", "duration_count": "1"}, {"place_id": "romania_4", "place_name": "Targu Mures", "place_lat": "46.533344", "place_lon": "24.549316", "duration_min": "675", "duration_max": "675", "duration_median": "675", "duration_count": "1"}, {"place_id": "romania_6", "place_name": "Cluj-Napoca", "place_lat": "46.784197", "place_lon": "23.586616", "duration_min": "585", "duration_max": "623", "duration_median": "604", "duration_count": "2"}, {"place_id": "slovakia_1", "place_name": "Bratislava", "place_lat": "48.154135", "place_lon": "17.097852", "duration_min": "60", "duration_max": "61", "duration_median": "62", "duration_count": "3"}]}