{"place_id": "netherlands_9", "place_name": "Groningen", "place_lat": "53.210684", "place_lon": "6.564274", "place_brief_desc": "Groningen is a lively city that is located in the north of the Netherlands.", "place_longer_desc": "Groningen is a lively city that is located in the north of the Netherlands. It is known for its youthful vibe and its cultural scene. It has many attractions for visitors, such as the Groninger Museum, the Martini Tower, and the Prinsentuin Park. You can reach Groningen by train from Amsterdam in about 2 hours.", "place_image": "./static/images/groningen.png", "place_tags": "history", "place_links": "./static/cards/groningen.html", "place_country": "Netherlands", "hops": [{"place_id": "belgium_1", "place_name": "Brussels", "place_lat": "50.835375", "place_lon": "4.335695", "duration_min": "365", "duration_max": "365", "duration_median": "365", "duration_count": "2"}, {"place_id": "Germany_1", "place_name": "Berlin", "place_lat": "52.520501", "place_lon": "13.386988", "duration_min": "540", "duration_max": "550", "duration_median": "545", "duration_count": "2"}, {"place_id": "Germany_10", "place_name": "Lubeck", "place_lat": "53.86767", "place_lon": "10.669737", "duration_min": "340", "duration_max": "340", "duration_median": "340", "duration_count": "2"}, {"place_id": "Germany_7", "place_name": "Hamburg", "place_lat": "53.55711", "place_lon": "9.997434", "duration_min": "220", "duration_max": "265", "duration_median": "266", "duration_count": "8"}, {"place_id": "netherlands_1", "place_name": "Amsterdam", "place_lat": "52.379191", "place_lon": "4.899427", "duration_min": "130", "duration_max": "135", "duration_median": "133", "duration_count": "4"}, {"place_id": "netherlands_2", "place_name": "Rotterdam", "place_lat": "51.924804", "place_lon": "4.468771", "duration_min": "155", "duration_max": "295", "duration_median": "230", "duration_count": "7"}, {"place_id": "netherlands_3", "place_name": "Utrecht", "place_lat": "52.089397", "place_lon": "5.109864", "duration_min": "112", "duration_max": "112", "duration_median": "114", "duration_count": "1"}, {"place_id": "netherlands_4", "place_name": "Den Haag", "place_lat": "52.080408", "place_lon": "4.325169", "duration_min": "153", "duration_max": "260", "duration_median": "198", "duration_count": "6"}, {"place_id": "netherlands_6", "place_name": "Leiden", "place_lat": "52.166263", "place_lon": "4.481968", "duration_min": "144", "duration_max": "144", "duration_median": "145", "duration_count": "1"}, {"place_id": "poland_4", "place_name": "Gdansk", "place_lat": "54.365843", "place_lon": "18.64396", "duration_min": "1040", "duration_max": "1040", "duration_median": "1040", "duration_count": "2"}]}