{"place_id": "poland_6", "place_name": "Poznan", "place_lat": "52.410249", "place_lon": "16.905366", "place_brief_desc": "Poland's fifth-largest city, known for its Old Town, Pozna\u0144 Town Hall, and St. Peter and Paul's Basilica.", "place_longer_desc": "Pozna\u0144 is a charming city with a lot to offer visitors. The Old Town is a UNESCO World Heritage Site and is home to many well-preserved medieval buildings. Visitors can also visit Pozna\u0144 Town Hall, a beautiful Renaissance building, and St. Peter and Paul's Basilica, a beautiful Gothic basilica.", "place_image": "./static/images/poznan.png", "place_tags": "history", "place_links": "./static/cards/poznan.html", "place_country": "Poland", "hops": [{"place_id": "belgium_3", "place_name": "Ghent", "place_lat": "51.035627", "place_lon": "3.710612", "duration_min": "1125", "duration_max": "1125", "duration_median": "1125", "duration_count": "2"}, {"place_id": "belgium_4", "place_name": "Antwerp", "place_lat": "51.215807", "place_lon": "4.421165", "duration_min": "1055", "duration_max": "1055", "duration_median": "1055", "duration_count": "1"}, {"place_id": "czechia_1", "place_name": "Prague", "place_lat": "50.081926", "place_lon": "14.451481", "duration_min": "435", "duration_max": "480", "duration_median": "461", "duration_count": "3"}, {"place_id": "czechia_5", "place_name": "Brno", "place_lat": "49.190537", "place_lon": "16.612776", "duration_min": "435", "duration_max": "465", "duration_median": "455", "duration_count": "3"}, {"place_id": "czechia_7", "place_name": "Olomouc", "place_lat": "49.593128", "place_lon": "17.277932", "duration_min": "395", "duration_max": "395", "duration_median": "395", "duration_count": "2"}, {"place_id": "czechia_9", "place_name": "Liberec", "place_lat": "50.761429", "place_lon": "15.045947", "duration_min": "365", "duration_max": "380", "duration_median": "372", "duration_count": "2"}, {"place_id": "france_155", "place_name": "Lille", "place_lat": "50.64501", "place_lon": "3.082257", "duration_min": "1190", "duration_max": "1190", "duration_median": "1190", "duration_count": "2"}, {"place_id": "france_162", "place_name": "Strasbourg", "place_lat": "48.585339", "place_lon": "7.734067", "duration_min": "885", "duration_max": "885", "duration_median": "885", "duration_count": "2"}, {"place_id": "france_19", "place_name": "Paris", "place_lat": "48.8404960", "place_lon": "2.36707900", "duration_min": "1225", "duration_max": "1285", "duration_median": "1255", "duration_count": "4"}, {"place_id": "france_93", "place_name": "Lyon", "place_lat": "45.7605960", "place_lon": "4.85940900", "duration_min": "1335", "duration_max": "1335", "duration_median": "1335", "duration_count": "2"}, {"place_id": "Germany_7", "place_name": "Hamburg", "place_lat": "53.55711", "place_lon": "9.997434", "duration_min": "440", "duration_max": "440", "duration_median": "440", "duration_count": "2"}, {"place_id": "lithuania_1", "place_name": "Vilnius", "place_lat": "54.670236", "place_lon": "25.282908", "duration_min": "745", "duration_max": "745", "duration_median": "752", "duration_count": "2"}, {"place_id": "lithuania_2", "place_name": "Kaunas", "place_lat": "54.886291", "place_lon": "23.931766", "duration_min": "655", "duration_max": "655", "duration_median": "655", "duration_count": "2"}, {"place_id": "netherlands_2", "place_name": "Rotterdam", "place_lat": "51.924804", "place_lon": "4.468771", "duration_min": "940", "duration_max": "940", "duration_median": "940", "duration_count": "2"}, {"place_id": "netherlands_3", "place_name": "Utrecht", "place_lat": "52.089397", "place_lon": "5.109864", "duration_min": "840", "duration_max": "840", "duration_median": "840", "duration_count": "2"}, {"place_id": "netherlands_4", "place_name": "Den Haag", "place_lat": "52.080408", "place_lon": "4.325169", "duration_min": "905", "duration_max": "905", "duration_median": "905", "duration_count": "2"}, {"place_id": "poland_1", "place_name": "Krakow", "place_lat": "50.069934", "place_lon": "19.940546", "duration_min": "410", "duration_max": "465", "duration_median": "437", "duration_count": "2"}, {"place_id": "poland_2", "place_name": "Warsaw", "place_lat": "52.224729", "place_lon": "21.001417", "duration_min": "205", "duration_max": "275", "duration_median": "237", "duration_count": "17"}, {"place_id": "poland_3", "place_name": "Wroclaw", "place_lat": "51.098075", "place_lon": "17.037084", "duration_min": "150", "duration_max": "170", "duration_median": "164", "duration_count": "7"}, {"place_id": "poland_4", "place_name": "Gdansk", "place_lat": "54.365843", "place_lon": "18.64396", "duration_min": "255", "duration_max": "285", "duration_median": "285", "duration_count": "4"}, {"place_id": "slovakia_1", "place_name": "Bratislava", "place_lat": "48.154135", "place_lon": "17.097852", "duration_min": "535", "duration_max": "670", "duration_median": "625", "duration_count": "3"}]}