{"place_id": "poland_7", "place_name": "Bielsko-Biala", "place_lat": "49.830713", "place_lon": "19.04558", "place_brief_desc": "A mountain range in the southern Carpathian Mountains, known for its stunning scenery, hiking trails, and ski resorts.", "place_longer_desc": "The Tatra Mountains are a great place to experience Polish nature. Visitors can go hiking, biking, or skiing in the mountains. They can also visit the mountain villages, which are home to traditional Polish culture and cuisine.", "place_image": "./static/images/bielsko-biala.png", "place_tags": "history", "place_links": "./static/cards/bielsko-biala.html", "place_country": "Poland", "hops": [{"place_id": "austria_1", "place_name": "Vienna", "place_lat": "48.207037", "place_lon": "16.341553", "duration_min": "395", "duration_max": "395", "duration_median": "395", "duration_count": "1"}, {"place_id": "hungary_1", "place_name": "Budapest", "place_lat": "47.519551", "place_lon": "19.054084", "duration_min": "395", "duration_max": "395", "duration_median": "395", "duration_count": "1"}, {"place_id": "lithuania_2", "place_name": "Kaunas", "place_lat": "54.886291", "place_lon": "23.931766", "duration_min": "820", "duration_max": "820", "duration_median": "820", "duration_count": "1"}, {"place_id": "poland_1", "place_name": "Krakow", "place_lat": "50.069934", "place_lon": "19.940546", "duration_min": "105", "duration_max": "120", "duration_median": "110", "duration_count": "3"}, {"place_id": "poland_2", "place_name": "Warsaw", "place_lat": "52.224729", "place_lon": "21.001417", "duration_min": "370", "duration_max": "370", "duration_median": "370", "duration_count": "1"}, {"place_id": "poland_4", "place_name": "Gdansk", "place_lat": "54.365843", "place_lon": "18.64396", "duration_min": "515", "duration_max": "515", "duration_median": "515", "duration_count": "1"}, {"place_id": "slovakia_1", "place_name": "Bratislava", "place_lat": "48.154135", "place_lon": "17.097852", "duration_min": "270", "duration_max": "295", "duration_median": "278", "duration_count": "3"}, {"place_id": "slovakia_3", "place_name": "Banska Bystrica", "place_lat": "48.734658", "place_lon": "19.163006", "duration_min": "225", "duration_max": "225", "duration_median": "225", "duration_count": "1"}, {"place_id": "slovakia_4", "place_name": "Zilina", "place_lat": "49.227043", "place_lon": "18.746006", "duration_min": "105", "duration_max": "120", "duration_median": "111", "duration_count": "4"}]}