{"place_id": "poland_3", "place_name": "Wroclaw", "place_lat": "51.098075", "place_lon": "17.037084", "place_brief_desc": "Poland's fourth-largest city, known for its Rynek G\u0142\u00f3wny market square, Centennial Hall, and Cathedral of St. John the Baptist.", "place_longer_desc": "Wroc\u0142aw is a charming city with a lot to offer visitors. The Rynek G\u0142\u00f3wny market square is one of the largest market squares in Europe and is home to many well-preserved medieval buildings. Visitors can also visit the Centennial Hall, a UNESCO World Heritage Site, and the Cathedral of St. John the Baptist, a beautiful Gothic cathedral.", "place_image": "./static/images/wroclaw.png", "place_tags": "history", "place_links": "./static/cards/wroclaw.html", "place_country": "Poland", "hops": [{"place_id": "austria_1", "place_name": "Vienna", "place_lat": "48.207037", "place_lon": "16.341553", "duration_min": "469", "duration_max": "469", "duration_median": "471", "duration_count": "1"}, {"place_id": "austria_3", "place_name": "Graz", "place_lat": "47.072301", "place_lon": "15.416437", "duration_min": "651", "duration_max": "651", "duration_median": "653", "duration_count": "1"}, {"place_id": "belgium_1", "place_name": "Brussels", "place_lat": "50.835375", "place_lon": "4.335695", "duration_min": "995", "duration_max": "1020", "duration_median": "1013", "duration_count": "4"}, {"place_id": "belgium_2", "place_name": "Bruges", "place_lat": "51.196939", "place_lon": "3.217078", "duration_min": "1140", "duration_max": "1140", "duration_median": "1140", "duration_count": "2"}, {"place_id": "belgium_3", "place_name": "Ghent", "place_lat": "51.035627", "place_lon": "3.710612", "duration_min": "1090", "duration_max": "1090", "duration_median": "1090", "duration_count": "2"}, {"place_id": "czechia_1", "place_name": "Prague", "place_lat": "50.081926", "place_lon": "14.451481", "duration_min": "250", "duration_max": "335", "duration_median": "285", "duration_count": "12"}, {"place_id": "czechia_5", "place_name": "Brno", "place_lat": "49.190537", "place_lon": "16.612776", "duration_min": "275", "duration_max": "330", "duration_median": "293", "duration_count": "4"}, {"place_id": "czechia_7", "place_name": "Olomouc", "place_lat": "49.593128", "place_lon": "17.277932", "duration_min": "215", "duration_max": "215", "duration_median": "215", "duration_count": "2"}, {"place_id": "czechia_9", "place_name": "Liberec", "place_lat": "50.761429", "place_lon": "15.045947", "duration_min": "175", "duration_max": "200", "duration_median": "191", "duration_count": "4"}, {"place_id": "denmark_1", "place_name": "Copenhagen", "place_lat": "55.688237", "place_lon": "12.578426", "duration_min": "790", "duration_max": "790", "duration_median": "790", "duration_count": "2"}, {"place_id": "denmark_5", "place_name": "Aarhus", "place_lat": "56.150076", "place_lon": "10.204995", "duration_min": "820", "duration_max": "820", "duration_median": "820", "duration_count": "2"}, {"place_id": "france_19", "place_name": "Paris", "place_lat": "48.8404960", "place_lon": "2.36707900", "duration_min": "1090", "duration_max": "1090", "duration_median": "1100", "duration_count": "2"}, {"place_id": "Germany_10", "place_name": "Lubeck", "place_lat": "53.86767", "place_lon": "10.669737", "duration_min": "490", "duration_max": "490", "duration_median": "490", "duration_count": "2"}, {"place_id": "Germany_2", "place_name": "Dresden", "place_lat": "51.040221", "place_lon": "13.731409", "duration_min": "215", "duration_max": "255", "duration_median": "238", "duration_count": "16"}, {"place_id": "Germany_3", "place_name": "Nuremberg", "place_lat": "49.450748", "place_lon": "11.077955", "duration_min": "485", "duration_max": "620", "duration_median": "557", "duration_count": "4"}, {"place_id": "Germany_4", "place_name": "Munich", "place_lat": "48.140364", "place_lon": "11.558744", "duration_min": "635", "duration_max": "660", "duration_median": "658", "duration_count": "4"}, {"place_id": "Germany_7", "place_name": "Hamburg", "place_lat": "53.55711", "place_lon": "9.997434", "duration_min": "495", "duration_max": "500", "duration_median": "497", "duration_count": "4"}, {"place_id": "Germany_8", "place_name": "Heidelberg", "place_lat": "49.403582", "place_lon": "8.67548", "duration_min": "769", "duration_max": "815", "duration_median": "793", "duration_count": "4"}, {"place_id": "netherlands_2", "place_name": "Rotterdam", "place_lat": "51.924804", "place_lon": "4.468771", "duration_min": "1010", "duration_max": "1010", "duration_median": "1010", "duration_count": "2"}, {"place_id": "netherlands_4", "place_name": "Den Haag", "place_lat": "52.080408", "place_lon": "4.325169", "duration_min": "1045", "duration_max": "1045", "duration_median": "1045", "duration_count": "2"}, {"place_id": "netherlands_8", "place_name": "Maastricht", "place_lat": "50.849811", "place_lon": "5.705876", "duration_min": "885", "duration_max": "885", "duration_median": "897", "duration_count": "2"}, {"place_id": "poland_1", "place_name": "Krakow", "place_lat": "50.069934", "place_lon": "19.940546", "duration_min": "190", "duration_max": "250", "duration_median": "229", "duration_count": "25"}, {"place_id": "poland_2", "place_name": "Warsaw", "place_lat": "52.224729", "place_lon": "21.001417", "duration_min": "232", "duration_max": "310", "duration_median": "281", "duration_count": "18"}, {"place_id": "poland_4", "place_name": "Gdansk", "place_lat": "54.365843", "place_lon": "18.64396", "duration_min": "415", "duration_max": "450", "duration_median": "432", "duration_count": "2"}, {"place_id": "poland_6", "place_name": "Poznan", "place_lat": "52.410249", "place_lon": "16.905366", "duration_min": "150", "duration_max": "170", "duration_median": "162", "duration_count": "7"}, {"place_id": "slovakia_1", "place_name": "Bratislava", "place_lat": "48.154135", "place_lon": "17.097852", "duration_min": "375", "duration_max": "490", "duration_median": "451", "duration_count": "3"}, {"place_id": "slovakia_2", "place_name": "Kosice", "place_lat": "48.722918", "place_lon": "21.268721", "duration_min": "650", "duration_max": "650", "duration_median": "650", "duration_count": "2"}, {"place_id": "slovenia_1", "place_name": "Ljubljana", "place_lat": "46.058687", "place_lon": "14.51294", "duration_min": "795", "duration_max": "795", "duration_median": "795", "duration_count": "1"}, {"place_id": "sweden_3", "place_name": "Malmo", "place_lat": "55.609231", "place_lon": "13.00126", "duration_min": "875", "duration_max": "875", "duration_median": "875", "duration_count": "2"}, {"place_id": "switzerland_6", "place_name": "Zurich", "place_lat": "47.378968", "place_lon": "8.540534", "duration_min": "950", "duration_max": "950", "duration_median": "960", "duration_count": "2"}]}