{"place_id": "romania_3", "place_name": "Sibiu", "place_lat": "45.799977", "place_lon": "24.161575", "place_brief_desc": "Picturesque town in Transylvania, Sibiu was the European Capital of Culture in 2007 and has a rich cultural and architectural heritage.", "place_longer_desc": "Another picturesque town in Transylvania, Sibiu was the European Capital of Culture in 2007 and has a rich cultural and architectural heritage. You can admire the colourful houses, the Brukenthal Museum, and the Bridge of Lies.", "place_image": "./static/images/sibiu.png", "place_tags": "history", "place_links": "./static/cards/sibiu.html", "place_country": "Romania", "hops": [{"place_id": "austria_4", "place_name": "Innsbruck", "place_lat": "47.263331", "place_lon": "11.400506", "duration_min": "1160", "details": [{"agency_name": "FlixBus-eu", "route_short_name": "NULL", "route_long_name": "Bucharest - Grenoble", "agency_url": "https://global.flixbus.com", "duration_min": "1160", "duration_avg": "1160", "duration_count": "14"}]}, {"place_id": "belgium_1", "place_name": "Brussels", "place_lat": "50.835375", "place_lon": "4.335695", "duration_min": "1965", "details": [{"agency_name": "FlixBus-eu", "route_short_name": "NULL", "route_long_name": "Bucharest - Munich - Brussels", "agency_url": "https://global.flixbus.com", "duration_min": "1965", "duration_avg": "1965", "duration_count": "14"}, {"agency_name": "FlixBus-de", "route_short_name": "NULL", "route_long_name": "Bucharest - Munich - Brussels", "agency_url": "https://www.delfi.de", "duration_min": "1965", "duration_avg": "1965", "duration_count": "1"}]}, {"place_id": "belgium_4", "place_name": "Antwerp", "place_lat": "51.215807", "place_lon": "4.421165", "duration_min": "1760", "details": [{"agency_name": "FlixBus-de", "route_short_name": "NULL", "route_long_name": "Bucharest - Amsterdam", "agency_url": "https://www.delfi.de", "duration_min": "1760", "duration_avg": "1760", "duration_count": "1"}, {"agency_name": "FlixBus-eu", "route_short_name": "NULL", "route_long_name": "Bucharest - Amsterdam", "agency_url": "https://global.flixbus.com", "duration_min": "1760", "duration_avg": "1760", "duration_count": "13"}]}, {"place_id": "belgium_7", "place_name": "Namur", "place_lat": "50.468983", "place_lon": "4.862499", "duration_min": "1890", "details": [{"agency_name": "FlixBus-eu", "route_short_name": "NULL", "route_long_name": "Bucharest - Munich - Brussels", "agency_url": "https://global.flixbus.com", "duration_min": "1890", "duration_avg": "1890", "duration_count": "14"}, {"agency_name": "FlixBus-de", "route_short_name": "NULL", "route_long_name": "Bucharest - Munich - Brussels", "agency_url": "https://www.delfi.de", "duration_min": "1890", "duration_avg": "1890", "duration_count": "1"}]}, {"place_id": "czechia_1", "place_name": "Prague", "place_lat": "50.081926", "place_lon": "14.451481", "duration_min": "1080", "details": [{"agency_name": "FlixBus-de", "route_short_name": "NULL", "route_long_name": "Bucharest - Hamburg", "agency_url": "https://www.delfi.de", "duration_min": "1080", "duration_avg": "1080", "duration_count": "1"}, {"agency_name": "FlixBus-eu", "route_short_name": "NULL", "route_long_name": "Bucharest - Hamburg", "agency_url": "https://global.flixbus.com", "duration_min": "1080", "duration_avg": "1080", "duration_count": "14"}]}, {"place_id": "czechia_5", "place_name": "Brno", "place_lat": "49.190537", "place_lon": "16.612776", "duration_min": "915", "details": [{"agency_name": "FlixBus-eu", "route_short_name": "NULL", "route_long_name": "Bucharest - Hamburg", "agency_url": "https://global.flixbus.com", "duration_min": "915", "duration_avg": "915", "duration_count": "14"}, {"agency_name": "FlixBus-de", "route_short_name": "NULL", "route_long_name": "Bucharest - Hamburg", "agency_url": "https://www.delfi.de", "duration_min": "915", "duration_avg": "915", "duration_count": "1"}]}, {"place_id": "france_105", "place_name": "Marseille", "place_lat": "43.3030300", "place_lon": "5.38055500", "duration_min": "2030", "details": [{"agency_name": "FlixBus-eu", "route_short_name": "NULL", "route_long_name": "Bucharest - Bordeaux", "agency_url": "https://global.flixbus.com", "duration_min": "2030", "duration_avg": "2030", "duration_count": "28"}]}, {"place_id": "france_123", "place_name": "Montpellier", "place_lat": "43.6047800", "place_lon": "3.88116800", "duration_min": "2260", "details": [{"agency_name": "FlixBus-eu", "route_short_name": "NULL", "route_long_name": "Bucharest - Bordeaux", "agency_url": "https://global.flixbus.com", "duration_min": "2260", "duration_avg": "2260", "duration_count": "28"}]}, {"place_id": "france_125", "place_name": "Nimes", "place_lat": "43.8323870", "place_lon": "4.36608100", "duration_min": "2205", "details": [{"agency_name": "FlixBus-eu", "route_short_name": "NULL", "route_long_name": "Bucharest - Bordeaux", "agency_url": "https://global.flixbus.com", "duration_min": "2205", "duration_avg": "2205", "duration_count": "28"}]}, {"place_id": "france_127", "place_name": "Narbonne", "place_lat": "43.1906640", "place_lon": "3.00556200", "duration_min": "2360", "details": [{"agency_name": "FlixBus-eu", "route_short_name": "NULL", "route_long_name": "Bucharest - Bordeaux", "agency_url": "https://global.flixbus.com", "duration_min": "2360", "duration_avg": "2360", "duration_count": "28"}]}, {"place_id": "france_162", "place_name": "Strasbourg", "place_lat": "48.585339", "place_lon": "7.734067", "duration_min": "1500", "details": [{"agency_name": "FlixBus-eu", "route_short_name": "NULL", "route_long_name": "Bucharest - Rennes", "agency_url": "https://global.flixbus.com", "duration_min": "1500", "duration_avg": "1500", "duration_count": "14"}, {"agency_name": "FlixBus-de", "route_short_name": "NULL", "route_long_name": "Bucharest - Rennes", "agency_url": "https://www.delfi.de", "duration_min": "1500", "duration_avg": "1500", "duration_count": "1"}]}, {"place_id": "france_19", "place_name": "Paris", "place_lat": "48.8404960", "place_lon": "2.36707900", "duration_min": "1915", "details": [{"agency_name": "FlixBus-de", "route_short_name": "NULL", "route_long_name": "Bucharest - Rennes", "agency_url": "https://www.delfi.de", "duration_min": "1915", "duration_avg": "1915", "duration_count": "1"}, {"agency_name": "FlixBus-eu", "route_short_name": "NULL", "route_long_name": "Bucharest - Rennes", "agency_url": "https://global.flixbus.com", "duration_min": "1915", "duration_avg": "1915", "duration_count": "14"}]}, {"place_id": "france_24", "place_name": "Bordeaux", "place_lat": "44.8258230", "place_lon": "-0.5560120", "duration_min": "2665", "details": [{"agency_name": "FlixBus-eu", "route_short_name": "NULL", "route_long_name": "Bucharest - Bordeaux", "agency_url": "https://global.flixbus.com", "duration_min": "2665", "duration_avg": "2665", "duration_count": "28"}]}, {"place_id": "france_38", "place_name": "Toulouse", "place_lat": "43.6114370", "place_lon": "1.45423700", "duration_min": "2475", "details": [{"agency_name": "FlixBus-eu", "route_short_name": "NULL", "route_long_name": "Bucharest - Bordeaux", "agency_url": "https://global.flixbus.com", "duration_min": "2475", "duration_avg": "2475", "duration_count": "28"}]}, {"place_id": "france_6", "place_name": "Rennes", "place_lat": "48.1030710", "place_lon": "-1.6721310", "duration_min": "2415", "details": [{"agency_name": "FlixBus-eu", "route_short_name": "NULL", "route_long_name": "Bucharest - Rennes", "agency_url": "https://global.flixbus.com", "duration_min": "2415", "duration_avg": "2415", "duration_count": "14"}, {"agency_name": "FlixBus-de", "route_short_name": "NULL", "route_long_name": "Bucharest - Rennes", "agency_url": "https://www.delfi.de", "duration_min": "2415", "duration_avg": "2415", "duration_count": "1"}]}, {"place_id": "france_93", "place_name": "Lyon", "place_lat": "45.7605960", "place_lon": "4.85940900", "duration_min": "1815", "details": [{"agency_name": "FlixBus-eu", "route_short_name": "NULL", "route_long_name": "Bucharest - Grenoble", "agency_url": "https://global.flixbus.com", "duration_min": "1815", "duration_avg": "1815", "duration_count": "14"}]}, {"place_id": "Germany_2", "place_name": "Dresden", "place_lat": "51.040221", "place_lon": "13.731409", "duration_min": "1210", "details": [{"agency_name": "FlixBus-eu", "route_short_name": "NULL", "route_long_name": "Bucharest - Hamburg", "agency_url": "https://global.flixbus.com", "duration_min": "1210", "duration_avg": "1210", "duration_count": "14"}, {"agency_name": "FlixBus-de", "route_short_name": "NULL", "route_long_name": "Bucharest - Hamburg", "agency_url": "https://www.delfi.de", "duration_min": "1210", "duration_avg": "1210", "duration_count": "1"}]}, {"place_id": "Germany_3", "place_name": "Nuremberg", "place_lat": "49.450748", "place_lon": "11.077955", "duration_min": "1185", "details": [{"agency_name": "FlixBus-de", "route_short_name": "NULL", "route_long_name": "Bucharest - Dortmund", "agency_url": "https://www.delfi.de", "duration_min": "1185", "duration_avg": "1185", "duration_count": "1"}, {"agency_name": "FlixBus-eu", "route_short_name": "NULL", "route_long_name": "Bucharest - Dortmund", "agency_url": "https://global.flixbus.com", "duration_min": "1185", "duration_avg": "1185", "duration_count": "14"}]}, {"place_id": "Germany_4", "place_name": "Munich", "place_lat": "48.140364", "place_lon": "11.558744", "duration_min": "1200", "details": [{"agency_name": "FlixBus-eu", "route_short_name": "NULL", "route_long_name": "Bucharest - Munich - Brussels", "agency_url": "https://global.flixbus.com", "duration_min": "1200", "duration_avg": "1200", "duration_count": "14"}, {"agency_name": "FlixBus-de", "route_short_name": "NULL", "route_long_name": "Bucharest - Munich - Brussels", "agency_url": "https://www.delfi.de", "duration_min": "1200", "duration_avg": "1200", "duration_count": "1"}]}, {"place_id": "Germany_7", "place_name": "Hamburg", "place_lat": "53.55711", "place_lon": "9.997434", "duration_min": "1695", "details": [{"agency_name": "FlixBus-de", "route_short_name": "NULL", "route_long_name": "Bucharest - Hamburg", "agency_url": "https://www.delfi.de", "duration_min": "1695", "duration_avg": "1695", "duration_count": "1"}, {"agency_name": "FlixBus-eu", "route_short_name": "NULL", "route_long_name": "Bucharest - Hamburg", "agency_url": "https://global.flixbus.com", "duration_min": "1695", "duration_avg": "1695", "duration_count": "14"}]}, {"place_id": "Germany_9", "place_name": "Aachen", "place_lat": "50.767641", "place_lon": "6.09119", "duration_min": "1595", "details": [{"agency_name": "FlixBus-eu", "route_short_name": "NULL", "route_long_name": "Bucharest - Amsterdam", "agency_url": "https://global.flixbus.com", "duration_min": "1595", "duration_avg": "1595", "duration_count": "13"}, {"agency_name": "FlixBus-de", "route_short_name": "NULL", "route_long_name": "Bucharest - Amsterdam", "agency_url": "https://www.delfi.de", "duration_min": "1595", "duration_avg": "1595", "duration_count": "1"}]}, {"place_id": "hungary_6", "place_name": "Szeged", "place_lat": "46.23981", "place_lon": "20.143181", "duration_min": "465", "details": [{"agency_name": "FlixBus-de", "route_short_name": "NULL", "route_long_name": "Bucharest - Hamburg", "agency_url": "https://www.delfi.de", "duration_min": "465", "duration_avg": "465", "duration_count": "1"}, {"agency_name": "FlixBus-eu", "route_short_name": "NULL", "route_long_name": "Bucharest - Hamburg", "agency_url": "https://global.flixbus.com", "duration_min": "465", "duration_avg": "465", "duration_count": "14"}]}, {"place_id": "italy_5", "place_name": "Naples", "place_lat": "40.860791", "place_lon": "14.257611", "duration_min": "1875", "details": [{"agency_name": "FlixBus-eu", "route_short_name": "NULL", "route_long_name": "Bucharest - Salerno/Palermo/Calabria", "agency_url": "https://global.flixbus.com", "duration_min": "1875", "duration_avg": "1875", "duration_count": "18"}]}, {"place_id": "italy_8", "place_name": "Turin", "place_lat": "45.067428", "place_lon": "7.672976", "duration_min": "1590", "details": [{"agency_name": "FlixBus-eu", "route_short_name": "NULL", "route_long_name": "Bucharest - Bordeaux", "agency_url": "https://global.flixbus.com", "duration_min": "1590", "duration_avg": "1590", "duration_count": "14"}]}, {"place_id": "italy_9", "place_name": "Palermo", "place_lat": "38.109418", "place_lon": "13.367472", "duration_min": "2685", "details": [{"agency_name": "FlixBus-eu", "route_short_name": "NULL", "route_long_name": "Bucharest - Salerno/Palermo/Calabria", "agency_url": "https://global.flixbus.com", "duration_min": "2685", "duration_avg": "2685", "duration_count": "4"}]}, {"place_id": "netherlands_2", "place_name": "Rotterdam", "place_lat": "51.924804", "place_lon": "4.468771", "duration_min": "1810", "details": [{"agency_name": "FlixBus-eu", "route_short_name": "NULL", "route_long_name": "Bucharest - Amsterdam", "agency_url": "https://global.flixbus.com", "duration_min": "1810", "duration_avg": "1838", "duration_count": "27"}, {"agency_name": "FlixBus-de", "route_short_name": "NULL", "route_long_name": "Bucharest - Amsterdam", "agency_url": "https://www.delfi.de", "duration_min": "1810", "duration_avg": "1840", "duration_count": "2"}]}, {"place_id": "netherlands_4", "place_name": "Den Haag", "place_lat": "52.080408", "place_lon": "4.325169", "duration_min": "1850", "details": [{"agency_name": "FlixBus-de", "route_short_name": "NULL", "route_long_name": "Bucharest - Amsterdam", "agency_url": "https://www.delfi.de", "duration_min": "1850", "duration_avg": "1880", "duration_count": "2"}, {"agency_name": "FlixBus-eu", "route_short_name": "NULL", "route_long_name": "Bucharest - Amsterdam", "agency_url": "https://global.flixbus.com", "duration_min": "1850", "duration_avg": "1878", "duration_count": "27"}]}, {"place_id": "romania_2", "place_name": "Brasov", "place_lat": "46.226398", "place_lon": "24.795737", "duration_min": "105", "details": [{"agency_name": "FlixBus-eu", "route_short_name": "NULL", "route_long_name": "Pascani - Sibiu (Feeder line)", "agency_url": "https://global.flixbus.com", "duration_min": "105", "duration_avg": "105", "duration_count": "15"}]}, {"place_id": "romania_4", "place_name": "Targu Mures", "place_lat": "46.533344", "place_lon": "24.549316", "duration_min": "210", "details": [{"agency_name": "FlixBus-eu", "route_short_name": "NULL", "route_long_name": "Reghin - Sibiu (Feeder line)", "agency_url": "https://global.flixbus.com", "duration_min": "210", "duration_avg": "210", "duration_count": "15"}]}, {"place_id": "romania_5", "place_name": "Miercurea Ciuc", "place_lat": "46.359574", "place_lon": "25.793782", "duration_min": "255", "details": [{"agency_name": "FlixBus-eu", "route_short_name": "NULL", "route_long_name": "Pascani - Sibiu (Feeder line)", "agency_url": "https://global.flixbus.com", "duration_min": "255", "duration_avg": "255", "duration_count": "15"}]}, {"place_id": "romania_6", "place_name": "Cluj-Napoca", "place_lat": "46.784197", "place_lon": "23.586616", "duration_min": "195", "details": [{"agency_name": "FlixBus-eu", "route_short_name": "NULL", "route_long_name": "Sibiu - Cluj - Vienna", "agency_url": "https://global.flixbus.com", "duration_min": "195", "duration_avg": "195", "duration_count": "15"}]}, {"place_id": "slovakia_1", "place_name": "Bratislava", "place_lat": "48.154135", "place_lon": "17.097852", "duration_min": "805", "details": [{"agency_name": "FlixBus-eu", "route_short_name": "NULL", "route_long_name": "Bucharest - Hamburg", "agency_url": "https://global.flixbus.com", "duration_min": "805", "duration_avg": "805", "duration_count": "14"}, {"agency_name": "FlixBus-de", "route_short_name": "NULL", "route_long_name": "Bucharest - Hamburg", "agency_url": "https://www.delfi.de", "duration_min": "805", "duration_avg": "805", "duration_count": "1"}]}, {"place_id": "slovenia_1", "place_name": "Ljubljana", "place_lat": "46.058687", "place_lon": "14.51294", "duration_min": "975", "details": [{"agency_name": "FlixBus-eu", "route_short_name": "NULL", "route_long_name": "Bucharest - Bordeaux", "agency_url": "https://global.flixbus.com", "duration_min": "975", "duration_avg": "975", "duration_count": "28"}]}, {"place_id": "switzerland_2", "place_name": "Bern", "place_lat": "46.948834", "place_lon": "7.439131", "duration_min": "1515", "details": [{"agency_name": "FlixBus-eu", "route_short_name": "NULL", "route_long_name": "Bucharest - Grenoble", "agency_url": "https://global.flixbus.com", "duration_min": "1515", "duration_avg": "1515", "duration_count": "14"}]}, {"place_id": "switzerland_3", "place_name": "Geneva", "place_lat": "46.210209", "place_lon": "6.142455", "duration_min": "1675", "details": [{"agency_name": "FlixBus-eu", "route_short_name": "NULL", "route_long_name": "Bucharest - Grenoble", "agency_url": "https://global.flixbus.com", "duration_min": "1675", "duration_avg": "1675", "duration_count": "14"}]}, {"place_id": "switzerland_6", "place_name": "Zurich", "place_lat": "47.378968", "place_lon": "8.540534", "duration_min": "1410", "details": [{"agency_name": "FlixBus-eu", "route_short_name": "NULL", "route_long_name": "Bucharest - Grenoble", "agency_url": "https://global.flixbus.com", "duration_min": "1410", "duration_avg": "1410", "duration_count": "14"}]}]}