{"place_id": "romania_6", "place_name": "Cluj-Napoca", "place_lat": "46.784197", "place_lon": "23.586616", "place_brief_desc": "The unofficial capital of Transylvania and a vibrant cultural and academic centre.", "place_longer_desc": "Cluj-Napoca is the unofficial capital of Transylvania and a vibrant cultural and academic centre. It is home to the largest university in Romania, as well as numerous museums, art galleries, theatres, and festivals. You can enjoy the architecture of the old town, the botanical garden, and the central park. You can also visit the Turda Salt Mine, a spectacular underground attraction that features a lake, a museum, and a Ferris wheel.", "place_image": "./static/images/cluj-napoca.png", "place_tags": "history", "place_links": "./static/cards/cluj-napoca.html", "place_country": "Romania", "hops": [{"place_id": "hungary_5", "place_name": "Debrecen", "place_lat": "47.519631", "place_lon": "21.628792", "duration_min": "260", "duration_max": "260", "duration_median": "260", "duration_count": "1"}, {"place_id": "hungary_7", "place_name": "Gyor", "place_lat": "47.681986", "place_lon": "17.634795", "duration_min": "575", "duration_max": "575", "duration_median": "575", "duration_count": "1"}, {"place_id": "poland_2", "place_name": "Warsaw", "place_lat": "52.224729", "place_lon": "21.001417", "duration_min": "1180", "duration_max": "1180", "duration_median": "1180", "duration_count": "1"}, {"place_id": "romania_2", "place_name": "Brasov", "place_lat": "46.226398", "place_lon": "24.795737", "duration_min": "150", "duration_max": "150", "duration_median": "150", "duration_count": "1"}, {"place_id": "romania_3", "place_name": "Sibiu", "place_lat": "45.799977", "place_lon": "24.161575", "duration_min": "190", "duration_max": "190", "duration_median": "190", "duration_count": "1"}, {"place_id": "romania_4", "place_name": "Targu Mures", "place_lat": "46.533344", "place_lon": "24.549316", "duration_min": "85", "duration_max": "120", "duration_median": "102", "duration_count": "2"}, {"place_id": "slovakia_1", "place_name": "Bratislava", "place_lat": "48.154135", "place_lon": "17.097852", "duration_min": "640", "duration_max": "640", "duration_median": "640", "duration_count": "1"}]}