{"place_id": "slovakia_1", "place_name": "Bratislava", "place_lat": "48.154135", "place_lon": "17.097852", "place_brief_desc": "Slovakia's capital and largest city, known for its medieval Old Town, Bratislava Castle, and Devin Castle.", "place_longer_desc": "Bratislava is a charming city with a lot to offer visitors. The Old Town is home to many well-preserved medieval buildings, including Bratislava Castle and the St. Martin's Cathedral. Visitors can also visit Devin Castle, a beautiful castle located on the Danube River. Bratislava is also a great place to enjoy Slovak cuisine and culture.", "place_image": "./static/images/bratislava.png", "place_tags": "history", "place_links": "./static/cards/bratislava.html", "place_country": "Slovakia", "hops": [{"place_id": "austria_1", "place_name": "Vienna", "place_lat": "48.207037", "place_lon": "16.341553", "duration_min": "46", "duration_max": "100", "duration_median": "79", "duration_count": "8"}, {"place_id": "austria_2", "place_name": "Salzburg", "place_lat": "47.813848", "place_lon": "13.045514", "duration_min": "201", "duration_max": "201", "duration_median": "203", "duration_count": "1"}, {"place_id": "austria_4", "place_name": "Innsbruck", "place_lat": "47.263331", "place_lon": "11.400506", "duration_min": "440", "duration_max": "440", "duration_median": "443", "duration_count": "1"}, {"place_id": "belgium_1", "place_name": "Brussels", "place_lat": "50.835375", "place_lon": "4.335695", "duration_min": "1195", "duration_max": "1270", "duration_median": "1241", "duration_count": "4"}, {"place_id": "belgium_4", "place_name": "Antwerp", "place_lat": "51.215807", "place_lon": "4.421165", "duration_min": "1275", "duration_max": "1320", "duration_median": "1309", "duration_count": "4"}, {"place_id": "croatia_1", "place_name": "Zagreb", "place_lat": "45.807411", "place_lon": "15.990291", "duration_min": "355", "duration_max": "400", "duration_median": "385", "duration_count": "4"}, {"place_id": "croatia_2", "place_name": "Split", "place_lat": "43.504887", "place_lon": "16.44279", "duration_min": "705", "duration_max": "770", "duration_median": "737", "duration_count": "2"}, {"place_id": "czechia_1", "place_name": "Prague", "place_lat": "50.081926", "place_lon": "14.451481", "duration_min": "247", "duration_max": "270", "duration_median": "267", "duration_count": "5"}, {"place_id": "czechia_5", "place_name": "Brno", "place_lat": "49.190537", "place_lon": "16.612776", "duration_min": "90", "duration_max": "185", "duration_median": "118", "duration_count": "10"}, {"place_id": "czechia_7", "place_name": "Olomouc", "place_lat": "49.593128", "place_lon": "17.277932", "duration_min": "260", "duration_max": "260", "duration_median": "260", "duration_count": "2"}, {"place_id": "france_105", "place_name": "Marseille", "place_lat": "43.3030300", "place_lon": "5.38055500", "duration_min": "1345", "duration_max": "1345", "duration_median": "1362", "duration_count": "1"}, {"place_id": "france_162", "place_name": "Strasbourg", "place_lat": "48.585339", "place_lon": "7.734067", "duration_min": "810", "duration_max": "810", "duration_median": "820", "duration_count": "2"}, {"place_id": "france_19", "place_name": "Paris", "place_lat": "48.8404960", "place_lon": "2.36707900", "duration_min": "1215", "duration_max": "1215", "duration_median": "1215", "duration_count": "2"}, {"place_id": "france_93", "place_name": "Lyon", "place_lat": "45.7605960", "place_lon": "4.85940900", "duration_min": "1100", "duration_max": "1100", "duration_median": "1117", "duration_count": "1"}, {"place_id": "Germany_2", "place_name": "Dresden", "place_lat": "51.040221", "place_lon": "13.731409", "duration_min": "370", "duration_max": "400", "duration_median": "390", "duration_count": "4"}, {"place_id": "Germany_4", "place_name": "Munich", "place_lat": "48.140364", "place_lon": "11.558744", "duration_min": "405", "duration_max": "465", "duration_median": "438", "duration_count": "10"}, {"place_id": "Germany_6", "place_name": "Freiburg", "place_lat": "47.997974", "place_lon": "7.841344", "duration_min": "830", "duration_max": "830", "duration_median": "830", "duration_count": "1"}, {"place_id": "Germany_7", "place_name": "Hamburg", "place_lat": "53.55711", "place_lon": "9.997434", "duration_min": "870", "duration_max": "870", "duration_median": "879", "duration_count": "2"}, {"place_id": "Germany_8", "place_name": "Heidelberg", "place_lat": "49.403582", "place_lon": "8.67548", "duration_min": "829", "duration_max": "830", "duration_median": "838", "duration_count": "2"}, {"place_id": "hungary_2", "place_name": "Pecs", "place_lat": "46.066229", "place_lon": "18.225351", "duration_min": "381", "duration_max": "381", "duration_median": "381", "duration_count": "1"}, {"place_id": "hungary_5", "place_name": "Debrecen", "place_lat": "47.519631", "place_lon": "21.628792", "duration_min": "385", "duration_max": "385", "duration_median": "385", "duration_count": "1"}, {"place_id": "hungary_6", "place_name": "Szeged", "place_lat": "46.23981", "place_lon": "20.143181", "duration_min": "285", "duration_max": "285", "duration_median": "285", "duration_count": "2"}, {"place_id": "hungary_7", "place_name": "Gyor", "place_lat": "47.681986", "place_lon": "17.634795", "duration_min": "60", "duration_max": "65", "duration_median": "63", "duration_count": "3"}, {"place_id": "italy_1", "place_name": "Venice", "place_lat": "45.444427", "place_lon": "12.315491", "duration_min": "605", "duration_max": "605", "duration_median": "615", "duration_count": "1"}, {"place_id": "lithuania_2", "place_name": "Kaunas", "place_lat": "54.886291", "place_lon": "23.931766", "duration_min": "1090", "duration_max": "1090", "duration_median": "1090", "duration_count": "1"}, {"place_id": "poland_1", "place_name": "Krakow", "place_lat": "50.069934", "place_lon": "19.940546", "duration_min": "375", "duration_max": "420", "duration_median": "390", "duration_count": "5"}, {"place_id": "poland_2", "place_name": "Warsaw", "place_lat": "52.224729", "place_lon": "21.001417", "duration_min": "535", "duration_max": "640", "duration_median": "575", "duration_count": "3"}, {"place_id": "poland_3", "place_name": "Wroclaw", "place_lat": "51.098075", "place_lon": "17.037084", "duration_min": "360", "duration_max": "480", "duration_median": "440", "duration_count": "3"}, {"place_id": "poland_4", "place_name": "Gdansk", "place_lat": "54.365843", "place_lon": "18.64396", "duration_min": "785", "duration_max": "785", "duration_median": "785", "duration_count": "1"}, {"place_id": "poland_6", "place_name": "Poznan", "place_lat": "52.410249", "place_lon": "16.905366", "duration_min": "520", "duration_max": "660", "duration_median": "613", "duration_count": "3"}, {"place_id": "poland_7", "place_name": "Bielsko-Biala", "place_lat": "49.830713", "place_lon": "19.04558", "duration_min": "265", "duration_max": "295", "duration_median": "276", "duration_count": "3"}, {"place_id": "romania_2", "place_name": "Brasov", "place_lat": "46.226398", "place_lon": "24.795737", "duration_min": "805", "duration_max": "805", "duration_median": "805", "duration_count": "1"}, {"place_id": "romania_3", "place_name": "Sibiu", "place_lat": "45.799977", "place_lon": "24.161575", "duration_min": "725", "duration_max": "725", "duration_median": "725", "duration_count": "2"}, {"place_id": "romania_4", "place_name": "Targu Mures", "place_lat": "46.533344", "place_lon": "24.549316", "duration_min": "740", "duration_max": "740", "duration_median": "740", "duration_count": "1"}, {"place_id": "romania_6", "place_name": "Cluj-Napoca", "place_lat": "46.784197", "place_lon": "23.586616", "duration_min": "650", "duration_max": "650", "duration_median": "650", "duration_count": "1"}, {"place_id": "slovakia_2", "place_name": "Kosice", "place_lat": "48.722918", "place_lon": "21.268721", "duration_min": "355", "duration_max": "420", "duration_median": "382", "duration_count": "3"}, {"place_id": "slovakia_4", "place_name": "Zilina", "place_lat": "49.227043", "place_lon": "18.746006", "duration_min": "145", "duration_max": "190", "duration_median": "168", "duration_count": "5"}, {"place_id": "slovenia_1", "place_name": "Ljubljana", "place_lat": "46.058687", "place_lon": "14.51294", "duration_min": "365", "duration_max": "389", "duration_median": "379", "duration_count": "2"}, {"place_id": "switzerland_2", "place_name": "Bern", "place_lat": "46.948834", "place_lon": "7.439131", "duration_min": "800", "duration_max": "800", "duration_median": "817", "duration_count": "1"}, {"place_id": "switzerland_3", "place_name": "Geneva", "place_lat": "46.210209", "place_lon": "6.142455", "duration_min": "945", "duration_max": "945", "duration_median": "962", "duration_count": "1"}, {"place_id": "switzerland_6", "place_name": "Zurich", "place_lat": "47.378968", "place_lon": "8.540534", "duration_min": "690", "duration_max": "690", "duration_median": "707", "duration_count": "1"}]}