{"place_id": "spain_162", "place_name": "Algeciras", "place_lat": "36.1268310", "place_lon": "-5.4511080", "place_brief_desc": "The historic and forever functional Gibraltar is quite unique and a fitting endpoint for any journey from Blighty.", "place_longer_desc": "The historic and forever functional Gibraltar is quite unique and a fitting endpoint for any journey from Blighty. Make sure to savour the experience of walking across the runway (following the green cross code at the pedestrian lights).", "place_image": "./static/images/algeciras.png", "place_tags": "history", "place_links": "./static/cards/algeciras.html", "place_country": "Spain", "hops": [{"place_id": "france_10", "place_name": "La Rochelle", "place_lat": "46.1527030", "place_lon": "-1.1452880", "duration_min": "1455", "duration_max": "1455", "duration_median": "1455", "duration_count": "1"}, {"place_id": "france_24", "place_name": "Bordeaux", "place_lat": "44.8258230", "place_lon": "-0.5560120", "duration_min": "1315", "duration_max": "1315", "duration_median": "1315", "duration_count": "1"}, {"place_id": "france_6", "place_name": "Rennes", "place_lat": "48.1030710", "place_lon": "-1.6721310", "duration_min": "1675", "duration_max": "1675", "duration_median": "1675", "duration_count": "1"}, {"place_id": "france_83", "place_name": "Bayonne", "place_lat": "43.4970180", "place_lon": "-1.4701940", "duration_min": "1170", "duration_max": "1170", "duration_median": "1170", "duration_count": "1"}, {"place_id": "france_85", "place_name": "Hendaye", "place_lat": "43.3531650", "place_lon": "-1.7820950", "duration_min": "1110", "duration_max": "1110", "duration_median": "1110", "duration_count": "1"}, {"place_id": "portugal_6", "place_name": "Albufeira", "place_lat": "37.128686", "place_lon": "-8.232825", "duration_min": "449", "duration_max": "449", "duration_median": "449", "duration_count": "1"}, {"place_id": "spain_1", "place_name": "Barcelona", "place_lat": "41.37922", "place_lon": "2.140624", "duration_min": "1065", "duration_max": "1065", "duration_median": "1111", "duration_count": "1"}, {"place_id": "spain_19", "place_name": "Tarragona", "place_lat": "41.1116240", "place_lon": "1.25321400", "duration_min": "975", "duration_max": "975", "duration_median": "1018", "duration_count": "1"}, {"place_id": "spain_44", "place_name": "San Sebastian", "place_lat": "43.317669", "place_lon": "-1.976704", "duration_min": "1080", "duration_max": "1080", "duration_median": "1080", "duration_count": "1"}, {"place_id": "spain_96", "place_name": "Cordoba", "place_lat": "37.8882910", "place_lon": "-4.7894530", "duration_min": "199", "duration_max": "360", "duration_median": "279", "duration_count": "2"}, {"place_id": "spain_97", "place_name": "Seville", "place_lat": "37.3921277", "place_lon": "-5.9752694", "duration_min": "210", "duration_max": "235", "duration_median": "236", "duration_count": "2"}]}