{"place_id": "spain_44", "place_name": "San Sebastian", "place_lat": "43.317669", "place_lon": "-1.976704", "place_brief_desc": "Where better to top up your tan, fill up your tummy and empty your wallet in this seductively urbane resort.", "place_longer_desc": "Being just 20km from the French border, San Sebastian (Donostia in Basque) is an ideal hop off when travelling to Spain. Where better to top up your tan, fill up your tummy and empty your wallet in this seductively urbane resort?", "place_image": "./static/images/san sebastian.png", "place_tags": "history", "place_links": "./static/cards/san sebastian.html", "place_country": "Spain", "hops": [{"place_id": "belgium_1", "place_name": "Brussels", "place_lat": "50.835375", "place_lon": "4.335695", "duration_min": "1000", "duration_max": "1000", "duration_median": "1000", "duration_count": "1"}, {"place_id": "france_1", "place_name": "Futuroscope", "place_lat": "46.6699180", "place_lon": "0.37720900", "duration_min": "360", "duration_max": "360", "duration_median": "360", "duration_count": "1"}, {"place_id": "france_10", "place_name": "La Rochelle", "place_lat": "46.1527030", "place_lon": "-1.1452880", "duration_min": "365", "duration_max": "415", "duration_median": "385", "duration_count": "3"}, {"place_id": "france_105", "place_name": "Marseille", "place_lat": "43.3030300", "place_lon": "5.38055500", "duration_min": "640", "duration_max": "640", "duration_median": "640", "duration_count": "1"}, {"place_id": "france_123", "place_name": "Montpellier", "place_lat": "43.6047800", "place_lon": "3.88116800", "duration_min": "505", "duration_max": "505", "duration_median": "505", "duration_count": "1"}, {"place_id": "france_125", "place_name": "Nimes", "place_lat": "43.8323870", "place_lon": "4.36608100", "duration_min": "485", "duration_max": "485", "duration_median": "489", "duration_count": "1"}, {"place_id": "france_127", "place_name": "Narbonne", "place_lat": "43.1906640", "place_lon": "3.00556200", "duration_min": "415", "duration_max": "415", "duration_median": "415", "duration_count": "1"}, {"place_id": "france_155", "place_name": "Lille", "place_lat": "50.64501", "place_lon": "3.082257", "duration_min": "885", "duration_max": "885", "duration_median": "885", "duration_count": "1"}, {"place_id": "france_19", "place_name": "Paris", "place_lat": "48.8404960", "place_lon": "2.36707900", "duration_min": "555", "duration_max": "795", "duration_median": "682", "duration_count": "15"}, {"place_id": "france_24", "place_name": "Bordeaux", "place_lat": "44.8258230", "place_lon": "-0.5560120", "duration_min": "165", "duration_max": "275", "duration_median": "218", "duration_count": "20"}, {"place_id": "france_38", "place_name": "Toulouse", "place_lat": "43.6114370", "place_lon": "1.45423700", "duration_min": "270", "duration_max": "355", "duration_median": "325", "duration_count": "7"}, {"place_id": "france_6", "place_name": "Rennes", "place_lat": "48.1030710", "place_lon": "-1.6721310", "duration_min": "585", "duration_max": "640", "duration_median": "606", "duration_count": "3"}, {"place_id": "france_72", "place_name": "Carcassonne", "place_lat": "43.2181650", "place_lon": "2.35243000", "duration_min": "445", "duration_max": "445", "duration_median": "445", "duration_count": "1"}, {"place_id": "france_83", "place_name": "Bayonne", "place_lat": "43.4970180", "place_lon": "-1.4701940", "duration_min": "50", "duration_max": "130", "duration_median": "75", "duration_count": "22"}, {"place_id": "france_85", "place_name": "Hendaye", "place_lat": "43.3531650", "place_lon": "-1.7820950", "duration_min": "17", "duration_max": "40", "duration_median": "26", "duration_count": "22"}, {"place_id": "france_93", "place_name": "Lyon", "place_lat": "45.7605960", "place_lon": "4.85940900", "duration_min": "670", "duration_max": "870", "duration_median": "744", "duration_count": "3"}, {"place_id": "portugal_4", "place_name": "Porto", "place_lat": "41.148823", "place_lon": "-8.584932", "duration_min": "615", "duration_max": "845", "duration_median": "765", "duration_count": "4"}, {"place_id": "spain_1", "place_name": "Barcelona", "place_lat": "41.37922", "place_lon": "2.140624", "duration_min": "359", "duration_max": "359", "duration_median": "367", "duration_count": "1"}, {"place_id": "spain_139", "place_name": "Tolosa", "place_lat": "43.131936", "place_lon": "-2.085247", "duration_min": "15", "duration_max": "35", "duration_median": "26", "duration_count": "6"}, {"place_id": "spain_162", "place_name": "Algeciras", "place_lat": "36.1268310", "place_lon": "-5.4511080", "duration_min": "1055", "duration_max": "1055", "duration_median": "1055", "duration_count": "1"}, {"place_id": "spain_20", "place_name": "Madrid", "place_lat": "40.4720993", "place_lon": "-3.6824687", "duration_min": "293", "duration_max": "405", "duration_median": "344", "duration_count": "4"}, {"place_id": "spain_55", "place_name": "Zaragoza", "place_lat": "41.658649", "place_lon": "-0.911615", "duration_min": "236", "duration_max": "236", "duration_median": "244", "duration_count": "1"}, {"place_id": "spain_56", "place_name": "Tudela de Navarra", "place_lat": "42.0594340", "place_lon": "-1.5979310", "duration_min": "188", "duration_max": "188", "duration_median": "196", "duration_count": "1"}, {"place_id": "spain_61", "place_name": "Pamplona", "place_lat": "42.8248770", "place_lon": "-1.6614190", "duration_min": "65", "duration_max": "110", "duration_median": "98", "duration_count": "3"}, {"place_id": "switzerland_2", "place_name": "Bern", "place_lat": "46.948834", "place_lon": "7.439131", "duration_min": "1115", "duration_max": "1115", "duration_median": "1118", "duration_count": "1"}, {"place_id": "switzerland_3", "place_name": "Geneva", "place_lat": "46.210209", "place_lon": "6.142455", "duration_min": "855", "duration_max": "965", "duration_median": "902", "duration_count": "3"}, {"place_id": "switzerland_6", "place_name": "Zurich", "place_lat": "47.378968", "place_lon": "8.540534", "duration_min": "1215", "duration_max": "1215", "duration_median": "1218", "duration_count": "1"}]}