{"place_id": "spain_55", "place_name": "Zaragoza", "place_lat": "41.658649", "place_lon": "-0.911615", "place_brief_desc": "The capital of Aragon has plenty to see in do thanks to two thousand years of history and two cathedrals", "place_longer_desc": "The capital of Aragon has plenty to see in do thanks to two thousand years of history and two cathedrals", "place_image": "./static/images/zaragoza.png", "place_tags": "history", "place_links": "./static/cards/zaragoza.html", "place_country": "Spain", "hops": [{"place_id": "france_105", "place_name": "Marseille", "place_lat": "43.3030300", "place_lon": "5.38055500", "duration_min": "400", "duration_max": "765", "duration_median": "605", "duration_count": "3"}, {"place_id": "france_123", "place_name": "Montpellier", "place_lat": "43.6047800", "place_lon": "3.88116800", "duration_min": "293", "duration_max": "565", "duration_median": "498", "duration_count": "6"}, {"place_id": "france_125", "place_name": "Nimes", "place_lat": "43.8323870", "place_lon": "4.36608100", "duration_min": "332", "duration_max": "625", "duration_median": "551", "duration_count": "6"}, {"place_id": "france_127", "place_name": "Narbonne", "place_lat": "43.1906640", "place_lon": "3.00556200", "duration_min": "223", "duration_max": "490", "duration_median": "401", "duration_count": "3"}, {"place_id": "france_145", "place_name": "Perpignan", "place_lat": "42.6960790", "place_lon": "2.87962200", "duration_min": "184", "duration_max": "434", "duration_median": "350", "duration_count": "3"}, {"place_id": "france_152", "place_name": "Avignon", "place_lat": "43.941304", "place_lon": "4.805256", "duration_min": "361", "duration_max": "689", "duration_median": "578", "duration_count": "3"}, {"place_id": "france_38", "place_name": "Toulouse", "place_lat": "43.6114370", "place_lon": "1.45423700", "duration_min": "355", "duration_max": "360", "duration_median": "357", "duration_count": "2"}, {"place_id": "france_93", "place_name": "Lyon", "place_lat": "45.7605960", "place_lon": "4.85940900", "duration_min": "770", "duration_max": "840", "duration_median": "803", "duration_count": "3"}, {"place_id": "spain_1", "place_name": "Barcelona", "place_lat": "41.37922", "place_lon": "2.140624", "duration_min": "88", "duration_max": "285", "duration_median": "236", "duration_count": "12"}, {"place_id": "spain_104", "place_name": "Figueres", "place_lat": "42.2647710", "place_lon": "2.94354700", "duration_min": "153", "duration_max": "153", "duration_median": "161", "duration_count": "1"}, {"place_id": "spain_105", "place_name": "Girona", "place_lat": "41.9793030", "place_lon": "2.81700600", "duration_min": "136", "duration_max": "359", "duration_median": "287", "duration_count": "3"}, {"place_id": "spain_19", "place_name": "Tarragona", "place_lat": "41.1116240", "place_lon": "1.25321400", "duration_min": "165", "duration_max": "223", "duration_median": "195", "duration_count": "2"}, {"place_id": "spain_20", "place_name": "Madrid", "place_lat": "40.4720993", "place_lon": "-3.6824687", "duration_min": "225", "duration_max": "240", "duration_median": "239", "duration_count": "3"}, {"place_id": "spain_44", "place_name": "San Sebastian", "place_lat": "43.317669", "place_lon": "-1.976704", "duration_min": "227", "duration_max": "227", "duration_median": "231", "duration_count": "1"}, {"place_id": "spain_56", "place_name": "Tudela de Navarra", "place_lat": "42.0594340", "place_lon": "-1.5979310", "duration_min": "40", "duration_max": "40", "duration_median": "51", "duration_count": "1"}, {"place_id": "spain_61", "place_name": "Pamplona", "place_lat": "42.8248770", "place_lon": "-1.6614190", "duration_min": "104", "duration_max": "104", "duration_median": "124", "duration_count": "1"}, {"place_id": "spain_742", "place_name": "Teruel", "place_lat": "40.3410290", "place_lon": "-1.1102840", "duration_min": "135", "duration_max": "135", "duration_median": "145", "duration_count": "1"}, {"place_id": "spain_96", "place_name": "Cordoba", "place_lat": "37.8882910", "place_lon": "-4.7894530", "duration_min": "184", "duration_max": "184", "duration_median": "193", "duration_count": "1"}, {"place_id": "spain_97", "place_name": "Seville", "place_lat": "37.3921277", "place_lon": "-5.9752694", "duration_min": "240", "duration_max": "240", "duration_median": "247", "duration_count": "1"}, {"place_id": "switzerland_2", "place_name": "Bern", "place_lat": "46.948834", "place_lon": "7.439131", "duration_min": "1124", "duration_max": "1124", "duration_median": "1124", "duration_count": "1"}, {"place_id": "switzerland_3", "place_name": "Geneva", "place_lat": "46.210209", "place_lon": "6.142455", "duration_min": "989", "duration_max": "989", "duration_median": "989", "duration_count": "1"}, {"place_id": "switzerland_6", "place_name": "Zurich", "place_lat": "47.378968", "place_lon": "8.540534", "duration_min": "1215", "duration_max": "1215", "duration_median": "1215", "duration_count": "1"}]}