{"place_id": "spain_805", "place_name": "Llanca", "place_lat": "42.3665949", "place_lon": "3.14898700", "place_brief_desc": "Popular string of beaches and port with historic bunkers.", "place_longer_desc": "Popular string of beaches and port with historic bunkers.", "place_image": "./static/images/llanca.png", "place_tags": "history", "place_links": "./static/cards/llanca.html", "place_country": "Spain", "hops": [{"place_id": "spain_1", "place_name": "Barcelona", "place_lat": "41.37922", "place_lon": "2.140624", "duration_min": "122", "details": [{"agency_name": "RENFE OPERADORA", "route_short_name": "NULL", "route_long_name": "NULL", "agency_url": "http://www.renfe.com", "duration_min": "122", "duration_avg": "134", "duration_count": "106"}]}, {"place_id": "spain_104", "place_name": "Figueres", "place_lat": "42.2647710", "place_lon": "2.94354700", "duration_min": "13", "details": [{"agency_name": "RENFE OPERADORA", "route_short_name": "NULL", "route_long_name": "NULL", "agency_url": "http://www.renfe.com", "duration_min": "13", "duration_avg": "13", "duration_count": "53"}]}, {"place_id": "spain_105", "place_name": "Girona", "place_lat": "41.9793030", "place_lon": "2.81700600", "duration_min": "45", "details": [{"agency_name": "RENFE OPERADORA", "route_short_name": "NULL", "route_long_name": "NULL", "agency_url": "http://www.renfe.com", "duration_min": "45", "duration_avg": "49", "duration_count": "53"}]}, {"place_id": "spain_806", "place_name": "Portbou", "place_lat": "42.4244940", "place_lon": "3.15785800", "duration_min": "6", "details": [{"agency_name": "RENFE OPERADORA", "route_short_name": "NULL", "route_long_name": "NULL", "agency_url": "http://www.renfe.com", "duration_min": "6", "duration_avg": "9", "duration_count": "142"}]}]}