{"place_id": "spain_139", "place_name": "Tolosa", "place_lat": "43.131936", "place_lon": "-2.085247", "place_brief_desc": "If you are planning on travelling between San Sebastian and Pamplona, then why not make a detour via Tolosa?", "place_longer_desc": "If you are planning on travelling between San Sebastian and Pamplona, then why not make a detour via Tolosa?", "place_image": "./static/images/tolosa.png", "place_tags": "history", "place_links": "./static/cards/tolosa.html", "place_country": "Spain", "hops": [{"place_id": "france_85", "place_name": "Hendaye", "place_lat": "43.3531650", "place_lon": "-1.7820950", "duration_min": "40", "duration_max": "60", "duration_median": "56", "duration_count": "6"}, {"place_id": "spain_20", "place_name": "Madrid", "place_lat": "40.4720993", "place_lon": "-3.6824687", "duration_min": "271", "duration_max": "390", "duration_median": "344", "duration_count": "3"}, {"place_id": "spain_44", "place_name": "San Sebastian", "place_lat": "43.317669", "place_lon": "-1.976704", "duration_min": "15", "duration_max": "45", "duration_median": "30", "duration_count": "7"}, {"place_id": "spain_61", "place_name": "Pamplona", "place_lat": "42.8248770", "place_lon": "-1.6614190", "duration_min": "75", "duration_max": "75", "duration_median": "79", "duration_count": "1"}]}