{"place_id": "spain_806", "place_name": "Portbou", "place_lat": "42.4244940", "place_lon": "3.15785800", "place_brief_desc": "A border town with a fascinating 20th Century history", "place_longer_desc": "A border town with a beach and a fascinating 20th Century history", "place_image": "./static/images/portbou.png", "place_tags": "history", "place_links": "./static/cards/portbou.html", "place_country": "Spain", "hops": [{"place_id": "france_123", "place_name": "Montpellier", "place_lat": "43.6047800", "place_lon": "3.88116800", "duration_min": "152", "duration_max": "159", "duration_median": "164", "duration_count": "2"}, {"place_id": "france_124", "place_name": "Sete", "place_lat": "43.4128080", "place_lon": "3.69641000", "duration_min": "131", "duration_max": "139", "duration_median": "144", "duration_count": "2"}, {"place_id": "france_125", "place_name": "Nimes", "place_lat": "43.8323870", "place_lon": "4.36608100", "duration_min": "186", "duration_max": "192", "duration_median": "200", "duration_count": "2"}, {"place_id": "france_127", "place_name": "Narbonne", "place_lat": "43.1906640", "place_lon": "3.00556200", "duration_min": "85", "duration_max": "104", "duration_median": "97", "duration_count": "5"}, {"place_id": "france_145", "place_name": "Perpignan", "place_lat": "42.6960790", "place_lon": "2.87962200", "duration_min": "34", "duration_max": "107", "duration_median": "55", "duration_count": "6"}, {"place_id": "france_148", "place_name": "Collioure", "place_lat": "42.5269200", "place_lon": "3.07824800", "duration_min": "10", "duration_max": "33", "duration_median": "21", "duration_count": "6"}, {"place_id": "france_152", "place_name": "Avignon", "place_lat": "43.941304", "place_lon": "4.805256", "duration_min": "233", "duration_max": "233", "duration_median": "250", "duration_count": "1"}, {"place_id": "france_159", "place_name": "Tarascon", "place_lat": "43.801172", "place_lon": "4.656925", "duration_min": "215", "duration_max": "215", "duration_median": "233", "duration_count": "1"}, {"place_id": "france_19", "place_name": "Paris", "place_lat": "48.8404960", "place_lon": "2.36707900", "duration_min": "701", "duration_max": "722", "duration_median": "739", "duration_count": "2"}, {"place_id": "france_38", "place_name": "Toulouse", "place_lat": "43.6114370", "place_lon": "1.45423700", "duration_min": "194", "duration_max": "194", "duration_median": "210", "duration_count": "1"}, {"place_id": "france_72", "place_name": "Carcassonne", "place_lat": "43.2181650", "place_lon": "2.35243000", "duration_min": "132", "duration_max": "165", "duration_median": "158", "duration_count": "3"}, {"place_id": "spain_1", "place_name": "Barcelona", "place_lat": "41.37922", "place_lon": "2.140624", "duration_min": "130", "duration_max": "130", "duration_median": "144", "duration_count": "1"}, {"place_id": "spain_104", "place_name": "Figueres", "place_lat": "42.2647710", "place_lon": "2.94354700", "duration_min": "19", "duration_max": "19", "duration_median": "21", "duration_count": "1"}, {"place_id": "spain_105", "place_name": "Girona", "place_lat": "41.9793030", "place_lon": "2.81700600", "duration_min": "53", "duration_max": "53", "duration_median": "58", "duration_count": "1"}, {"place_id": "spain_805", "place_name": "Llanca", "place_lat": "42.3665949", "place_lon": "3.14898700", "duration_min": "5", "duration_max": "5", "duration_median": "7", "duration_count": "1"}]}