{"place_id": "spain_97", "place_name": "Seville", "place_lat": "37.3921277", "place_lon": "-5.9752694", "place_brief_desc": "Few places encapsulate the story of Spain as well as Seville.", "place_longer_desc": "Few places encapsulate the story of Spain as well as Seville. And where better to tell that story than the vast Gothic Cathedral which was built on the site of a Moorish mosque and contains the remains of Christopher Columbus.", "place_image": "./static/images/seville.png", "place_tags": "history", "place_links": "./static/cards/seville.html", "place_country": "Spain", "hops": [{"place_id": "portugal_5", "place_name": "Lagos", "place_lat": "37.108469", "place_lon": "-8.67166", "duration_min": "265", "duration_max": "305", "duration_median": "291", "duration_count": "3"}, {"place_id": "portugal_6", "place_name": "Albufeira", "place_lat": "37.128686", "place_lon": "-8.232825", "duration_min": "195", "duration_max": "225", "duration_median": "227", "duration_count": "2"}, {"place_id": "spain_1", "place_name": "Barcelona", "place_lat": "41.37922", "place_lon": "2.140624", "duration_min": "342", "duration_max": "342", "duration_median": "416", "duration_count": "1"}, {"place_id": "spain_162", "place_name": "Algeciras", "place_lat": "36.1268310", "place_lon": "-5.4511080", "duration_min": "210", "duration_max": "230", "duration_median": "230", "duration_count": "2"}, {"place_id": "spain_55", "place_name": "Zaragoza", "place_lat": "41.658649", "place_lon": "-0.911615", "duration_min": "237", "duration_max": "237", "duration_median": "246", "duration_count": "1"}, {"place_id": "spain_96", "place_name": "Cordoba", "place_lat": "37.8882910", "place_lon": "-4.7894530", "duration_min": "47", "duration_max": "130", "duration_median": "107", "duration_count": "5"}]}