[{"place_id": "austria_1", "place_name": "Vienna", "place_lat": "48.207037", "place_lon": "16.341553", "place_brief_desc": "Something for everyone, from art and music to architecture and cuisine.", "place_longer_desc": "The capital of Austria is a must-see for any visitor. Vienna has something for everyone, from art and music to architecture and cuisine. You can admire the majestic Sch\u00f6nbrunn Palace, the former residence of the Habsburgs, or visit the Belvedere Palace, which houses the largest collection of Gustav Klimt's paintings. You can also enjoy the green spaces of Vienna, such as the Prater park or the Gardens of Mirabell Palace.", "place_image": "./static/images/vienna.png", "place_tags": "history", "place_links": "./static/cards/vienna.html", "place_country": "Austria", "hops": [{"place_id": "austria_2", "place_name": "Salzburg", "place_lat": "47.813848", "place_lon": "13.045514", "duration_min": "138", "duration_max": "138", "duration_median": "153", "duration_count": "2"}, {"place_id": "austria_3", "place_name": "Graz", "place_lat": "47.072301", "place_lon": "15.416437", "duration_min": "130", "duration_max": "165", "duration_median": "158", "duration_count": "4"}, {"place_id": "austria_4", "place_name": "Innsbruck", "place_lat": "47.263331", "place_lon": "11.400506", "duration_min": "247", "duration_max": "282", "duration_median": "287", "duration_count": "2"}, {"place_id": "austria_5", "place_name": "Bregenz", "place_lat": "47.503001", "place_lon": "9.739623", "duration_min": "402", "duration_max": "435", "duration_median": "437", "duration_count": "2"}, {"place_id": "belgium_1", "place_name": "Brussels", "place_lat": "50.835375", "place_lon": "4.335695", "duration_min": "1180", "duration_max": "1180", "duration_median": "1180", "duration_count": "2"}, {"place_id": "belgium_4", "place_name": "Antwerp", "place_lat": "51.215807", "place_lon": "4.421165", "duration_min": "1230", "duration_max": "1230", "duration_median": "1235", "duration_count": "2"}, {"place_id": "croatia_1", "place_name": "Zagreb", "place_lat": "45.807411", "place_lon": "15.990291", "duration_min": "310", "duration_max": "310", "duration_median": "312", "duration_count": "1"}, {"place_id": "czechia_5", "place_name": "Brno", "place_lat": "49.190537", "place_lon": "16.612776", "duration_min": "95", "duration_max": "115", "duration_median": "116", "duration_count": "2"}, {"place_id": "czechia_7", "place_name": "Olomouc", "place_lat": "49.593128", "place_lon": "17.277932", "duration_min": "180", "duration_max": "180", "duration_median": "196", "duration_count": "1"}, {"place_id": "Germany_3", "place_name": "Nuremberg", "place_lat": "49.450748", "place_lon": "11.077955", "duration_min": "286", "duration_max": "415", "duration_median": "372", "duration_count": "3"}, {"place_id": "Germany_4", "place_name": "Munich", "place_lat": "48.140364", "place_lon": "11.558744", "duration_min": "269", "duration_max": "375", "duration_median": "348", "duration_count": "6"}, {"place_id": "Germany_8", "place_name": "Heidelberg", "place_lat": "49.403582", "place_lon": "8.67548", "duration_min": "739", "duration_max": "775", "duration_median": "758", "duration_count": "4"}, {"place_id": "hungary_2", "place_name": "Pecs", "place_lat": "46.066229", "place_lon": "18.225351", "duration_min": "490", "duration_max": "490", "duration_median": "490", "duration_count": "1"}, {"place_id": "hungary_4", "place_name": "Sopron", "place_lat": "47.677905", "place_lon": "16.586734", "duration_min": "60", "duration_max": "60", "duration_median": "60", "duration_count": "1"}, {"place_id": "hungary_7", "place_name": "Gyor", "place_lat": "47.681986", "place_lon": "17.634795", "duration_min": "100", "duration_max": "106", "duration_median": "105", "duration_count": "3"}, {"place_id": "italy_1", "place_name": "Venice", "place_lat": "45.444427", "place_lon": "12.315491", "duration_min": "515", "duration_max": "515", "duration_median": "525", "duration_count": "1"}, {"place_id": "poland_1", "place_name": "Krakow", "place_lat": "50.069934", "place_lon": "19.940546", "duration_min": "515", "duration_max": "515", "duration_median": "517", "duration_count": "1"}, {"place_id": "poland_2", "place_name": "Warsaw", "place_lat": "52.224729", "place_lon": "21.001417", "duration_min": "555", "duration_max": "555", "duration_median": "629", "duration_count": "1"}, {"place_id": "poland_3", "place_name": "Wroclaw", "place_lat": "51.098075", "place_lon": "17.037084", "duration_min": "418", "duration_max": "418", "duration_median": "494", "duration_count": "1"}, {"place_id": "poland_7", "place_name": "Bielsko-Biala", "place_lat": "49.830713", "place_lon": "19.04558", "duration_min": "390", "duration_max": "390", "duration_median": "392", "duration_count": "1"}, {"place_id": "slovakia_1", "place_name": "Bratislava", "place_lat": "48.154135", "place_lon": "17.097852", "duration_min": "44", "duration_max": "105", "duration_median": "81", "duration_count": "9"}, {"place_id": "slovakia_2", "place_name": "Kosice", "place_lat": "48.722918", "place_lon": "21.268721", "duration_min": "435", "duration_max": "435", "duration_median": "435", "duration_count": "2"}, {"place_id": "slovakia_4", "place_name": "Zilina", "place_lat": "49.227043", "place_lon": "18.746006", "duration_min": "280", "duration_max": "280", "duration_median": "282", "duration_count": "1"}, {"place_id": "slovenia_1", "place_name": "Ljubljana", "place_lat": "46.058687", "place_lon": "14.51294", "duration_min": "299", "duration_max": "299", "duration_median": "304", "duration_count": "1"}]}, {"place_id": "austria_2", "place_name": "Salzburg", "place_lat": "47.813848", "place_lon": "13.045514", "place_brief_desc": "The birthplace of Mozart and the setting of The Sound of Music.", "place_longer_desc": "The birthplace of Mozart and the setting of The Sound of Music, Salzburg is a charming city with a baroque flair. You can explore the historic Old Town, which is a UNESCO World Heritage Site, or visit the Hohensalzburg Fortress, which offers panoramic views of the city and the surrounding mountains. You can also take a day trip to the nearby Salzkammergut region, where you can enjoy the crystal-clear lakes and picturesque villages.", "place_image": "./static/images/salzburg.png", "place_tags": "history", "place_links": "./static/cards/salzburg.html", "place_country": "Austria", "hops": [{"place_id": "austria_1", "place_name": "Vienna", "place_lat": "48.207037", "place_lon": "16.341553", "duration_min": "138", "duration_max": "138", "duration_median": "160", "duration_count": "2"}, {"place_id": "austria_3", "place_name": "Graz", "place_lat": "47.072301", "place_lon": "15.416437", "duration_min": "238", "duration_max": "238", "duration_median": "241", "duration_count": "2"}, {"place_id": "austria_4", "place_name": "Innsbruck", "place_lat": "47.263331", "place_lon": "11.400506", "duration_min": "99", "duration_max": "240", "duration_median": "164", "duration_count": "4"}, {"place_id": "austria_5", "place_name": "Bregenz", "place_lat": "47.503001", "place_lon": "9.739623", "duration_min": "261", "duration_max": "261", "duration_median": "293", "duration_count": "2"}, {"place_id": "Germany_1", "place_name": "Berlin", "place_lat": "52.520501", "place_lon": "13.386988", "duration_min": "503", "duration_max": "503", "duration_median": "509", "duration_count": "1"}, {"place_id": "Germany_3", "place_name": "Nuremberg", "place_lat": "49.450748", "place_lon": "11.077955", "duration_min": "162", "duration_max": "162", "duration_median": "181", "duration_count": "1"}, {"place_id": "Germany_4", "place_name": "Munich", "place_lat": "48.140364", "place_lon": "11.558744", "duration_min": "41", "duration_max": "107", "duration_median": "115", "duration_count": "4"}, {"place_id": "Germany_5", "place_name": "Cologne", "place_lat": "50.941312", "place_lon": "6.967206", "duration_min": "462", "duration_max": "462", "duration_median": "466", "duration_count": "1"}, {"place_id": "Germany_8", "place_name": "Heidelberg", "place_lat": "49.403582", "place_lon": "8.67548", "duration_min": "284", "duration_max": "284", "duration_median": "286", "duration_count": "1"}, {"place_id": "italy_1", "place_name": "Venice", "place_lat": "45.444427", "place_lon": "12.315491", "duration_min": "364", "duration_max": "364", "duration_median": "364", "duration_count": "1"}, {"place_id": "italy_3", "place_name": "Florence", "place_lat": "43.765835", "place_lon": "11.249928", "duration_min": "496", "duration_max": "496", "duration_median": "508", "duration_count": "1"}, {"place_id": "italy_4", "place_name": "Rome", "place_lat": "41.901868", "place_lon": "12.470654", "duration_min": "668", "duration_max": "668", "duration_median": "677", "duration_count": "1"}, {"place_id": "slovakia_1", "place_name": "Bratislava", "place_lat": "48.154135", "place_lon": "17.097852", "duration_min": "199", "duration_max": "199", "duration_median": "207", "duration_count": "1"}]}, {"place_id": "austria_3", "place_name": "Graz", "place_lat": "47.072301", "place_lon": "15.416437", "place_brief_desc": "A mix of old and new with medieval buildings and modern architecture.", "place_longer_desc": "The second-largest city in Austria, Graz is a mix of old and new. You can marvel at the medieval buildings and monuments in the Old Town, such as the Styrian Armoury or the Clock Tower, or admire the modern architecture and design of the Kunsthaus or the Murinsel. Graz is also known for its culinary delights, especially its pumpkin seed oil and chocolate. The train journey from Vienna to Graz takes you through the Semmering railway, a spectacular UNESCO World Heritage Site that showcases the engineering and landscape of Austria.", "place_image": "./static/images/graz.png", "place_tags": "history", "place_links": "./static/cards/graz.html", "place_country": "Austria", "hops": [{"place_id": "austria_1", "place_name": "Vienna", "place_lat": "48.207037", "place_lon": "16.341553", "duration_min": "130", "duration_max": "155", "duration_median": "152", "duration_count": "4"}, {"place_id": "austria_2", "place_name": "Salzburg", "place_lat": "47.813848", "place_lon": "13.045514", "duration_min": "239", "duration_max": "239", "duration_median": "242", "duration_count": "2"}, {"place_id": "austria_4", "place_name": "Innsbruck", "place_lat": "47.263331", "place_lon": "11.400506", "duration_min": "355", "duration_max": "355", "duration_median": "391", "duration_count": "1"}, {"place_id": "poland_3", "place_name": "Wroclaw", "place_lat": "51.098075", "place_lon": "17.037084", "duration_min": "588", "duration_max": "588", "duration_median": "662", "duration_count": "1"}]}, {"place_id": "austria_4", "place_name": "Innsbruck", "place_lat": "47.263331", "place_lon": "11.400506", "place_brief_desc": "The capital of Tyrol, Innsbruck is a paradise for outdoor enthusiasts and winter sports lovers.", "place_longer_desc": "The capital of Tyrol, Innsbruck is a paradise for outdoor enthusiasts and winter sports lovers. You can ski or snowboard on the slopes of the Nordkette mountain range, or hike and bike in the summer. You can also visit the Golden Roof, the landmark of Innsbruck that was built by Emperor Maximilian I, or enjoy the cultural attractions of the city, such as the Hofburg palace or the Tyrolean Folk Art Museum.", "place_image": "./static/images/innsbruck.png", "place_tags": "history", "place_links": "./static/cards/innsbruck.html", "place_country": "Austria", "hops": [{"place_id": "austria_1", "place_name": "Vienna", "place_lat": "48.207037", "place_lon": "16.341553", "duration_min": "248", "duration_max": "251", "duration_median": "264", "duration_count": "2"}, {"place_id": "austria_2", "place_name": "Salzburg", "place_lat": "47.813848", "place_lon": "13.045514", "duration_min": "105", "duration_max": "138", "duration_median": "119", "duration_count": "3"}, {"place_id": "austria_3", "place_name": "Graz", "place_lat": "47.072301", "place_lon": "15.416437", "duration_min": "353", "duration_max": "353", "duration_median": "378", "duration_count": "1"}, {"place_id": "austria_5", "place_name": "Bregenz", "place_lat": "47.503001", "place_lon": "9.739623", "duration_min": "150", "duration_max": "150", "duration_median": "165", "duration_count": "2"}, {"place_id": "czechia_1", "place_name": "Prague", "place_lat": "50.081926", "place_lon": "14.451481", "duration_min": "460", "duration_max": "551", "duration_median": "490", "duration_count": "3"}, {"place_id": "czechia_10", "place_name": "Ceske Budejovice", "place_lat": "48.974616", "place_lon": "14.48875", "duration_min": "444", "duration_max": "444", "duration_median": "444", "duration_count": "1"}, {"place_id": "france_105", "place_name": "Marseille", "place_lat": "43.3030300", "place_lon": "5.38055500", "duration_min": "895", "duration_max": "895", "duration_median": "913", "duration_count": "1"}, {"place_id": "france_93", "place_name": "Lyon", "place_lat": "45.7605960", "place_lon": "4.85940900", "duration_min": "650", "duration_max": "650", "duration_median": "659", "duration_count": "2"}, {"place_id": "Germany_3", "place_name": "Nuremberg", "place_lat": "49.450748", "place_lon": "11.077955", "duration_min": "250", "duration_max": "250", "duration_median": "250", "duration_count": "1"}, {"place_id": "Germany_4", "place_name": "Munich", "place_lat": "48.140364", "place_lon": "11.558744", "duration_min": "112", "duration_max": "160", "duration_median": "145", "duration_count": "15"}, {"place_id": "italy_1", "place_name": "Venice", "place_lat": "45.444427", "place_lon": "12.315491", "duration_min": "345", "duration_max": "345", "duration_median": "345", "duration_count": "2"}, {"place_id": "italy_11", "place_name": "Assisi", "place_lat": "43.070820", "place_lon": "12.618917", "duration_min": "615", "duration_max": "615", "duration_median": "615", "duration_count": "2"}, {"place_id": "italy_5", "place_name": "Naples", "place_lat": "40.860791", "place_lon": "14.257611", "duration_min": "730", "duration_max": "730", "duration_median": "738", "duration_count": "2"}, {"place_id": "romania_3", "place_name": "Sibiu", "place_lat": "45.799977", "place_lon": "24.161575", "duration_min": "1110", "duration_max": "1110", "duration_median": "1110", "duration_count": "1"}, {"place_id": "slovakia_1", "place_name": "Bratislava", "place_lat": "48.154135", "place_lon": "17.097852", "duration_min": "455", "duration_max": "455", "duration_median": "458", "duration_count": "1"}, {"place_id": "switzerland_2", "place_name": "Bern", "place_lat": "46.948834", "place_lon": "7.439131", "duration_min": "350", "duration_max": "350", "duration_median": "359", "duration_count": "2"}, {"place_id": "switzerland_3", "place_name": "Geneva", "place_lat": "46.210209", "place_lon": "6.142455", "duration_min": "495", "duration_max": "510", "duration_median": "511", "duration_count": "2"}, {"place_id": "switzerland_6", "place_name": "Zurich", "place_lat": "47.378968", "place_lon": "8.540534", "duration_min": "240", "duration_max": "245", "duration_median": "251", "duration_count": "2"}]}, {"place_id": "austria_5", "place_name": "Bregenz", "place_lat": "47.503001", "place_lon": "9.739623", "place_brief_desc": "Scenic city on the shores of Lake Constance.", "place_longer_desc": "The capital of Vorarlberg, Bregenz is a scenic city on the shores of Lake Constance. You can enjoy the lake views and activities, such as swimming, boating, or cycling along the shore. You can also visit the Bregenz Festival, which features opera performances on a floating stage on the lake every summer. Bregenz is also close to some of the most beautiful alpine regions in Austria, such as the Bregenzerwald or the Arlberg.", "place_image": "./static/images/bregenz.png", "place_tags": "history", "place_links": "./static/cards/bregenz.html", "place_country": "Austria", "hops": [{"place_id": "austria_1", "place_name": "Vienna", "place_lat": "48.207037", "place_lon": "16.341553", "duration_min": "397", "duration_max": "405", "duration_median": "424", "duration_count": "2"}, {"place_id": "austria_2", "place_name": "Salzburg", "place_lat": "47.813848", "place_lon": "13.045514", "duration_min": "255", "duration_max": "262", "duration_median": "265", "duration_count": "2"}, {"place_id": "austria_4", "place_name": "Innsbruck", "place_lat": "47.263331", "place_lon": "11.400506", "duration_min": "146", "duration_max": "151", "duration_median": "166", "duration_count": "2"}, {"place_id": "france_93", "place_name": "Lyon", "place_lat": "45.7605960", "place_lon": "4.85940900", "duration_min": "525", "duration_max": "525", "duration_median": "531", "duration_count": "2"}, {"place_id": "Germany_4", "place_name": "Munich", "place_lat": "48.140364", "place_lon": "11.558744", "duration_min": "150", "duration_max": "185", "duration_median": "162", "duration_count": "8"}, {"place_id": "switzerland_2", "place_name": "Bern", "place_lat": "46.948834", "place_lon": "7.439131", "duration_min": "220", "duration_max": "220", "duration_median": "223", "duration_count": "2"}, {"place_id": "switzerland_3", "place_name": "Geneva", "place_lat": "46.210209", "place_lon": "6.142455", "duration_min": "380", "duration_max": "380", "duration_median": "384", "duration_count": "2"}, {"place_id": "switzerland_6", "place_name": "Zurich", "place_lat": "47.378968", "place_lon": "8.540534", "duration_min": "120", "duration_max": "120", "duration_median": "120", "duration_count": "2"}]}, {"place_id": "belgium_1", "place_name": "Brussels", "place_lat": "50.835375", "place_lon": "4.335695", "place_brief_desc": "Fill your tummy in some of the best chocolate, waffles, fries, and beer in the world.", "place_longer_desc": "As the capital of Belgium and the European Union, Brussels is the place where decisions get made - or at least talk about getting made and you can find out more about that with a wander over to the Parlamentarium. Alternatively, why not take a stroll to the Grand Place, the iconic Atomium, or the colourful Comic Strip Museum via the Manneken Pis. You can also fill your tummy in some of the best chocolate, waffles, fries, and beer in the world.", "place_image": "./static/images/brussels.png", "place_tags": "history", "place_links": "./static/cards/brussels.html", "place_country": "Belgium", "hops": [{"place_id": "austria_1", "place_name": "Vienna", "place_lat": "48.207037", "place_lon": "16.341553", "duration_min": "1150", "duration_max": "1150", "duration_median": "1150", "duration_count": "2"}, {"place_id": "belgium_12", "place_name": "Hasselt", "place_lat": "50.930876", "place_lon": "5.327062", "duration_min": "70", "duration_max": "105", "duration_median": "90", "duration_count": "4"}, {"place_id": "belgium_2", "place_name": "Bruges", "place_lat": "51.196939", "place_lon": "3.217078", "duration_min": "80", "duration_max": "110", "duration_median": "96", "duration_count": "7"}, {"place_id": "belgium_3", "place_name": "Ghent", "place_lat": "51.035627", "place_lon": "3.710612", "duration_min": "55", "duration_max": "60", "duration_median": "58", "duration_count": "6"}, {"place_id": "belgium_4", "place_name": "Antwerp", "place_lat": "51.215807", "place_lon": "4.421165", "duration_min": "34", "duration_max": "80", "duration_median": "51", "duration_count": "39"}, {"place_id": "belgium_5", "place_name": "Leuven", "place_lat": "50.881543", "place_lon": "4.716146", "duration_min": "45", "duration_max": "45", "duration_median": "50", "duration_count": "2"}, {"place_id": "belgium_7", "place_name": "Namur", "place_lat": "50.468983", "place_lon": "4.862499", "duration_min": "65", "duration_max": "70", "duration_median": "66", "duration_count": "3"}, {"place_id": "belgium_9", "place_name": "Mechelen", "place_lat": "51.017505", "place_lon": "4.483469", "duration_min": "26", "duration_max": "26", "duration_median": "32", "duration_count": "2"}, {"place_id": "croatia_1", "place_name": "Zagreb", "place_lat": "45.807411", "place_lon": "15.990291", "duration_min": "1295", "duration_max": "1325", "duration_median": "1312", "duration_count": "2"}, {"place_id": "czechia_1", "place_name": "Prague", "place_lat": "50.081926", "place_lon": "14.451481", "duration_min": "815", "duration_max": "880", "duration_median": "857", "duration_count": "4"}, {"place_id": "denmark_1", "place_name": "Copenhagen", "place_lat": "55.688237", "place_lon": "12.578426", "duration_min": "855", "duration_max": "855", "duration_median": "855", "duration_count": "1"}, {"place_id": "france_105", "place_name": "Marseille", "place_lat": "43.3030300", "place_lon": "5.38055500", "duration_min": "327", "duration_max": "915", "duration_median": "629", "duration_count": "2"}, {"place_id": "france_123", "place_name": "Montpellier", "place_lat": "43.6047800", "place_lon": "3.88116800", "duration_min": "333", "duration_max": "333", "duration_median": "342", "duration_count": "1"}, {"place_id": "france_124", "place_name": "Sete", "place_lat": "43.4128080", "place_lon": "3.69641000", "duration_min": "364", "duration_max": "364", "duration_median": "364", "duration_count": "1"}, {"place_id": "france_125", "place_name": "Nimes", "place_lat": "43.8323870", "place_lon": "4.36608100", "duration_min": "316", "duration_max": "316", "duration_median": "316", "duration_count": "1"}, {"place_id": "france_127", "place_name": "Narbonne", "place_lat": "43.1906640", "place_lon": "3.00556200", "duration_min": "412", "duration_max": "412", "duration_median": "412", "duration_count": "1"}, {"place_id": "france_145", "place_name": "Perpignan", "place_lat": "42.6960790", "place_lon": "2.87962200", "duration_min": "448", "duration_max": "1065", "duration_median": "819", "duration_count": "3"}, {"place_id": "france_15", "place_name": "Saintes", "place_lat": "45.7488860", "place_lon": "-0.6173560", "duration_min": "780", "duration_max": "780", "duration_median": "792", "duration_count": "2"}, {"place_id": "france_152", "place_name": "Avignon", "place_lat": "43.941304", "place_lon": "4.805256", "duration_min": "290", "duration_max": "290", "duration_median": "311", "duration_count": "1"}, {"place_id": "france_153", "place_name": "Calais", "place_lat": "50.947695", "place_lon": "1.8538", "duration_min": "185", "duration_max": "245", "duration_median": "212", "duration_count": "8"}, {"place_id": "france_155", "place_name": "Lille", "place_lat": "50.64501", "place_lon": "3.082257", "duration_min": "34", "duration_max": "145", "duration_median": "87", "duration_count": "35"}, {"place_id": "france_162", "place_name": "Strasbourg", "place_lat": "48.585339", "place_lon": "7.734067", "duration_min": "172", "duration_max": "470", "duration_median": "354", "duration_count": "14"}, {"place_id": "france_19", "place_name": "Paris", "place_lat": "48.8404960", "place_lon": "2.36707900", "duration_min": "210", "duration_max": "325", "duration_median": "268", "duration_count": "30"}, {"place_id": "france_24", "place_name": "Bordeaux", "place_lat": "44.8258230", "place_lon": "-0.5560120", "duration_min": "710", "duration_max": "730", "duration_median": "723", "duration_count": "3"}, {"place_id": "france_28", "place_name": "Limoges", "place_lat": "45.8372180", "place_lon": "1.26900800", "duration_min": "630", "duration_max": "630", "duration_median": "630", "duration_count": "1"}, {"place_id": "france_38", "place_name": "Toulouse", "place_lat": "43.6114370", "place_lon": "1.45423700", "duration_min": "860", "duration_max": "860", "duration_median": "860", "duration_count": "1"}, {"place_id": "france_6", "place_name": "Rennes", "place_lat": "48.1030710", "place_lon": "-1.6721310", "duration_min": "275", "duration_max": "640", "duration_median": "536", "duration_count": "4"}, {"place_id": "france_83", "place_name": "Bayonne", "place_lat": "43.4970180", "place_lon": "-1.4701940", "duration_min": "885", "duration_max": "930", "duration_median": "907", "duration_count": "2"}, {"place_id": "france_93", "place_name": "Lyon", "place_lat": "45.7605960", "place_lon": "4.85940900", "duration_min": "223", "duration_max": "630", "duration_median": "481", "duration_count": "6"}, {"place_id": "Germany_2", "place_name": "Dresden", "place_lat": "51.040221", "place_lon": "13.731409", "duration_min": "720", "duration_max": "720", "duration_median": "720", "duration_count": "2"}, {"place_id": "Germany_3", "place_name": "Nuremberg", "place_lat": "49.450748", "place_lon": "11.077955", "duration_min": "484", "duration_max": "650", "duration_median": "601", "duration_count": "5"}, {"place_id": "Germany_4", "place_name": "Munich", "place_lat": "48.140364", "place_lon": "11.558744", "duration_min": "720", "duration_max": "785", "duration_median": "738", "duration_count": "8"}, {"place_id": "Germany_5", "place_name": "Cologne", "place_lat": "50.941312", "place_lon": "6.967206", "duration_min": "94", "duration_max": "110", "duration_median": "116", "duration_count": "7"}, {"place_id": "Germany_6", "place_name": "Freiburg", "place_lat": "47.997974", "place_lon": "7.841344", "duration_min": "485", "duration_max": "485", "duration_median": "485", "duration_count": "2"}, {"place_id": "Germany_7", "place_name": "Hamburg", "place_lat": "53.55711", "place_lon": "9.997434", "duration_min": "495", "duration_max": "640", "duration_median": "557", "duration_count": "5"}, {"place_id": "Germany_8", "place_name": "Heidelberg", "place_lat": "49.403582", "place_lon": "8.67548", "duration_min": "449", "duration_max": "450", "duration_median": "450", "duration_count": "2"}, {"place_id": "Germany_9", "place_name": "Aachen", "place_lat": "50.767641", "place_lon": "6.09119", "duration_min": "62", "duration_max": "195", "duration_median": "129", "duration_count": "21"}, {"place_id": "italy_8", "place_name": "Turin", "place_lat": "45.067428", "place_lon": "7.672976", "duration_min": "835", "duration_max": "835", "duration_median": "835", "duration_count": "2"}, {"place_id": "netherlands_1", "place_name": "Amsterdam", "place_lat": "52.379191", "place_lon": "4.899427", "duration_min": "108", "duration_max": "176", "duration_median": "130", "duration_count": "9"}, {"place_id": "netherlands_2", "place_name": "Rotterdam", "place_lat": "51.924804", "place_lon": "4.468771", "duration_min": "69", "duration_max": "165", "duration_median": "124", "duration_count": "26"}, {"place_id": "netherlands_3", "place_name": "Utrecht", "place_lat": "52.089397", "place_lon": "5.109864", "duration_min": "158", "duration_max": "200", "duration_median": "179", "duration_count": "6"}, {"place_id": "netherlands_4", "place_name": "Den Haag", "place_lat": "52.080408", "place_lon": "4.325169", "duration_min": "142", "duration_max": "205", "duration_median": "178", "duration_count": "9"}, {"place_id": "netherlands_5", "place_name": "Delft", "place_lat": "52.005752", "place_lon": "4.356901", "duration_min": "170", "duration_max": "190", "duration_median": "180", "duration_count": "2"}, {"place_id": "netherlands_8", "place_name": "Maastricht", "place_lat": "50.849811", "place_lon": "5.705876", "duration_min": "90", "duration_max": "160", "duration_median": "115", "duration_count": "14"}, {"place_id": "netherlands_9", "place_name": "Groningen", "place_lat": "53.210684", "place_lon": "6.564274", "duration_min": "385", "duration_max": "385", "duration_median": "385", "duration_count": "2"}, {"place_id": "poland_1", "place_name": "Krakow", "place_lat": "50.069934", "place_lon": "19.940546", "duration_min": "1280", "duration_max": "1280", "duration_median": "1280", "duration_count": "4"}, {"place_id": "poland_2", "place_name": "Warsaw", "place_lat": "52.224729", "place_lon": "21.001417", "duration_min": "1285", "duration_max": "1285", "duration_median": "1285", "duration_count": "2"}, {"place_id": "poland_3", "place_name": "Wroclaw", "place_lat": "51.098075", "place_lon": "17.037084", "duration_min": "995", "duration_max": "1025", "duration_median": "1016", "duration_count": "4"}, {"place_id": "romania_3", "place_name": "Sibiu", "place_lat": "45.799977", "place_lon": "24.161575", "duration_min": "1855", "duration_max": "1855", "duration_median": "1855", "duration_count": "2"}, {"place_id": "slovakia_1", "place_name": "Bratislava", "place_lat": "48.154135", "place_lon": "17.097852", "duration_min": "1170", "duration_max": "1250", "duration_median": "1217", "duration_count": "4"}, {"place_id": "spain_1", "place_name": "Barcelona", "place_lat": "41.37922", "place_lon": "2.140624", "duration_min": "1090", "duration_max": "1225", "duration_median": "1157", "duration_count": "2"}, {"place_id": "spain_44", "place_name": "San Sebastian", "place_lat": "43.317669", "place_lon": "-1.976704", "duration_min": "1000", "duration_max": "1000", "duration_median": "1000", "duration_count": "1"}, {"place_id": "sweden_3", "place_name": "Malmo", "place_lat": "55.609231", "place_lon": "13.00126", "duration_min": "940", "duration_max": "940", "duration_median": "940", "duration_count": "1"}, {"place_id": "switzerland_2", "place_name": "Bern", "place_lat": "46.948834", "place_lon": "7.439131", "duration_min": "535", "duration_max": "630", "duration_median": "566", "duration_count": "3"}, {"place_id": "switzerland_3", "place_name": "Geneva", "place_lat": "46.210209", "place_lon": "6.142455", "duration_min": "775", "duration_max": "775", "duration_median": "775", "duration_count": "1"}, {"place_id": "switzerland_4", "place_name": "Lucerne", "place_lat": "47.050179", "place_lon": "8.310186", "duration_min": "550", "duration_max": "550", "duration_median": "550", "duration_count": "1"}, {"place_id": "switzerland_6", "place_name": "Zurich", "place_lat": "47.378968", "place_lon": "8.540534", "duration_min": "565", "duration_max": "630", "duration_median": "598", "duration_count": "4"}, {"place_id": "uk_1", "place_name": "London", "place_lat": "51.511654", "place_lon": "-0.117493", "duration_min": "112", "duration_max": "540", "duration_median": "459", "duration_count": "10"}]}, {"place_id": "belgium_12", "place_name": "Hasselt", "place_lat": "50.930876", "place_lon": "5.327062", "place_brief_desc": "Home of Belgian Jenever which inspired gin", "place_longer_desc": "Home of Belgian Jenever which inspired gin", "place_image": "./static/images/hasselt.png", "place_tags": "history", "place_links": "./static/cards/hasselt.html", "place_country": "Belgium", "hops": [{"place_id": "belgium_1", "place_name": "Brussels", "place_lat": "50.835375", "place_lon": "4.335695", "duration_min": "70", "duration_max": "95", "duration_median": "85", "duration_count": "4"}, {"place_id": "belgium_2", "place_name": "Bruges", "place_lat": "51.196939", "place_lon": "3.217078", "duration_min": "210", "duration_max": "210", "duration_median": "212", "duration_count": "2"}, {"place_id": "belgium_3", "place_name": "Ghent", "place_lat": "51.035627", "place_lon": "3.710612", "duration_min": "160", "duration_max": "160", "duration_median": "165", "duration_count": "2"}, {"place_id": "belgium_4", "place_name": "Antwerp", "place_lat": "51.215807", "place_lon": "4.421165", "duration_min": "130", "duration_max": "135", "duration_median": "133", "duration_count": "2"}, {"place_id": "belgium_5", "place_name": "Leuven", "place_lat": "50.881543", "place_lon": "4.716146", "duration_min": "45", "duration_max": "45", "duration_median": "45", "duration_count": "2"}, {"place_id": "croatia_1", "place_name": "Zagreb", "place_lat": "45.807411", "place_lon": "15.990291", "duration_min": "1220", "duration_max": "1250", "duration_median": "1237", "duration_count": "2"}, {"place_id": "czechia_1", "place_name": "Prague", "place_lat": "50.081926", "place_lon": "14.451481", "duration_min": "755", "duration_max": "755", "duration_median": "770", "duration_count": "2"}, {"place_id": "Germany_3", "place_name": "Nuremberg", "place_lat": "49.450748", "place_lon": "11.077955", "duration_min": "525", "duration_max": "525", "duration_median": "535", "duration_count": "2"}, {"place_id": "Germany_4", "place_name": "Munich", "place_lat": "48.140364", "place_lon": "11.558744", "duration_min": "655", "duration_max": "655", "duration_median": "655", "duration_count": "2"}, {"place_id": "Germany_9", "place_name": "Aachen", "place_lat": "50.767641", "place_lon": "6.09119", "duration_min": "80", "duration_max": "85", "duration_median": "82", "duration_count": "4"}, {"place_id": "netherlands_8", "place_name": "Maastricht", "place_lat": "50.849811", "place_lon": "5.705876", "duration_min": "42", "duration_max": "58", "duration_median": "52", "duration_count": "6"}]}, {"place_id": "belgium_2", "place_name": "Bruges", "place_lat": "51.196939", "place_lon": "3.217078", "place_brief_desc": "Fairy-tale town with picturesque canals, medieval buildings, and charming squares.", "place_longer_desc": "Often called the Venice of the North, Bruges is a fairy-tale town with picturesque canals, medieval buildings, and charming squares.", "place_image": "./static/images/bruges.png", "place_tags": "history", "place_links": "./static/cards/bruges.html", "place_country": "Belgium", "hops": [{"place_id": "belgium_1", "place_name": "Brussels", "place_lat": "50.835375", "place_lon": "4.335695", "duration_min": "85", "duration_max": "110", "duration_median": "101", "duration_count": "7"}, {"place_id": "belgium_12", "place_name": "Hasselt", "place_lat": "50.930876", "place_lon": "5.327062", "duration_min": "230", "duration_max": "230", "duration_median": "235", "duration_count": "2"}, {"place_id": "belgium_3", "place_name": "Ghent", "place_lat": "51.035627", "place_lon": "3.710612", "duration_min": "40", "duration_max": "50", "duration_median": "44", "duration_count": "7"}, {"place_id": "belgium_4", "place_name": "Antwerp", "place_lat": "51.215807", "place_lon": "4.421165", "duration_min": "80", "duration_max": "150", "duration_median": "114", "duration_count": "4"}, {"place_id": "belgium_5", "place_name": "Leuven", "place_lat": "50.881543", "place_lon": "4.716146", "duration_min": "170", "duration_max": "170", "duration_median": "175", "duration_count": "2"}, {"place_id": "czechia_1", "place_name": "Prague", "place_lat": "50.081926", "place_lon": "14.451481", "duration_min": "1005", "duration_max": "1005", "duration_median": "1015", "duration_count": "2"}, {"place_id": "france_153", "place_name": "Calais", "place_lat": "50.947695", "place_lon": "1.8538", "duration_min": "115", "duration_max": "115", "duration_median": "115", "duration_count": "2"}, {"place_id": "france_155", "place_name": "Lille", "place_lat": "50.64501", "place_lon": "3.082257", "duration_min": "70", "duration_max": "90", "duration_median": "75", "duration_count": "4"}, {"place_id": "france_19", "place_name": "Paris", "place_lat": "48.8404960", "place_lon": "2.36707900", "duration_min": "260", "duration_max": "370", "duration_median": "295", "duration_count": "4"}, {"place_id": "france_6", "place_name": "Rennes", "place_lat": "48.1030710", "place_lon": "-1.6721310", "duration_min": "595", "duration_max": "595", "duration_median": "595", "duration_count": "1"}, {"place_id": "Germany_3", "place_name": "Nuremberg", "place_lat": "49.450748", "place_lon": "11.077955", "duration_min": "775", "duration_max": "775", "duration_median": "780", "duration_count": "2"}, {"place_id": "Germany_9", "place_name": "Aachen", "place_lat": "50.767641", "place_lon": "6.09119", "duration_min": "320", "duration_max": "320", "duration_median": "325", "duration_count": "2"}, {"place_id": "netherlands_2", "place_name": "Rotterdam", "place_lat": "51.924804", "place_lon": "4.468771", "duration_min": "180", "duration_max": "255", "duration_median": "213", "duration_count": "3"}, {"place_id": "netherlands_4", "place_name": "Den Haag", "place_lat": "52.080408", "place_lon": "4.325169", "duration_min": "190", "duration_max": "235", "duration_median": "212", "duration_count": "2"}, {"place_id": "netherlands_8", "place_name": "Maastricht", "place_lat": "50.849811", "place_lon": "5.705876", "duration_min": "285", "duration_max": "285", "duration_median": "290", "duration_count": "2"}, {"place_id": "poland_1", "place_name": "Krakow", "place_lat": "50.069934", "place_lon": "19.940546", "duration_min": "1400", "duration_max": "1400", "duration_median": "1400", "duration_count": "2"}, {"place_id": "poland_3", "place_name": "Wroclaw", "place_lat": "51.098075", "place_lon": "17.037084", "duration_min": "1145", "duration_max": "1145", "duration_median": "1145", "duration_count": "2"}, {"place_id": "uk_1", "place_name": "London", "place_lat": "51.511654", "place_lon": "-0.117493", "duration_min": "395", "duration_max": "410", "duration_median": "415", "duration_count": "2"}]}, {"place_id": "belgium_3", "place_name": "Ghent", "place_lat": "51.035627", "place_lon": "3.710612", "place_brief_desc": "Lively, cultural, steeped in history and less busy than Bruges.", "place_longer_desc": "If Bruges is Venice then this is Verona. It\u2019s lively, cultural, steeped in history and less busy than Bruges. Have a wander around Gravensteen castle, St. Bavo's Cathedral, edgy Graffiti Street or groovy Patershol district. You can also sample some of the local specialties, such as waterzooi stew and cuberdon \u2018noses\u2019 (nose-shaped jelly babies)", "place_image": "./static/images/ghent.png", "place_tags": "history", "place_links": "./static/cards/ghent.html", "place_country": "Belgium", "hops": [{"place_id": "belgium_1", "place_name": "Brussels", "place_lat": "50.835375", "place_lon": "4.335695", "duration_min": "60", "duration_max": "60", "duration_median": "60", "duration_count": "6"}, {"place_id": "belgium_12", "place_name": "Hasselt", "place_lat": "50.930876", "place_lon": "5.327062", "duration_min": "180", "duration_max": "180", "duration_median": "187", "duration_count": "2"}, {"place_id": "belgium_2", "place_name": "Bruges", "place_lat": "51.196939", "place_lon": "3.217078", "duration_min": "40", "duration_max": "55", "duration_median": "45", "duration_count": "6"}, {"place_id": "belgium_4", "place_name": "Antwerp", "place_lat": "51.215807", "place_lon": "4.421165", "duration_min": "50", "duration_max": "70", "duration_median": "63", "duration_count": "9"}, {"place_id": "belgium_5", "place_name": "Leuven", "place_lat": "50.881543", "place_lon": "4.716146", "duration_min": "120", "duration_max": "120", "duration_median": "127", "duration_count": "2"}, {"place_id": "czechia_1", "place_name": "Prague", "place_lat": "50.081926", "place_lon": "14.451481", "duration_min": "960", "duration_max": "960", "duration_median": "967", "duration_count": "2"}, {"place_id": "denmark_1", "place_name": "Copenhagen", "place_lat": "55.688237", "place_lon": "12.578426", "duration_min": "1000", "duration_max": "1000", "duration_median": "1000", "duration_count": "2"}, {"place_id": "denmark_3", "place_name": "Odense", "place_lat": "55.401778", "place_lon": "10.386002", "duration_min": "855", "duration_max": "855", "duration_median": "855", "duration_count": "2"}, {"place_id": "france_153", "place_name": "Calais", "place_lat": "50.947695", "place_lon": "1.8538", "duration_min": "150", "duration_max": "170", "duration_median": "160", "duration_count": "2"}, {"place_id": "france_155", "place_name": "Lille", "place_lat": "50.64501", "place_lon": "3.082257", "duration_min": "55", "duration_max": "100", "duration_median": "69", "duration_count": "7"}, {"place_id": "france_19", "place_name": "Paris", "place_lat": "48.8404960", "place_lon": "2.36707900", "duration_min": "220", "duration_max": "320", "duration_median": "280", "duration_count": "4"}, {"place_id": "Germany_3", "place_name": "Nuremberg", "place_lat": "49.450748", "place_lon": "11.077955", "duration_min": "730", "duration_max": "730", "duration_median": "732", "duration_count": "2"}, {"place_id": "Germany_7", "place_name": "Hamburg", "place_lat": "53.55711", "place_lon": "9.997434", "duration_min": "580", "duration_max": "580", "duration_median": "580", "duration_count": "2"}, {"place_id": "Germany_9", "place_name": "Aachen", "place_lat": "50.767641", "place_lon": "6.09119", "duration_min": "270", "duration_max": "270", "duration_median": "277", "duration_count": "2"}, {"place_id": "netherlands_2", "place_name": "Rotterdam", "place_lat": "51.924804", "place_lon": "4.468771", "duration_min": "125", "duration_max": "160", "duration_median": "153", "duration_count": "7"}, {"place_id": "netherlands_3", "place_name": "Utrecht", "place_lat": "52.089397", "place_lon": "5.109864", "duration_min": "185", "duration_max": "185", "duration_median": "185", "duration_count": "1"}, {"place_id": "netherlands_4", "place_name": "Den Haag", "place_lat": "52.080408", "place_lon": "4.325169", "duration_min": "140", "duration_max": "240", "duration_median": "184", "duration_count": "8"}, {"place_id": "netherlands_8", "place_name": "Maastricht", "place_lat": "50.849811", "place_lon": "5.705876", "duration_min": "235", "duration_max": "235", "duration_median": "242", "duration_count": "2"}, {"place_id": "poland_1", "place_name": "Krakow", "place_lat": "50.069934", "place_lon": "19.940546", "duration_min": "1350", "duration_max": "1350", "duration_median": "1350", "duration_count": "2"}, {"place_id": "poland_2", "place_name": "Warsaw", "place_lat": "52.224729", "place_lon": "21.001417", "duration_min": "1330", "duration_max": "1330", "duration_median": "1330", "duration_count": "2"}, {"place_id": "poland_3", "place_name": "Wroclaw", "place_lat": "51.098075", "place_lon": "17.037084", "duration_min": "1095", "duration_max": "1095", "duration_median": "1095", "duration_count": "2"}, {"place_id": "poland_6", "place_name": "Poznan", "place_lat": "52.410249", "place_lon": "16.905366", "duration_min": "1090", "duration_max": "1090", "duration_median": "1090", "duration_count": "2"}, {"place_id": "uk_1", "place_name": "London", "place_lat": "51.511654", "place_lon": "-0.117493", "duration_min": "430", "duration_max": "465", "duration_median": "465", "duration_count": "2"}]}, {"place_id": "belgium_4", "place_name": "Antwerp", "place_lat": "51.215807", "place_lon": "4.421165", "place_brief_desc": "Hub of fashion, design, and diamonds.", "place_longer_desc": "The second-largest city in Belgium and a major port, Antwerp is a hub of fashion, design, and diamonds. Why not visit the Cathedral of Our Lady or be equally as awestruck by the Centraal Station. The Diamond Museum is worth a nosey, as is the trendy Zuid district. You can also shop for some of the best clothes and jewellery in Europe - apparently (I didn\u2019t notice them last time I was there but \u2026).", "place_image": "./static/images/antwerp.png", "place_tags": "history", "place_links": "./static/cards/antwerp.html", "place_country": "Belgium", "hops": [{"place_id": "austria_1", "place_name": "Vienna", "place_lat": "48.207037", "place_lon": "16.341553", "duration_min": "1225", "duration_max": "1225", "duration_median": "1225", "duration_count": "2"}, {"place_id": "belgium_1", "place_name": "Brussels", "place_lat": "50.835375", "place_lon": "4.335695", "duration_min": "34", "duration_max": "80", "duration_median": "54", "duration_count": "40"}, {"place_id": "belgium_12", "place_name": "Hasselt", "place_lat": "50.930876", "place_lon": "5.327062", "duration_min": "135", "duration_max": "140", "duration_median": "138", "duration_count": "2"}, {"place_id": "belgium_2", "place_name": "Bruges", "place_lat": "51.196939", "place_lon": "3.217078", "duration_min": "75", "duration_max": "160", "duration_median": "120", "duration_count": "4"}, {"place_id": "belgium_3", "place_name": "Ghent", "place_lat": "51.035627", "place_lon": "3.710612", "duration_min": "50", "duration_max": "65", "duration_median": "61", "duration_count": "8"}, {"place_id": "belgium_7", "place_name": "Namur", "place_lat": "50.468983", "place_lon": "4.862499", "duration_min": "165", "duration_max": "165", "duration_median": "165", "duration_count": "1"}, {"place_id": "belgium_9", "place_name": "Mechelen", "place_lat": "51.017505", "place_lon": "4.483469", "duration_min": "12", "duration_max": "12", "duration_median": "14", "duration_count": "2"}, {"place_id": "croatia_1", "place_name": "Zagreb", "place_lat": "45.807411", "place_lon": "15.990291", "duration_min": "1360", "duration_max": "1395", "duration_median": "1380", "duration_count": "2"}, {"place_id": "czechia_1", "place_name": "Prague", "place_lat": "50.081926", "place_lon": "14.451481", "duration_min": "875", "duration_max": "875", "duration_median": "885", "duration_count": "1"}, {"place_id": "france_153", "place_name": "Calais", "place_lat": "50.947695", "place_lon": "1.8538", "duration_min": "170", "duration_max": "305", "duration_median": "230", "duration_count": "4"}, {"place_id": "france_155", "place_name": "Lille", "place_lat": "50.64501", "place_lon": "3.082257", "duration_min": "105", "duration_max": "190", "duration_median": "142", "duration_count": "10"}, {"place_id": "france_162", "place_name": "Strasbourg", "place_lat": "48.585339", "place_lon": "7.734067", "duration_min": "395", "duration_max": "530", "duration_median": "452", "duration_count": "7"}, {"place_id": "france_19", "place_name": "Paris", "place_lat": "48.8404960", "place_lon": "2.36707900", "duration_min": "255", "duration_max": "375", "duration_median": "333", "duration_count": "9"}, {"place_id": "france_93", "place_name": "Lyon", "place_lat": "45.7605960", "place_lon": "4.85940900", "duration_min": "640", "duration_max": "695", "duration_median": "660", "duration_count": "3"}, {"place_id": "Germany_3", "place_name": "Nuremberg", "place_lat": "49.450748", "place_lon": "11.077955", "duration_min": "660", "duration_max": "660", "duration_median": "660", "duration_count": "1"}, {"place_id": "Germany_4", "place_name": "Munich", "place_lat": "48.140364", "place_lon": "11.558744", "duration_min": "795", "duration_max": "860", "duration_median": "817", "duration_count": "6"}, {"place_id": "Germany_6", "place_name": "Freiburg", "place_lat": "47.997974", "place_lon": "7.841344", "duration_min": "545", "duration_max": "545", "duration_median": "545", "duration_count": "2"}, {"place_id": "Germany_7", "place_name": "Hamburg", "place_lat": "53.55711", "place_lon": "9.997434", "duration_min": "605", "duration_max": "605", "duration_median": "605", "duration_count": "1"}, {"place_id": "Germany_8", "place_name": "Heidelberg", "place_lat": "49.403582", "place_lon": "8.67548", "duration_min": "524", "duration_max": "525", "duration_median": "525", "duration_count": "2"}, {"place_id": "Germany_9", "place_name": "Aachen", "place_lat": "50.767641", "place_lon": "6.09119", "duration_min": "170", "duration_max": "250", "duration_median": "210", "duration_count": "7"}, {"place_id": "netherlands_1", "place_name": "Amsterdam", "place_lat": "52.379191", "place_lon": "4.899427", "duration_min": "68", "duration_max": "128", "duration_median": "89", "duration_count": "8"}, {"place_id": "netherlands_2", "place_name": "Rotterdam", "place_lat": "51.924804", "place_lon": "4.468771", "duration_min": "31", "duration_max": "105", "duration_median": "77", "duration_count": "23"}, {"place_id": "netherlands_3", "place_name": "Utrecht", "place_lat": "52.089397", "place_lon": "5.109864", "duration_min": "100", "duration_max": "115", "duration_median": "108", "duration_count": "8"}, {"place_id": "netherlands_4", "place_name": "Den Haag", "place_lat": "52.080408", "place_lon": "4.325169", "duration_min": "110", "duration_max": "145", "duration_median": "136", "duration_count": "8"}, {"place_id": "netherlands_5", "place_name": "Delft", "place_lat": "52.005752", "place_lon": "4.356901", "duration_min": "125", "duration_max": "125", "duration_median": "130", "duration_count": "1"}, {"place_id": "netherlands_8", "place_name": "Maastricht", "place_lat": "50.849811", "place_lon": "5.705876", "duration_min": "190", "duration_max": "195", "duration_median": "193", "duration_count": "2"}, {"place_id": "poland_1", "place_name": "Krakow", "place_lat": "50.069934", "place_lon": "19.940546", "duration_min": "1340", "duration_max": "1340", "duration_median": "1340", "duration_count": "1"}, {"place_id": "poland_2", "place_name": "Warsaw", "place_lat": "52.224729", "place_lon": "21.001417", "duration_min": "1270", "duration_max": "1270", "duration_median": "1270", "duration_count": "1"}, {"place_id": "poland_6", "place_name": "Poznan", "place_lat": "52.410249", "place_lon": "16.905366", "duration_min": "1030", "duration_max": "1030", "duration_median": "1030", "duration_count": "1"}, {"place_id": "romania_3", "place_name": "Sibiu", "place_lat": "45.799977", "place_lon": "24.161575", "duration_min": "1695", "duration_max": "1695", "duration_median": "1695", "duration_count": "2"}, {"place_id": "slovakia_1", "place_name": "Bratislava", "place_lat": "48.154135", "place_lon": "17.097852", "duration_min": "1245", "duration_max": "1325", "duration_median": "1292", "duration_count": "4"}, {"place_id": "switzerland_6", "place_name": "Zurich", "place_lat": "47.378968", "place_lon": "8.540534", "duration_min": "620", "duration_max": "690", "duration_median": "666", "duration_count": "4"}, {"place_id": "uk_1", "place_name": "London", "place_lat": "51.511654", "place_lon": "-0.117493", "duration_min": "480", "duration_max": "600", "duration_median": "552", "duration_count": "4"}]}, {"place_id": "belgium_5", "place_name": "Leuven", "place_lat": "50.881543", "place_lon": "4.716146", "place_brief_desc": "A university town with a youthful vibe, Leuven is a great place to visit for culture and beer lovers.", "place_longer_desc": "A university town with a youthful vibe, Leuven is a great place to visit for culture and beer lovers. You can admire the Town Hall, the majestic University Library, the serene Beguinage, and the Stella Artois brewery. You can also enjoy some of the best nightlife and student atmosphere in Belgium.", "place_image": "./static/images/leuven.png", "place_tags": "history", "place_links": "./static/cards/leuven.html", "place_country": "Belgium", "hops": [{"place_id": "belgium_1", "place_name": "Brussels", "place_lat": "50.835375", "place_lon": "4.335695", "duration_min": "15", "duration_max": "45", "duration_median": "39", "duration_count": "3"}, {"place_id": "belgium_12", "place_name": "Hasselt", "place_lat": "50.930876", "place_lon": "5.327062", "duration_min": "55", "duration_max": "55", "duration_median": "55", "duration_count": "2"}, {"place_id": "belgium_2", "place_name": "Bruges", "place_lat": "51.196939", "place_lon": "3.217078", "duration_min": "160", "duration_max": "160", "duration_median": "162", "duration_count": "2"}, {"place_id": "belgium_3", "place_name": "Ghent", "place_lat": "51.035627", "place_lon": "3.710612", "duration_min": "110", "duration_max": "110", "duration_median": "115", "duration_count": "2"}, {"place_id": "czechia_1", "place_name": "Prague", "place_lat": "50.081926", "place_lon": "14.451481", "duration_min": "820", "duration_max": "820", "duration_median": "835", "duration_count": "2"}, {"place_id": "Germany_3", "place_name": "Nuremberg", "place_lat": "49.450748", "place_lon": "11.077955", "duration_min": "590", "duration_max": "590", "duration_median": "600", "duration_count": "2"}, {"place_id": "Germany_9", "place_name": "Aachen", "place_lat": "50.767641", "place_lon": "6.09119", "duration_min": "145", "duration_max": "145", "duration_median": "145", "duration_count": "2"}, {"place_id": "netherlands_8", "place_name": "Maastricht", "place_lat": "50.849811", "place_lon": "5.705876", "duration_min": "110", "duration_max": "110", "duration_median": "110", "duration_count": "2"}]}, {"place_id": "belgium_7", "place_name": "Namur", "place_lat": "50.468983", "place_lon": "4.862499", "place_brief_desc": "Charming and relaxed city that offers a lot of history and nature.", "place_longer_desc": "The capital of Wallonia and a strategic location at the confluence of two rivers, Namur is a charming and relaxed city that offers a lot of history and nature. You can visit the imposing Citadel, the elegant Saint Aubin's Cathedral, the cosy Old Town, and the scenic Meuse valley.", "place_image": "./static/images/namur.png", "place_tags": "history", "place_links": "./static/cards/namur.html", "place_country": "Belgium", "hops": [{"place_id": "belgium_1", "place_name": "Brussels", "place_lat": "50.835375", "place_lon": "4.335695", "duration_min": "70", "duration_max": "95", "duration_median": "78", "duration_count": "3"}, {"place_id": "belgium_4", "place_name": "Antwerp", "place_lat": "51.215807", "place_lon": "4.421165", "duration_min": "150", "duration_max": "150", "duration_median": "160", "duration_count": "1"}, {"place_id": "france_19", "place_name": "Paris", "place_lat": "48.8404960", "place_lon": "2.36707900", "duration_min": "340", "duration_max": "340", "duration_median": "340", "duration_count": "1"}, {"place_id": "Germany_4", "place_name": "Munich", "place_lat": "48.140364", "place_lon": "11.558744", "duration_min": "650", "duration_max": "650", "duration_median": "650", "duration_count": "2"}, {"place_id": "netherlands_8", "place_name": "Maastricht", "place_lat": "50.849811", "place_lon": "5.705876", "duration_min": "100", "duration_max": "100", "duration_median": "100", "duration_count": "1"}, {"place_id": "romania_3", "place_name": "Sibiu", "place_lat": "45.799977", "place_lon": "24.161575", "duration_min": "1785", "duration_max": "1785", "duration_median": "1785", "duration_count": "2"}, {"place_id": "switzerland_6", "place_name": "Zurich", "place_lat": "47.378968", "place_lon": "8.540534", "duration_min": "495", "duration_max": "495", "duration_median": "495", "duration_count": "1"}]}, {"place_id": "belgium_9", "place_name": "Mechelen", "place_lat": "51.017505", "place_lon": "4.483469", "place_brief_desc": "A hidden gem between Brussels and Antwerp, Mechelen is a small but beautiful city that boasts a rich cultural heritage and a vibrant atmosphere.", "place_longer_desc": "A hidden gem between Brussels and Antwerp, Mechelen is a small but beautiful city that boasts a rich cultural heritage and a vibrant atmosphere. You can visit the magnificent St. Rumbold's Cathedral, the impressive Palace of Margaret of Austria, the fun Toy Museum, and the cosy Grote Markt.", "place_image": "./static/images/mechelen.png", "place_tags": "history", "place_links": "./static/cards/mechelen.html", "place_country": "Belgium", "hops": [{"place_id": "belgium_1", "place_name": "Brussels", "place_lat": "50.835375", "place_lon": "4.335695", "duration_min": "25", "duration_max": "26", "duration_median": "31", "duration_count": "2"}, {"place_id": "belgium_4", "place_name": "Antwerp", "place_lat": "51.215807", "place_lon": "4.421165", "duration_min": "12", "duration_max": "12", "duration_median": "14", "duration_count": "2"}, {"place_id": "netherlands_1", "place_name": "Amsterdam", "place_lat": "52.379191", "place_lon": "4.899427", "duration_min": "130", "duration_max": "148", "duration_median": "140", "duration_count": "2"}, {"place_id": "netherlands_2", "place_name": "Rotterdam", "place_lat": "51.924804", "place_lon": "4.468771", "duration_min": "86", "duration_max": "86", "duration_median": "86", "duration_count": "2"}, {"place_id": "netherlands_3", "place_name": "Utrecht", "place_lat": "52.089397", "place_lon": "5.109864", "duration_min": "130", "duration_max": "130", "duration_median": "130", "duration_count": "1"}]}, {"place_id": "bulgaria_1", "place_name": "Sofia", "place_lat": "42.712209", "place_lon": "23.321039", "place_brief_desc": "Sofia is the capital and largest city of Bulgaria.", "place_longer_desc": "Sofia is the capital and largest city of Bulgaria, and a good starting point for your train journey. Sofia has many historical and cultural sights, such as the Alexander Nevsky Cathedral, the National Palace of Culture, and the Boyana Church. You can also enjoy the lively nightlife, the green parks, and the diverse cuisine of Sofia.", "place_image": "./static/images/sofia.png", "place_tags": "history", "place_links": "./static/cards/sofia.html", "place_country": "Bulgaria", "hops": [{"place_id": "bulgaria_2", "place_name": "Plovdiv", "place_lat": "42.134068", "place_lon": "24.740247", "duration_min": "150", "duration_max": "150", "duration_median": "150", "duration_count": "2"}, {"place_id": "bulgaria_5", "place_name": "Veliko Tarnovo", "place_lat": "43.074106", "place_lon": "25.638071", "duration_min": "190", "duration_max": "190", "duration_median": "190", "duration_count": "1"}, {"place_id": "croatia_1", "place_name": "Zagreb", "place_lat": "45.807411", "place_lon": "15.990291", "duration_min": "760", "duration_max": "760", "duration_median": "760", "duration_count": "2"}, {"place_id": "Germany_4", "place_name": "Munich", "place_lat": "48.140364", "place_lon": "11.558744", "duration_min": "1315", "duration_max": "1315", "duration_median": "1315", "duration_count": "2"}, {"place_id": "greece_5", "place_name": "Thessaloniki", "place_lat": "40.6446", "place_lon": "22.929891", "duration_min": "300", "duration_max": "300", "duration_median": "300", "duration_count": "1"}, {"place_id": "slovenia_1", "place_name": "Ljubljana", "place_lat": "46.058687", "place_lon": "14.51294", "duration_min": "930", "duration_max": "930", "duration_median": "930", "duration_count": "2"}]}, {"place_id": "bulgaria_2", "place_name": "Plovdiv", "place_lat": "42.134068", "place_lon": "24.740247", "place_brief_desc": "Plovdiv is the second-largest city in Bulgaria and one of the oldest cities in Europe.", "place_longer_desc": "Plovdiv is the second-largest city in Bulgaria and one of the oldest cities in Europe. It has a charming old town with colourful houses, cobblestone streets, and Roman ruins. Plovdiv is also known for its artistic and creative vibe, with many galleries, festivals, and events.", "place_image": "./static/images/plovdiv.png", "place_tags": "history", "place_links": "./static/cards/plovdiv.html", "place_country": "Bulgaria", "hops": [{"place_id": "bulgaria_1", "place_name": "Sofia", "place_lat": "42.712209", "place_lon": "23.321039", "duration_min": "150", "duration_max": "150", "duration_median": "150", "duration_count": "2"}, {"place_id": "croatia_1", "place_name": "Zagreb", "place_lat": "45.807411", "place_lon": "15.990291", "duration_min": "925", "duration_max": "925", "duration_median": "925", "duration_count": "2"}, {"place_id": "Germany_4", "place_name": "Munich", "place_lat": "48.140364", "place_lon": "11.558744", "duration_min": "1480", "duration_max": "1480", "duration_median": "1480", "duration_count": "2"}, {"place_id": "slovenia_1", "place_name": "Ljubljana", "place_lat": "46.058687", "place_lon": "14.51294", "duration_min": "1095", "duration_max": "1095", "duration_median": "1095", "duration_count": "2"}]}, {"place_id": "bulgaria_5", "place_name": "Veliko Tarnovo", "place_lat": "43.074106", "place_lon": "25.638071", "place_brief_desc": "Veliko Tarnovo is a picturesque town that was once the capital of the medieval Bulgarian Empire.", "place_longer_desc": "Veliko Tarnovo is a picturesque town that was once the capital of the medieval Bulgarian Empire. It is famous for its stunning hilltop fortress, Tsarevets, which offers panoramic views of the town and the Yantra River. Veliko Tarnovo also has a charming old town with narrow streets, stone houses, and churches.", "place_image": "./static/images/veliko tarnovo.png", "place_tags": "history", "place_links": "./static/cards/veliko tarnovo.html", "place_country": "Bulgaria", "hops": [{"place_id": "bulgaria_1", "place_name": "Sofia", "place_lat": "42.712209", "place_lon": "23.321039", "duration_min": "200", "duration_max": "200", "duration_median": "200", "duration_count": "1"}]}, {"place_id": "croatia_1", "place_name": "Zagreb", "place_lat": "45.807411", "place_lon": "15.990291", "place_brief_desc": "Croatia's capital and largest city, known for its medieval Old Town, Upper Town, and Lower Town.", "place_longer_desc": "Zagreb is a charming city with a lot to offer visitors. The Old Town is home to many well-preserved medieval buildings, including the Zagreb Cathedral and the St. Mark's Church. Visitors can also visit the Upper Town, a hilltop neighborhood with stunning views of the city, and the Lower Town, a lively neighborhood with shops, restaurants, and bars. Zagreb is also a great place to enjoy Croatian cuisine and culture.", "place_image": "./static/images/zagreb.png", "place_tags": "history", "place_links": "./static/cards/zagreb.html", "place_country": "Croatia", "hops": [{"place_id": "austria_1", "place_name": "Vienna", "place_lat": "48.207037", "place_lon": "16.341553", "duration_min": "305", "duration_max": "305", "duration_median": "307", "duration_count": "1"}, {"place_id": "austria_2", "place_name": "Salzburg", "place_lat": "47.813848", "place_lon": "13.045514", "duration_min": "515", "duration_max": "515", "duration_median": "515", "duration_count": "1"}, {"place_id": "austria_3", "place_name": "Graz", "place_lat": "47.072301", "place_lon": "15.416437", "duration_min": "239", "duration_max": "239", "duration_median": "239", "duration_count": "1"}, {"place_id": "austria_4", "place_name": "Innsbruck", "place_lat": "47.263331", "place_lon": "11.400506", "duration_min": "639", "duration_max": "639", "duration_median": "639", "duration_count": "1"}, {"place_id": "belgium_1", "place_name": "Brussels", "place_lat": "50.835375", "place_lon": "4.335695", "duration_min": "1350", "duration_max": "1380", "duration_median": "1368", "duration_count": "2"}, {"place_id": "belgium_12", "place_name": "Hasselt", "place_lat": "50.930876", "place_lon": "5.327062", "duration_min": "1275", "duration_max": "1305", "duration_median": "1293", "duration_count": "2"}, {"place_id": "belgium_4", "place_name": "Antwerp", "place_lat": "51.215807", "place_lon": "4.421165", "duration_min": "1410", "duration_max": "1445", "duration_median": "1430", "duration_count": "2"}, {"place_id": "bulgaria_1", "place_name": "Sofia", "place_lat": "42.712209", "place_lon": "23.321039", "duration_min": "735", "duration_max": "735", "duration_median": "735", "duration_count": "2"}, {"place_id": "bulgaria_2", "place_name": "Plovdiv", "place_lat": "42.134068", "place_lon": "24.740247", "duration_min": "900", "duration_max": "900", "duration_median": "900", "duration_count": "2"}, {"place_id": "croatia_2", "place_name": "Split", "place_lat": "43.504887", "place_lon": "16.44279", "duration_min": "270", "duration_max": "420", "duration_median": "324", "duration_count": "12"}, {"place_id": "czechia_1", "place_name": "Prague", "place_lat": "50.081926", "place_lon": "14.451481", "duration_min": "590", "duration_max": "600", "duration_median": "603", "duration_count": "5"}, {"place_id": "czechia_5", "place_name": "Brno", "place_lat": "49.190537", "place_lon": "16.612776", "duration_min": "450", "duration_max": "530", "duration_median": "485", "duration_count": "3"}, {"place_id": "france_105", "place_name": "Marseille", "place_lat": "43.3030300", "place_lon": "5.38055500", "duration_min": "1120", "duration_max": "1120", "duration_median": "1120", "duration_count": "1"}, {"place_id": "france_162", "place_name": "Strasbourg", "place_lat": "48.585339", "place_lon": "7.734067", "duration_min": "860", "duration_max": "875", "duration_median": "869", "duration_count": "2"}, {"place_id": "france_19", "place_name": "Paris", "place_lat": "48.8404960", "place_lon": "2.36707900", "duration_min": "1225", "duration_max": "1320", "duration_median": "1262", "duration_count": "3"}, {"place_id": "france_93", "place_name": "Lyon", "place_lat": "45.7605960", "place_lon": "4.85940900", "duration_min": "990", "duration_max": "1225", "duration_median": "1107", "duration_count": "2"}, {"place_id": "Germany_2", "place_name": "Dresden", "place_lat": "51.040221", "place_lon": "13.731409", "duration_min": "710", "duration_max": "710", "duration_median": "731", "duration_count": "2"}, {"place_id": "Germany_3", "place_name": "Nuremberg", "place_lat": "49.450748", "place_lon": "11.077955", "duration_min": "570", "duration_max": "710", "duration_median": "651", "duration_count": "6"}, {"place_id": "Germany_4", "place_name": "Munich", "place_lat": "48.140364", "place_lon": "11.558744", "duration_min": "470", "duration_max": "610", "duration_median": "531", "duration_count": "20"}, {"place_id": "Germany_6", "place_name": "Freiburg", "place_lat": "47.997974", "place_lon": "7.841344", "duration_min": "880", "duration_max": "895", "duration_median": "888", "duration_count": "2"}, {"place_id": "Germany_7", "place_name": "Hamburg", "place_lat": "53.55711", "place_lon": "9.997434", "duration_min": "1265", "duration_max": "1265", "duration_median": "1265", "duration_count": "2"}, {"place_id": "Germany_9", "place_name": "Aachen", "place_lat": "50.767641", "place_lon": "6.09119", "duration_min": "1185", "duration_max": "1215", "duration_median": "1203", "duration_count": "2"}, {"place_id": "hungary_1", "place_name": "Budapest", "place_lat": "47.519551", "place_lon": "19.054084", "duration_min": "350", "duration_max": "381", "duration_median": "365", "duration_count": "2"}, {"place_id": "italy_1", "place_name": "Venice", "place_lat": "45.444427", "place_lon": "12.315491", "duration_min": "385", "duration_max": "445", "duration_median": "421", "duration_count": "3"}, {"place_id": "italy_3", "place_name": "Florence", "place_lat": "43.765835", "place_lon": "11.249928", "duration_min": "725", "duration_max": "725", "duration_median": "725", "duration_count": "1"}, {"place_id": "italy_5", "place_name": "Naples", "place_lat": "40.860791", "place_lon": "14.257611", "duration_min": "1065", "duration_max": "1065", "duration_median": "1065", "duration_count": "1"}, {"place_id": "italy_8", "place_name": "Turin", "place_lat": "45.067428", "place_lon": "7.672976", "duration_min": "705", "duration_max": "725", "duration_median": "717", "duration_count": "2"}, {"place_id": "netherlands_2", "place_name": "Rotterdam", "place_lat": "51.924804", "place_lon": "4.468771", "duration_min": "1370", "duration_max": "1370", "duration_median": "1370", "duration_count": "2"}, {"place_id": "netherlands_4", "place_name": "Den Haag", "place_lat": "52.080408", "place_lon": "4.325169", "duration_min": "1405", "duration_max": "1405", "duration_median": "1405", "duration_count": "2"}, {"place_id": "netherlands_8", "place_name": "Maastricht", "place_lat": "50.849811", "place_lon": "5.705876", "duration_min": "1225", "duration_max": "1255", "duration_median": "1243", "duration_count": "2"}, {"place_id": "poland_1", "place_name": "Krakow", "place_lat": "50.069934", "place_lon": "19.940546", "duration_min": "755", "duration_max": "815", "duration_median": "785", "duration_count": "5"}, {"place_id": "poland_2", "place_name": "Warsaw", "place_lat": "52.224729", "place_lon": "21.001417", "duration_min": "975", "duration_max": "1080", "duration_median": "1040", "duration_count": "3"}, {"place_id": "slovakia_1", "place_name": "Bratislava", "place_lat": "48.154135", "place_lon": "17.097852", "duration_min": "360", "duration_max": "415", "duration_median": "388", "duration_count": "4"}, {"place_id": "slovakia_2", "place_name": "Kosice", "place_lat": "48.722918", "place_lon": "21.268721", "duration_min": "505", "duration_max": "520", "duration_median": "512", "duration_count": "2"}, {"place_id": "slovakia_3", "place_name": "Banska Bystrica", "place_lat": "48.734658", "place_lon": "19.163006", "duration_min": "525", "duration_max": "561", "duration_median": "543", "duration_count": "2"}, {"place_id": "slovenia_1", "place_name": "Ljubljana", "place_lat": "46.058687", "place_lon": "14.51294", "duration_min": "115", "duration_max": "175", "duration_median": "152", "duration_count": "26"}, {"place_id": "switzerland_2", "place_name": "Bern", "place_lat": "46.948834", "place_lon": "7.439131", "duration_min": "890", "duration_max": "890", "duration_median": "890", "duration_count": "1"}, {"place_id": "switzerland_3", "place_name": "Geneva", "place_lat": "46.210209", "place_lon": "6.142455", "duration_min": "1080", "duration_max": "1080", "duration_median": "1080", "duration_count": "1"}, {"place_id": "switzerland_6", "place_name": "Zurich", "place_lat": "47.378968", "place_lon": "8.540534", "duration_min": "775", "duration_max": "775", "duration_median": "775", "duration_count": "1"}]}, {"place_id": "croatia_2", "place_name": "Split", "place_lat": "43.504887", "place_lon": "16.44279", "place_brief_desc": "Croatia's second-largest city and a popular tourist destination, known for its Diocletian's Palace, Riva waterfront, and Marjan Hill.", "place_longer_desc": "Split is a beautiful city with a lot to offer visitors. Diocletian's Palace is a UNESCO World Heritage Site and one of the most popular tourist attractions in Croatia. Visitors can also visit the Riva waterfront, a lively promenade with shops, restaurants, and bars, and Marjan Hill, a hill with stunning views of the city and the Adriatic Sea. Split is also a great place to enjoy Croatian cuisine and culture.", "place_image": "./static/images/split.png", "place_tags": "history", "place_links": "./static/cards/split.html", "place_country": "Croatia", "hops": [{"place_id": "croatia_1", "place_name": "Zagreb", "place_lat": "45.807411", "place_lon": "15.990291", "duration_min": "285", "duration_max": "435", "duration_median": "323", "duration_count": "14"}, {"place_id": "czechia_1", "place_name": "Prague", "place_lat": "50.081926", "place_lon": "14.451481", "duration_min": "980", "duration_max": "980", "duration_median": "985", "duration_count": "1"}, {"place_id": "czechia_5", "place_name": "Brno", "place_lat": "49.190537", "place_lon": "16.612776", "duration_min": "880", "duration_max": "880", "duration_median": "880", "duration_count": "1"}, {"place_id": "Germany_4", "place_name": "Munich", "place_lat": "48.140364", "place_lon": "11.558744", "duration_min": "905", "duration_max": "915", "duration_median": "911", "duration_count": "4"}, {"place_id": "poland_1", "place_name": "Krakow", "place_lat": "50.069934", "place_lon": "19.940546", "duration_min": "1115", "duration_max": "1160", "duration_median": "1137", "duration_count": "2"}, {"place_id": "poland_2", "place_name": "Warsaw", "place_lat": "52.224729", "place_lon": "21.001417", "duration_min": "1380", "duration_max": "1380", "duration_median": "1380", "duration_count": "1"}, {"place_id": "slovakia_1", "place_name": "Bratislava", "place_lat": "48.154135", "place_lon": "17.097852", "duration_min": "705", "duration_max": "765", "duration_median": "735", "duration_count": "2"}, {"place_id": "slovakia_2", "place_name": "Kosice", "place_lat": "48.722918", "place_lon": "21.268721", "duration_min": "820", "duration_max": "820", "duration_median": "820", "duration_count": "1"}, {"place_id": "slovenia_1", "place_name": "Ljubljana", "place_lat": "46.058687", "place_lon": "14.51294", "duration_min": "491", "duration_max": "551", "duration_median": "525", "duration_count": "5"}, {"place_id": "slovenia_2", "place_name": "Bled", "place_lat": "46.368302", "place_lon": "14.082303", "duration_min": "573", "duration_max": "573", "duration_median": "579", "duration_count": "2"}]}, {"place_id": "czechia_1", "place_name": "Prague", "place_lat": "50.081926", "place_lon": "14.451481", "place_brief_desc": "A must-see destination for anyone visiting the country.", "place_longer_desc": "The capital and largest city of the Czech Republic, Prague is a must-see destination for anyone visiting the country. Prague has a stunning old town, a majestic castle, a famous astronomical clock, and many other attractions. You can easily reach Prague by train from any major city in Europe.", "place_image": "./static/images/prague.png", "place_tags": "history", "place_links": "./static/cards/prague.html", "place_country": "Czechia", "hops": [{"place_id": "austria_4", "place_name": "Innsbruck", "place_lat": "47.263331", "place_lon": "11.400506", "duration_min": "450", "duration_max": "450", "duration_median": "450", "duration_count": "2"}, {"place_id": "belgium_1", "place_name": "Brussels", "place_lat": "50.835375", "place_lon": "4.335695", "duration_min": "835", "duration_max": "890", "duration_median": "871", "duration_count": "4"}, {"place_id": "belgium_12", "place_name": "Hasselt", "place_lat": "50.930876", "place_lon": "5.327062", "duration_min": "775", "duration_max": "775", "duration_median": "787", "duration_count": "2"}, {"place_id": "belgium_2", "place_name": "Bruges", "place_lat": "51.196939", "place_lon": "3.217078", "duration_min": "1000", "duration_max": "1000", "duration_median": "1010", "duration_count": "2"}, {"place_id": "belgium_3", "place_name": "Ghent", "place_lat": "51.035627", "place_lon": "3.710612", "duration_min": "955", "duration_max": "955", "duration_median": "962", "duration_count": "2"}, {"place_id": "belgium_4", "place_name": "Antwerp", "place_lat": "51.215807", "place_lon": "4.421165", "duration_min": "900", "duration_max": "900", "duration_median": "910", "duration_count": "1"}, {"place_id": "belgium_5", "place_name": "Leuven", "place_lat": "50.881543", "place_lon": "4.716146", "duration_min": "830", "duration_max": "830", "duration_median": "842", "duration_count": "2"}, {"place_id": "croatia_1", "place_name": "Zagreb", "place_lat": "45.807411", "place_lon": "15.990291", "duration_min": "545", "duration_max": "575", "duration_median": "577", "duration_count": "5"}, {"place_id": "croatia_2", "place_name": "Split", "place_lat": "43.504887", "place_lon": "16.44279", "duration_min": "965", "duration_max": "965", "duration_median": "970", "duration_count": "1"}, {"place_id": "czechia_10", "place_name": "Ceske Budejovice", "place_lat": "48.974616", "place_lon": "14.48875", "duration_min": "100", "duration_max": "155", "duration_median": "129", "duration_count": "7"}, {"place_id": "czechia_2", "place_name": "Cesky Krumlov", "place_lat": "48.822429", "place_lon": "14.317299", "duration_min": "145", "duration_max": "185", "duration_median": "169", "duration_count": "4"}, {"place_id": "czechia_3", "place_name": "Karlovy Vary", "place_lat": "50.235668", "place_lon": "12.866854", "duration_min": "95", "duration_max": "100", "duration_median": "110", "duration_count": "3"}, {"place_id": "czechia_5", "place_name": "Brno", "place_lat": "49.190537", "place_lon": "16.612776", "duration_min": "140", "duration_max": "180", "duration_median": "161", "duration_count": "25"}, {"place_id": "czechia_6", "place_name": "Pilsen", "place_lat": "49.746889", "place_lon": "13.377351", "duration_min": "67", "duration_max": "100", "duration_median": "90", "duration_count": "13"}, {"place_id": "czechia_7", "place_name": "Olomouc", "place_lat": "49.593128", "place_lon": "17.277932", "duration_min": "220", "duration_max": "270", "duration_median": "239", "duration_count": "10"}, {"place_id": "czechia_9", "place_name": "Liberec", "place_lat": "50.761429", "place_lon": "15.045947", "duration_min": "90", "duration_max": "105", "duration_median": "100", "duration_count": "6"}, {"place_id": "denmark_1", "place_name": "Copenhagen", "place_lat": "55.688237", "place_lon": "12.578426", "duration_min": "780", "duration_max": "840", "duration_median": "816", "duration_count": "8"}, {"place_id": "estonia_1", "place_name": "Tallinn", "place_lat": "59.437296", "place_lon": "24.744777", "duration_min": "1740", "duration_max": "1800", "duration_median": "1770", "duration_count": "2"}, {"place_id": "france_123", "place_name": "Montpellier", "place_lat": "43.6047800", "place_lon": "3.88116800", "duration_min": "1200", "duration_max": "1285", "duration_median": "1251", "duration_count": "4"}, {"place_id": "france_127", "place_name": "Narbonne", "place_lat": "43.1906640", "place_lon": "3.00556200", "duration_min": "1300", "duration_max": "1340", "duration_median": "1323", "duration_count": "2"}, {"place_id": "france_155", "place_name": "Lille", "place_lat": "50.64501", "place_lon": "3.082257", "duration_min": "1065", "duration_max": "1065", "duration_median": "1065", "duration_count": "2"}, {"place_id": "france_162", "place_name": "Strasbourg", "place_lat": "48.585339", "place_lon": "7.734067", "duration_min": "575", "duration_max": "730", "duration_median": "633", "duration_count": "6"}, {"place_id": "france_19", "place_name": "Paris", "place_lat": "48.8404960", "place_lon": "2.36707900", "duration_min": "775", "duration_max": "1245", "duration_median": "964", "duration_count": "6"}, {"place_id": "france_93", "place_name": "Lyon", "place_lat": "45.7605960", "place_lon": "4.85940900", "duration_min": "875", "duration_max": "1000", "duration_median": "943", "duration_count": "4"}, {"place_id": "Germany_1", "place_name": "Berlin", "place_lat": "52.520501", "place_lon": "13.386988", "duration_min": "280", "duration_max": "295", "duration_median": "293", "duration_count": "6"}, {"place_id": "Germany_2", "place_name": "Dresden", "place_lat": "51.040221", "place_lon": "13.731409", "duration_min": "109", "duration_max": "115", "duration_median": "113", "duration_count": "33"}, {"place_id": "Germany_3", "place_name": "Nuremberg", "place_lat": "49.450748", "place_lon": "11.077955", "duration_min": "195", "duration_max": "400", "duration_median": "240", "duration_count": "22"}, {"place_id": "Germany_4", "place_name": "Munich", "place_lat": "48.140364", "place_lon": "11.558744", "duration_min": "285", "duration_max": "335", "duration_median": "312", "duration_count": "10"}, {"place_id": "Germany_6", "place_name": "Freiburg", "place_lat": "47.997974", "place_lon": "7.841344", "duration_min": "475", "duration_max": "710", "duration_median": "601", "duration_count": "8"}, {"place_id": "Germany_7", "place_name": "Hamburg", "place_lat": "53.55711", "place_lon": "9.997434", "duration_min": "545", "duration_max": "655", "duration_median": "608", "duration_count": "8"}, {"place_id": "Germany_8", "place_name": "Heidelberg", "place_lat": "49.403582", "place_lon": "8.67548", "duration_min": "394", "duration_max": "400", "duration_median": "423", "duration_count": "2"}, {"place_id": "Germany_9", "place_name": "Aachen", "place_lat": "50.767641", "place_lon": "6.09119", "duration_min": "685", "duration_max": "695", "duration_median": "703", "duration_count": "4"}, {"place_id": "hungary_6", "place_name": "Szeged", "place_lat": "46.23981", "place_lon": "20.143181", "duration_min": "555", "duration_max": "595", "duration_median": "574", "duration_count": "3"}, {"place_id": "hungary_7", "place_name": "Gyor", "place_lat": "47.681986", "place_lon": "17.634795", "duration_min": "325", "duration_max": "325", "duration_median": "330", "duration_count": "2"}, {"place_id": "italy_1", "place_name": "Venice", "place_lat": "45.444427", "place_lon": "12.315491", "duration_min": "795", "duration_max": "795", "duration_median": "795", "duration_count": "1"}, {"place_id": "lithuania_1", "place_name": "Vilnius", "place_lat": "54.670236", "place_lon": "25.282908", "duration_min": "1180", "duration_max": "1240", "duration_median": "1227", "duration_count": "2"}, {"place_id": "netherlands_2", "place_name": "Rotterdam", "place_lat": "51.924804", "place_lon": "4.468771", "duration_min": "980", "duration_max": "980", "duration_median": "990", "duration_count": "2"}, {"place_id": "netherlands_3", "place_name": "Utrecht", "place_lat": "52.089397", "place_lon": "5.109864", "duration_min": "890", "duration_max": "890", "duration_median": "890", "duration_count": "2"}, {"place_id": "netherlands_4", "place_name": "Den Haag", "place_lat": "52.080408", "place_lon": "4.325169", "duration_min": "1015", "duration_max": "1015", "duration_median": "1025", "duration_count": "2"}, {"place_id": "netherlands_8", "place_name": "Maastricht", "place_lat": "50.849811", "place_lon": "5.705876", "duration_min": "725", "duration_max": "725", "duration_median": "737", "duration_count": "2"}, {"place_id": "norway_2", "place_name": "Oslo", "place_lat": "59.909527", "place_lon": "10.781842", "duration_min": "1355", "duration_max": "1355", "duration_median": "1355", "duration_count": "3"}, {"place_id": "poland_1", "place_name": "Krakow", "place_lat": "50.069934", "place_lon": "19.940546", "duration_min": "440", "duration_max": "530", "duration_median": "485", "duration_count": "13"}, {"place_id": "poland_2", "place_name": "Warsaw", "place_lat": "52.224729", "place_lon": "21.001417", "duration_min": "520", "duration_max": "665", "duration_median": "609", "duration_count": "8"}, {"place_id": "poland_3", "place_name": "Wroclaw", "place_lat": "51.098075", "place_lon": "17.037084", "duration_min": "245", "duration_max": "335", "duration_median": "286", "duration_count": "12"}, {"place_id": "poland_4", "place_name": "Gdansk", "place_lat": "54.365843", "place_lon": "18.64396", "duration_min": "725", "duration_max": "725", "duration_median": "725", "duration_count": "1"}, {"place_id": "poland_6", "place_name": "Poznan", "place_lat": "52.410249", "place_lon": "16.905366", "duration_min": "430", "duration_max": "490", "duration_median": "463", "duration_count": "3"}, {"place_id": "romania_3", "place_name": "Sibiu", "place_lat": "45.799977", "place_lon": "24.161575", "duration_min": "1005", "duration_max": "1005", "duration_median": "1005", "duration_count": "2"}, {"place_id": "slovakia_1", "place_name": "Bratislava", "place_lat": "48.154135", "place_lon": "17.097852", "duration_min": "249", "duration_max": "265", "duration_median": "268", "duration_count": "5"}, {"place_id": "slovakia_2", "place_name": "Kosice", "place_lat": "48.722918", "place_lon": "21.268721", "duration_min": "610", "duration_max": "735", "duration_median": "674", "duration_count": "2"}, {"place_id": "slovakia_3", "place_name": "Banska Bystrica", "place_lat": "48.734658", "place_lon": "19.163006", "duration_min": "520", "duration_max": "520", "duration_median": "520", "duration_count": "1"}, {"place_id": "slovakia_4", "place_name": "Zilina", "place_lat": "49.227043", "place_lon": "18.746006", "duration_min": "370", "duration_max": "370", "duration_median": "373", "duration_count": "1"}, {"place_id": "slovenia_1", "place_name": "Ljubljana", "place_lat": "46.058687", "place_lon": "14.51294", "duration_min": "570", "duration_max": "607", "duration_median": "585", "duration_count": "4"}, {"place_id": "slovenia_2", "place_name": "Bled", "place_lat": "46.368302", "place_lon": "14.082303", "duration_min": "516", "duration_max": "516", "duration_median": "516", "duration_count": "2"}, {"place_id": "spain_1", "place_name": "Barcelona", "place_lat": "41.37922", "place_lon": "2.140624", "duration_min": "1500", "duration_max": "1520", "duration_median": "1511", "duration_count": "2"}, {"place_id": "sweden_1", "place_name": "Stockholm", "place_lat": "59.330963", "place_lon": "18.066134", "duration_min": "1405", "duration_max": "1405", "duration_median": "1408", "duration_count": "3"}, {"place_id": "sweden_3", "place_name": "Malmo", "place_lat": "55.609231", "place_lon": "13.00126", "duration_min": "890", "duration_max": "920", "duration_median": "906", "duration_count": "6"}, {"place_id": "sweden_5", "place_name": "Linkoping", "place_lat": "58.416014", "place_lon": "15.626677", "duration_min": "1250", "duration_max": "1250", "duration_median": "1251", "duration_count": "3"}, {"place_id": "switzerland_2", "place_name": "Bern", "place_lat": "46.948834", "place_lon": "7.439131", "duration_min": "640", "duration_max": "640", "duration_median": "646", "duration_count": "2"}, {"place_id": "switzerland_3", "place_name": "Geneva", "place_lat": "46.210209", "place_lon": "6.142455", "duration_min": "785", "duration_max": "785", "duration_median": "791", "duration_count": "2"}, {"place_id": "switzerland_6", "place_name": "Zurich", "place_lat": "47.378968", "place_lon": "8.540534", "duration_min": "590", "duration_max": "680", "duration_median": "643", "duration_count": "6"}]}, {"place_id": "czechia_10", "place_name": "Ceske Budejovice", "place_lat": "48.974616", "place_lon": "14.48875", "place_brief_desc": "A city in Southern Bohemia, Ceske Budejovice - original home of Budweiser is another place where you can take civilised strolls around the town in a mild fug of beer fumes.", "place_longer_desc": "A city in Southern Bohemia, Ceske Budejovice - original home of Budweiser is another place where you can take civilised strolls around the town in a mild fug of beer fumes.", "place_image": "./static/images/ceske budejovice.png", "place_tags": "history", "place_links": "./static/cards/ceske budejovice.html", "place_country": "Czechia", "hops": [{"place_id": "czechia_1", "place_name": "Prague", "place_lat": "50.081926", "place_lon": "14.451481", "duration_min": "102", "duration_max": "155", "duration_median": "131", "duration_count": "7"}, {"place_id": "czechia_2", "place_name": "Cesky Krumlov", "place_lat": "48.822429", "place_lon": "14.317299", "duration_min": "25", "duration_max": "25", "duration_median": "25", "duration_count": "6"}, {"place_id": "czechia_5", "place_name": "Brno", "place_lat": "49.190537", "place_lon": "16.612776", "duration_min": "220", "duration_max": "220", "duration_median": "220", "duration_count": "2"}, {"place_id": "czechia_8", "place_name": "Telc", "place_lat": "49.1826", "place_lon": "15.464278", "duration_min": "105", "duration_max": "105", "duration_median": "105", "duration_count": "2"}, {"place_id": "czechia_9", "place_name": "Liberec", "place_lat": "50.761429", "place_lon": "15.045947", "duration_min": "235", "duration_max": "235", "duration_median": "240", "duration_count": "1"}, {"place_id": "Germany_2", "place_name": "Dresden", "place_lat": "51.040221", "place_lon": "13.731409", "duration_min": "270", "duration_max": "270", "duration_median": "282", "duration_count": "2"}, {"place_id": "Germany_4", "place_name": "Munich", "place_lat": "48.140364", "place_lon": "11.558744", "duration_min": "360", "duration_max": "365", "duration_median": "363", "duration_count": "2"}, {"place_id": "italy_1", "place_name": "Venice", "place_lat": "45.444427", "place_lon": "12.315491", "duration_min": "660", "duration_max": "660", "duration_median": "660", "duration_count": "1"}, {"place_id": "slovenia_1", "place_name": "Ljubljana", "place_lat": "46.058687", "place_lon": "14.51294", "duration_min": "447", "duration_max": "448", "duration_median": "447", "duration_count": "3"}, {"place_id": "slovenia_2", "place_name": "Bled", "place_lat": "46.368302", "place_lon": "14.082303", "duration_min": "386", "duration_max": "386", "duration_median": "386", "duration_count": "2"}]}, {"place_id": "czechia_2", "place_name": "Cesky Krumlov", "place_lat": "48.822429", "place_lon": "14.317299", "place_brief_desc": "Picturesque town surrounded by a meandering river and a medieval castle.", "place_longer_desc": "A UNESCO World Heritage Site, Cesky Krumlov is a picturesque town in the south of the country, surrounded by a meandering river and a medieval castle. The town has a charming atmosphere, with cobblestone streets, colorful houses, and cozy cafes.", "place_image": "./static/images/cesky krumlov.png", "place_tags": "history", "place_links": "./static/cards/cesky krumlov.html", "place_country": "Czechia", "hops": [{"place_id": "czechia_1", "place_name": "Prague", "place_lat": "50.081926", "place_lon": "14.451481", "duration_min": "155", "duration_max": "185", "duration_median": "169", "duration_count": "4"}, {"place_id": "czechia_10", "place_name": "Ceske Budejovice", "place_lat": "48.974616", "place_lon": "14.48875", "duration_min": "25", "duration_max": "30", "duration_median": "27", "duration_count": "6"}, {"place_id": "czechia_5", "place_name": "Brno", "place_lat": "49.190537", "place_lon": "16.612776", "duration_min": "255", "duration_max": "255", "duration_median": "255", "duration_count": "2"}, {"place_id": "czechia_8", "place_name": "Telc", "place_lat": "49.1826", "place_lon": "15.464278", "duration_min": "140", "duration_max": "140", "duration_median": "140", "duration_count": "2"}, {"place_id": "czechia_9", "place_name": "Liberec", "place_lat": "50.761429", "place_lon": "15.045947", "duration_min": "265", "duration_max": "265", "duration_median": "270", "duration_count": "1"}, {"place_id": "Germany_4", "place_name": "Munich", "place_lat": "48.140364", "place_lon": "11.558744", "duration_min": "330", "duration_max": "335", "duration_median": "333", "duration_count": "2"}, {"place_id": "italy_1", "place_name": "Venice", "place_lat": "45.444427", "place_lon": "12.315491", "duration_min": "630", "duration_max": "630", "duration_median": "630", "duration_count": "1"}, {"place_id": "slovenia_1", "place_name": "Ljubljana", "place_lat": "46.058687", "place_lon": "14.51294", "duration_min": "412", "duration_max": "412", "duration_median": "412", "duration_count": "1"}]}, {"place_id": "czechia_3", "place_name": "Karlovy Vary", "place_lat": "50.235668", "place_lon": "12.866854", "place_brief_desc": "Famous for its mineral springs, elegant buildings, and film festival.", "place_longer_desc": "A spa town in the west of the country, Karlovy Vary is famous for its mineral springs, elegant buildings, and film festival. You can relax in one of the many thermal baths, enjoy a walk along the colonnades, or visit the glass museum. You can take a direct train from Prague to Karlovy Vary in about two hours.", "place_image": "./static/images/karlovy vary.png", "place_tags": "history", "place_links": "./static/cards/karlovy vary.html", "place_country": "Czechia", "hops": [{"place_id": "czechia_1", "place_name": "Prague", "place_lat": "50.081926", "place_lon": "14.451481", "duration_min": "95", "duration_max": "95", "duration_median": "107", "duration_count": "3"}]}, {"place_id": "czechia_5", "place_name": "Brno", "place_lat": "49.190537", "place_lon": "16.612776", "place_brief_desc": "The second largest city and the cultural hub of the Czech Republic.", "place_longer_desc": "The second largest city and the cultural hub of the Czech Republic, Brno is located in the southeast of the country. Brno has a vibrant nightlife, a modern art scene, and a variety of museums and galleries. You can also visit the nearby Moravian Karst, a natural wonder with caves and gorges. You can take a direct train from Prague to Brno in about two and a half hours.", "place_image": "./static/images/brno.png", "place_tags": "history", "place_links": "./static/cards/brno.html", "place_country": "Czechia", "hops": [{"place_id": "austria_1", "place_name": "Vienna", "place_lat": "48.207037", "place_lon": "16.341553", "duration_min": "95", "duration_max": "115", "duration_median": "117", "duration_count": "2"}, {"place_id": "croatia_1", "place_name": "Zagreb", "place_lat": "45.807411", "place_lon": "15.990291", "duration_min": "430", "duration_max": "490", "duration_median": "461", "duration_count": "3"}, {"place_id": "croatia_2", "place_name": "Split", "place_lat": "43.504887", "place_lon": "16.44279", "duration_min": "880", "duration_max": "880", "duration_median": "880", "duration_count": "1"}, {"place_id": "czechia_1", "place_name": "Prague", "place_lat": "50.081926", "place_lon": "14.451481", "duration_min": "145", "duration_max": "180", "duration_median": "161", "duration_count": "26"}, {"place_id": "czechia_10", "place_name": "Ceske Budejovice", "place_lat": "48.974616", "place_lon": "14.48875", "duration_min": "220", "duration_max": "220", "duration_median": "222", "duration_count": "2"}, {"place_id": "czechia_2", "place_name": "Cesky Krumlov", "place_lat": "48.822429", "place_lon": "14.317299", "duration_min": "250", "duration_max": "250", "duration_median": "252", "duration_count": "2"}, {"place_id": "czechia_6", "place_name": "Pilsen", "place_lat": "49.746889", "place_lon": "13.377351", "duration_min": "236", "duration_max": "280", "duration_median": "258", "duration_count": "4"}, {"place_id": "czechia_7", "place_name": "Olomouc", "place_lat": "49.593128", "place_lon": "17.277932", "duration_min": "60", "duration_max": "70", "duration_median": "64", "duration_count": "18"}, {"place_id": "czechia_8", "place_name": "Telc", "place_lat": "49.1826", "place_lon": "15.464278", "duration_min": "105", "duration_max": "105", "duration_median": "105", "duration_count": "2"}, {"place_id": "czechia_9", "place_name": "Liberec", "place_lat": "50.761429", "place_lon": "15.045947", "duration_min": "285", "duration_max": "285", "duration_median": "285", "duration_count": "2"}, {"place_id": "estonia_1", "place_name": "Tallinn", "place_lat": "59.437296", "place_lon": "24.744777", "duration_min": "1570", "duration_max": "1630", "duration_median": "1600", "duration_count": "2"}, {"place_id": "france_161", "place_name": "Nice", "place_lat": "43.704825", "place_lon": "7.261765", "duration_min": "1165", "duration_max": "1165", "duration_median": "1165", "duration_count": "1"}, {"place_id": "france_19", "place_name": "Paris", "place_lat": "48.8404960", "place_lon": "2.36707900", "duration_min": "990", "duration_max": "990", "duration_median": "990", "duration_count": "2"}, {"place_id": "Germany_2", "place_name": "Dresden", "place_lat": "51.040221", "place_lon": "13.731409", "duration_min": "260", "duration_max": "440", "duration_median": "316", "duration_count": "8"}, {"place_id": "Germany_3", "place_name": "Nuremberg", "place_lat": "49.450748", "place_lon": "11.077955", "duration_min": "410", "duration_max": "410", "duration_median": "410", "duration_count": "2"}, {"place_id": "Germany_4", "place_name": "Munich", "place_lat": "48.140364", "place_lon": "11.558744", "duration_min": "445", "duration_max": "590", "duration_median": "507", "duration_count": "6"}, {"place_id": "Germany_7", "place_name": "Hamburg", "place_lat": "53.55711", "place_lon": "9.997434", "duration_min": "760", "duration_max": "805", "duration_median": "787", "duration_count": "4"}, {"place_id": "hungary_6", "place_name": "Szeged", "place_lat": "46.23981", "place_lon": "20.143181", "duration_min": "395", "duration_max": "395", "duration_median": "395", "duration_count": "2"}, {"place_id": "hungary_7", "place_name": "Gyor", "place_lat": "47.681986", "place_lon": "17.634795", "duration_min": "170", "duration_max": "230", "duration_median": "196", "duration_count": "3"}, {"place_id": "lithuania_1", "place_name": "Vilnius", "place_lat": "54.670236", "place_lon": "25.282908", "duration_min": "1010", "duration_max": "1070", "duration_median": "1057", "duration_count": "2"}, {"place_id": "poland_1", "place_name": "Krakow", "place_lat": "50.069934", "place_lon": "19.940546", "duration_min": "275", "duration_max": "330", "duration_median": "303", "duration_count": "12"}, {"place_id": "poland_2", "place_name": "Warsaw", "place_lat": "52.224729", "place_lon": "21.001417", "duration_min": "435", "duration_max": "495", "duration_median": "480", "duration_count": "4"}, {"place_id": "poland_3", "place_name": "Wroclaw", "place_lat": "51.098075", "place_lon": "17.037084", "duration_min": "260", "duration_max": "330", "duration_median": "290", "duration_count": "4"}, {"place_id": "poland_4", "place_name": "Gdansk", "place_lat": "54.365843", "place_lon": "18.64396", "duration_min": "685", "duration_max": "740", "duration_median": "721", "duration_count": "3"}, {"place_id": "poland_6", "place_name": "Poznan", "place_lat": "52.410249", "place_lon": "16.905366", "duration_min": "420", "duration_max": "465", "duration_median": "450", "duration_count": "3"}, {"place_id": "romania_3", "place_name": "Sibiu", "place_lat": "45.799977", "place_lon": "24.161575", "duration_min": "836", "duration_max": "836", "duration_median": "836", "duration_count": "2"}, {"place_id": "slovakia_1", "place_name": "Bratislava", "place_lat": "48.154135", "place_lon": "17.097852", "duration_min": "92", "duration_max": "195", "duration_median": "119", "duration_count": "10"}, {"place_id": "slovakia_2", "place_name": "Kosice", "place_lat": "48.722918", "place_lon": "21.268721", "duration_min": "435", "duration_max": "570", "duration_median": "505", "duration_count": "2"}, {"place_id": "slovakia_3", "place_name": "Banska Bystrica", "place_lat": "48.734658", "place_lon": "19.163006", "duration_min": "355", "duration_max": "355", "duration_median": "357", "duration_count": "1"}, {"place_id": "slovakia_4", "place_name": "Zilina", "place_lat": "49.227043", "place_lon": "18.746006", "duration_min": "195", "duration_max": "195", "duration_median": "198", "duration_count": "1"}, {"place_id": "slovenia_1", "place_name": "Ljubljana", "place_lat": "46.058687", "place_lon": "14.51294", "duration_min": "455", "duration_max": "460", "duration_median": "457", "duration_count": "2"}]}, {"place_id": "czechia_6", "place_name": "Pilsen", "place_lat": "49.746889", "place_lon": "13.377351", "place_brief_desc": "A city in Western Bohemia that attracts beer lovers from all over the world.", "place_longer_desc": "The birthplace of the famous Pilsner beer, Pilsen is a city in Western Bohemia that attracts beer lovers from all over the world. You can visit the Pilsner Urquell brewery, the largest brewery museum in Europe, and taste some of the best beers in the world. You can also explore the historical center of Pilsen, with its Gothic cathedral and Renaissance town hall. You can take a direct train from Prague to Pilsen in about an hour and a half.", "place_image": "./static/images/pilsen.png", "place_tags": "history", "place_links": "./static/cards/pilsen.html", "place_country": "Czechia", "hops": [{"place_id": "czechia_1", "place_name": "Prague", "place_lat": "50.081926", "place_lon": "14.451481", "duration_min": "69", "duration_max": "90", "duration_median": "89", "duration_count": "13"}, {"place_id": "czechia_5", "place_name": "Brno", "place_lat": "49.190537", "place_lon": "16.612776", "duration_min": "240", "duration_max": "270", "duration_median": "254", "duration_count": "4"}, {"place_id": "czechia_7", "place_name": "Olomouc", "place_lat": "49.593128", "place_lon": "17.277932", "duration_min": "310", "duration_max": "310", "duration_median": "310", "duration_count": "2"}, {"place_id": "france_123", "place_name": "Montpellier", "place_lat": "43.6047800", "place_lon": "3.88116800", "duration_min": "1195", "duration_max": "1195", "duration_median": "1195", "duration_count": "2"}, {"place_id": "france_162", "place_name": "Strasbourg", "place_lat": "48.585339", "place_lon": "7.734067", "duration_min": "485", "duration_max": "495", "duration_median": "490", "duration_count": "4"}, {"place_id": "france_93", "place_name": "Lyon", "place_lat": "45.7605960", "place_lon": "4.85940900", "duration_min": "910", "duration_max": "910", "duration_median": "910", "duration_count": "2"}, {"place_id": "Germany_3", "place_name": "Nuremberg", "place_lat": "49.450748", "place_lon": "11.077955", "duration_min": "135", "duration_max": "175", "duration_median": "151", "duration_count": "6"}, {"place_id": "Germany_4", "place_name": "Munich", "place_lat": "48.140364", "place_lon": "11.558744", "duration_min": "245", "duration_max": "280", "duration_median": "262", "duration_count": "4"}, {"place_id": "poland_1", "place_name": "Krakow", "place_lat": "50.069934", "place_lon": "19.940546", "duration_min": "555", "duration_max": "595", "duration_median": "575", "duration_count": "4"}, {"place_id": "slovakia_2", "place_name": "Kosice", "place_lat": "48.722918", "place_lon": "21.268721", "duration_min": "715", "duration_max": "715", "duration_median": "721", "duration_count": "1"}, {"place_id": "slovakia_4", "place_name": "Zilina", "place_lat": "49.227043", "place_lon": "18.746006", "duration_min": "475", "duration_max": "475", "duration_median": "481", "duration_count": "1"}]},