{"place_id": "sweden_3", "place_name": "Malmo", "place_lat": "55.609231", "place_lon": "13.00126", "place_brief_desc": "Sweden's third-largest city, located in the south of the country.", "place_longer_desc": "Sweden's third-largest city, located in the south of the country.", "place_image": "./static/images/malmo.png", "place_tags": "history", "place_links": "./static/cards/malmo.html", "place_country": "Sweden", "hops": [{"place_id": "belgium_1", "place_name": "Brussels", "place_lat": "50.835375", "place_lon": "4.335695", "duration_min": "885", "duration_max": "885", "duration_median": "885", "duration_count": "1"}, {"place_id": "czechia_1", "place_name": "Prague", "place_lat": "50.081926", "place_lon": "14.451481", "duration_min": "880", "duration_max": "880", "duration_median": "880", "duration_count": "3"}, {"place_id": "denmark_1", "place_name": "Copenhagen", "place_lat": "55.688237", "place_lon": "12.578426", "duration_min": "24", "duration_max": "70", "duration_median": "55", "duration_count": "31"}, {"place_id": "denmark_3", "place_name": "Odense", "place_lat": "55.401778", "place_lon": "10.386002", "duration_min": "122", "duration_max": "122", "duration_median": "165", "duration_count": "1"}, {"place_id": "denmark_5", "place_name": "Aarhus", "place_lat": "56.150076", "place_lon": "10.204995", "duration_min": "265", "duration_max": "265", "duration_median": "273", "duration_count": "1"}, {"place_id": "france_19", "place_name": "Paris", "place_lat": "48.8404960", "place_lon": "2.36707900", "duration_min": "1200", "duration_max": "1200", "duration_median": "1200", "duration_count": "1"}, {"place_id": "Germany_1", "place_name": "Berlin", "place_lat": "52.520501", "place_lon": "13.386988", "duration_min": "575", "duration_max": "622", "duration_median": "642", "duration_count": "2"}, {"place_id": "Germany_10", "place_name": "Lubeck", "place_lat": "53.86767", "place_lon": "10.669737", "duration_min": "345", "duration_max": "350", "duration_median": "346", "duration_count": "8"}, {"place_id": "Germany_2", "place_name": "Dresden", "place_lat": "51.040221", "place_lon": "13.731409", "duration_min": "820", "duration_max": "820", "duration_median": "820", "duration_count": "1"}, {"place_id": "Germany_7", "place_name": "Hamburg", "place_lat": "53.55711", "place_lon": "9.997434", "duration_min": "370", "duration_max": "515", "duration_median": "425", "duration_count": "13"}, {"place_id": "norway_2", "place_name": "Oslo", "place_lat": "59.909527", "place_lon": "10.781842", "duration_min": "365", "duration_max": "460", "duration_median": "441", "duration_count": "13"}, {"place_id": "poland_1", "place_name": "Krakow", "place_lat": "50.069934", "place_lon": "19.940546", "duration_min": "1065", "duration_max": "1065", "duration_median": "1065", "duration_count": "2"}, {"place_id": "poland_3", "place_name": "Wroclaw", "place_lat": "51.098075", "place_lon": "17.037084", "duration_min": "835", "duration_max": "835", "duration_median": "835", "duration_count": "2"}, {"place_id": "sweden_1", "place_name": "Stockholm", "place_lat": "59.330963", "place_lon": "18.066134", "duration_min": "261", "duration_max": "515", "duration_median": "427", "duration_count": "11"}, {"place_id": "sweden_5", "place_name": "Linkoping", "place_lat": "58.416014", "place_lon": "15.626677", "duration_min": "161", "duration_max": "360", "duration_median": "277", "duration_count": "11"}]}