{
	"austria_1": {
		"place_id": "austria_1",
		"place_name": "Vienna",
		"place_lat": "48.207037",
		"place_lon": "16.341553",
		"place_brief_desc": "Something for everyone, from art and music to architecture and cuisine.",
		"place_longer_desc": "The capital of Austria is a must-see for any visitor. Vienna has something for everyone, from art and music to architecture and cuisine. You can admire the majestic Sch\u00f6nbrunn Palace, the former residence of the Habsburgs, or visit the Belvedere Palace, which houses the largest collection of Gustav Klimt's paintings. You can also enjoy the green spaces of Vienna, such as the Prater park or the Gardens of Mirabell Palace.",
		"place_image": "./static/images/vienna.png",
		"place_tags": "history",
		"place_links": "./static/places/vienna.html",
		"place_country": "Austria"
	},
	"austria_2": {
		"place_id": "austria_2",
		"place_name": "Salzburg",
		"place_lat": "47.813848",
		"place_lon": "13.045514",
		"place_brief_desc": "The birthplace of Mozart and the setting of The Sound of Music.",
		"place_longer_desc": "The birthplace of Mozart and the setting of The Sound of Music, Salzburg is a charming city with a baroque flair. You can explore the historic Old Town, which is a UNESCO World Heritage Site, or visit the Hohensalzburg Fortress, which offers panoramic views of the city and the surrounding mountains. You can also take a day trip to the nearby Salzkammergut region, where you can enjoy the crystal-clear lakes and picturesque villages.",
		"place_image": "./static/images/salzburg.png",
		"place_tags": "history",
		"place_links": "./static/places/salzburg.html",
		"place_country": "Austria",
		"hops": [{
			"place_id": "Germany_1",
			"place_name": "Berlin",
			"place_lat": "52.520501",
			"place_lon": "13.386988",
			"duration_min": "503.0",
			"duration_max": "503.0",
			"duration_median": "503.0",
			"duration_count": "1"
		},
		{
			"place_id": "Germany_3",
			"place_name": "Nuremberg",
			"place_lat": "49.450748",
			"place_lon": "11.077955",
			"duration_min": "162.0",
			"duration_max": "200.0",
			"duration_median": "181.0",
			"duration_count": "2"
		},
		{
			"place_id": "Germany_4",
			"place_name": "Munich",
			"place_lat": "48.140364",
			"place_lon": "11.558744",
			"duration_min": "41.0",
			"duration_max": "173.0",
			"duration_median": "110.5",
			"duration_count": "148"
		},
		{
			"place_id": "Germany_5",
			"place_name": "Cologne",
			"place_lat": "50.941312",
			"place_lon": "6.967206",
			"duration_min": "462.0",
			"duration_max": "484.0",
			"duration_median": "463.0",
			"duration_count": "10"
		},
		{
			"place_id": "Germany_8",
			"place_name": "Heidelberg",
			"place_lat": "49.403582",
			"place_lon": "8.67548",
			"duration_min": "284.0",
			"duration_max": "301.0",
			"duration_median": "284.0",
			"duration_count": "21"
		},
		{
			"place_id": "austria_3",
			"place_name": "Graz",
			"place_lat": "47.072301",
			"place_lon": "15.416437",
			"duration_min": "238.0",
			"duration_max": "245.0",
			"duration_median": "245.0",
			"duration_count": "7"
		},
		{
			"place_id": "austria_4",
			"place_name": "Innsbruck",
			"place_lat": "47.263331",
			"place_lon": "11.400506",
			"duration_min": "108.0",
			"duration_max": "224.0",
			"duration_median": "166.0",
			"duration_count": "4"
		},
		{
			"place_id": "austria_5",
			"place_name": "Bregenz",
			"place_lat": "47.503001",
			"place_lon": "9.739623",
			"duration_min": "261.0",
			"duration_max": "377.0",
			"duration_median": "319.0",
			"duration_count": "2"
		},
		{
			"place_id": "italy_1",
			"place_name": "Venice",
			"place_lat": "45.444427",
			"place_lon": "12.315491",
			"duration_min": "364.0",
			"duration_max": "364.0",
			"duration_median": "364.0",
			"duration_count": "8"
		},
		{
			"place_id": "italy_3",
			"place_name": "Florence",
			"place_lat": "43.765835",
			"place_lon": "11.249928",
			"duration_min": "496.0",
			"duration_max": "534.0",
			"duration_median": "506.5",
			"duration_count": "12"
		},
		{
			"place_id": "italy_4",
			"place_name": "Rome",
			"place_lat": "41.901868",
			"place_lon": "12.470654",
			"duration_min": "668.0",
			"duration_max": "722.0",
			"duration_median": "668.0",
			"duration_count": "12"
		}]
	},
	"austria_3": {
		"place_id": "austria_3",
		"place_name": "Graz",
		"place_lat": "47.072301",
		"place_lon": "15.416437",
		"place_brief_desc": "A mix of old and new with medieval buildings and modern architecture.",
		"place_longer_desc": "The second-largest city in Austria, Graz is a mix of old and new. You can marvel at the medieval buildings and monuments in the Old Town, such as the Styrian Armoury or the Clock Tower, or admire the modern architecture and design of the Kunsthaus or the Murinsel. Graz is also known for its culinary delights, especially its pumpkin seed oil and chocolate. The train journey from Vienna to Graz takes you through the Semmering railway, a spectacular UNESCO World Heritage Site that showcases the engineering and landscape of Austria.",
		"place_image": "./static/images/graz.png",
		"place_tags": "history",
		"place_links": "./static/places/graz.html",
		"place_country": "Austria",
		"hops": [{
			"place_id": "austria_2",
			"place_name": "Salzburg",
			"place_lat": "47.813848",
			"place_lon": "13.045514",
			"duration_min": "239.0",
			"duration_max": "245.0",
			"duration_median": "245.0",
			"duration_count": "9"
		},
		{
			"place_id": "poland_3",
			"place_name": "Wroclaw",
			"place_lat": "51.098075",
			"place_lon": "17.037084",
			"duration_min": "588.0",
			"duration_max": "673.0",
			"duration_median": "673.0",
			"duration_count": "8"
		}]
	},
	"austria_4": {
		"place_id": "austria_4",
		"place_name": "Innsbruck",
		"place_lat": "47.263331",
		"place_lon": "11.400506",
		"place_brief_desc": "The capital of Tyrol, Innsbruck is a paradise for outdoor enthusiasts and winter sports lovers.",
		"place_longer_desc": "The capital of Tyrol, Innsbruck is a paradise for outdoor enthusiasts and winter sports lovers. You can ski or snowboard on the slopes of the Nordkette mountain range, or hike and bike in the summer. You can also visit the Golden Roof, the landmark of Innsbruck that was built by Emperor Maximilian I, or enjoy the cultural attractions of the city, such as the Hofburg palace or the Tyrolean Folk Art Museum.",
		"place_image": "./static/images/innsbruck.png",
		"place_tags": "history",
		"place_links": "./static/places/innsbruck.html",
		"place_country": "Austria",
		"hops": [{
			"place_id": "Germany_4",
			"place_name": "Munich",
			"place_lat": "48.140364",
			"place_lon": "11.558744",
			"duration_min": "135.0",
			"duration_max": "160.0",
			"duration_median": "145.0",
			"duration_count": "24"
		},
		{
			"place_id": "austria_2",
			"place_name": "Salzburg",
			"place_lat": "47.813848",
			"place_lon": "13.045514",
			"duration_min": "108.0",
			"duration_max": "108.0",
			"duration_median": "108.0",
			"duration_count": "1"
		},
		{
			"place_id": "austria_5",
			"place_name": "Bregenz",
			"place_lat": "47.503001",
			"place_lon": "9.739623",
			"duration_min": "150.0",
			"duration_max": "175.0",
			"duration_median": "171.0",
			"duration_count": "12"
		},
		{
			"place_id": "czechia_1",
			"place_name": "Prague",
			"place_lat": "50.081926",
			"place_lon": "14.451481",
			"duration_min": "460.0",
			"duration_max": "460.0",
			"duration_median": "460.0",
			"duration_count": "1"
		},
		{
			"place_id": "italy_1",
			"place_name": "Venice",
			"place_lat": "45.444427",
			"place_lon": "12.315491",
			"duration_min": "345.0",
			"duration_max": "345.0",
			"duration_median": "345.0",
			"duration_count": "1"
		},
		{
			"place_id": "italy_5",
			"place_name": "Naples",
			"place_lat": "40.860791",
			"place_lon": "14.257611",
			"duration_min": "730.0",
			"duration_max": "730.0",
			"duration_median": "730.0",
			"duration_count": "1"
		}]
	},
	"austria_5": {
		"place_id": "austria_5",
		"place_name": "Bregenz",
		"place_lat": "47.503001",
		"place_lon": "9.739623",
		"place_brief_desc": "Scenic city on the shores of Lake Constance.",
		"place_longer_desc": "The capital of Vorarlberg, Bregenz is a scenic city on the shores of Lake Constance. You can enjoy the lake views and activities, such as swimming, boating, or cycling along the shore. You can also visit the Bregenz Festival, which features opera performances on a floating stage on the lake every summer. Bregenz is also close to some of the most beautiful alpine regions in Austria, such as the Bregenzerwald or the Arlberg.",
		"place_image": "./static/images/bregenz.png",
		"place_tags": "history",
		"place_links": "./static/places/bregenz.html",
		"place_country": "Austria",
		"hops": [{
			"place_id": "Germany_4",
			"place_name": "Munich",
			"place_lat": "48.140364",
			"place_lon": "11.558744",
			"duration_min": "150.0",
			"duration_max": "195.0",
			"duration_median": "160.0",
			"duration_count": "6"
		},
		{
			"place_id": "austria_2",
			"place_name": "Salzburg",
			"place_lat": "47.813848",
			"place_lon": "13.045514",
			"duration_min": "262.0",
			"duration_max": "262.0",
			"duration_median": "262.0",
			"duration_count": "1"
		},
		{
			"place_id": "austria_4",
			"place_name": "Innsbruck",
			"place_lat": "47.263331",
			"place_lon": "11.400506",
			"duration_min": "151.0",
			"duration_max": "179.0",
			"duration_median": "179.0",
			"duration_count": "5"
		},
		{
			"place_id": "france_93",
			"place_name": "Lyon",
			"place_lat": "45.7605960",
			"place_lon": "4.85940900",
			"duration_min": "525.0",
			"duration_max": "545.0",
			"duration_median": "535.0",
			"duration_count": "2"
		},
		{
			"place_id": "switzerland_2",
			"place_name": "Bern",
			"place_lat": "46.948834",
			"place_lon": "7.439131",
			"duration_min": "220.0",
			"duration_max": "225.0",
			"duration_median": "222.5",
			"duration_count": "2"
		},
		{
			"place_id": "switzerland_3",
			"place_name": "Geneva",
			"place_lat": "46.210209",
			"place_lon": "6.142455",
			"duration_min": "380.0",
			"duration_max": "395.0",
			"duration_median": "387.5",
			"duration_count": "2"
		},
		{
			"place_id": "switzerland_6",
			"place_name": "Zurich",
			"place_lat": "47.378968",
			"place_lon": "8.540534",
			"duration_min": "120.0",
			"duration_max": "120.0",
			"duration_median": "120.0",
			"duration_count": "2"
		}]
	},
	"belgium_1": {
		"place_id": "belgium_1",
		"place_name": "Brussels",
		"place_lat": "50.835375",
		"place_lon": "4.335695",
		"place_brief_desc": "Fill your tummy in some of the best chocolate, waffles, fries, and beer in the world.",
		"place_longer_desc": "As the capital of Belgium and the European Union, Brussels is the place where decisions get made - or at least talk about getting made and you can find out more about that with a wander over to the Parlamentarium. Alternatively, why not take a stroll to the Grand Place, the iconic Atomium, or the colourful Comic Strip Museum via the Manneken Pis. You can also fill your tummy in some of the best chocolate, waffles, fries, and beer in the world.",
		"place_image": "./static/images/brussels.png",
		"place_tags": "history",
		"place_links": "./static/places/brussels.html",
		"place_country": "Belgium",
		"hops": [{
			"place_id": "Germany_3",
			"place_name": "Nuremberg",
			"place_lat": "49.450748",
			"place_lon": "11.077955",
			"duration_min": "650.0",
			"duration_max": "660.0",
			"duration_median": "655.0",
			"duration_count": "2"
		},
		{
			"place_id": "Germany_5",
			"place_name": "Cologne",
			"place_lat": "50.941312",
			"place_lon": "6.967206",
			"duration_min": "109.0",
			"duration_max": "200.0",
			"duration_median": "110.0",
			"duration_count": "74"
		},
		{
			"place_id": "Germany_7",
			"place_name": "Hamburg",
			"place_lat": "53.55711",
			"place_lon": "9.997434",
			"duration_min": "505.0",
			"duration_max": "505.0",
			"duration_median": "505.0",
			"duration_count": "1"
		},
		{
			"place_id": "Germany_9",
			"place_name": "Aachen",
			"place_lat": "50.767641",
			"place_lon": "6.09119",
			"duration_min": "69.0",
			"duration_max": "205.0",
			"duration_median": "71.0",
			"duration_count": "96"
		},
		{
			"place_id": "belgium_12",
			"place_name": "Hasselt",
			"place_lat": "50.930876",
			"place_lon": "5.327062",
			"duration_min": "105.0",
			"duration_max": "115.0",
			"duration_median": "110.0",
			"duration_count": "2"
		},
		{
			"place_id": "belgium_2",
			"place_name": "Bruges",
			"place_lat": "51.196939",
			"place_lon": "3.217078",
			"duration_min": "100.0",
			"duration_max": "105.0",
			"duration_median": "102.5",
			"duration_count": "2"
		},
		{
			"place_id": "belgium_3",
			"place_name": "Ghent",
			"place_lat": "51.035627",
			"place_lon": "3.710612",
			"duration_min": "55.0",
			"duration_max": "55.0",
			"duration_median": "55.0",
			"duration_count": "2"
		},
		{
			"place_id": "belgium_5",
			"place_name": "Leuven",
			"place_lat": "50.881543",
			"place_lon": "4.716146",
			"duration_min": "45.0",
			"duration_max": "55.0",
			"duration_median": "50.0",
			"duration_count": "2"
		},
		{
			"place_id": "czechia_1",
			"place_name": "Prague",
			"place_lat": "50.081926",
			"place_lon": "14.451481",
			"duration_min": "880.0",
			"duration_max": "900.0",
			"duration_median": "890.0",
			"duration_count": "2"
		},
		{
			"place_id": "france_15",
			"place_name": "Saintes",
			"place_lat": "45.7488860",
			"place_lon": "-0.6173560",
			"duration_min": "780.0",
			"duration_max": "780.0",
			"duration_median": "780.0",
			"duration_count": "1"
		},
		{
			"place_id": "france_155",
			"place_name": "Lille",
			"place_lat": "50.64501",
			"place_lon": "3.082257",
			"duration_min": "145.0",
			"duration_max": "145.0",
			"duration_median": "145.0",
			"duration_count": "1"
		},
		{
			"place_id": "france_19",
			"place_name": "Paris",
			"place_lat": "48.8404960",
			"place_lon": "2.36707900",
			"duration_min": "225.0",
			"duration_max": "325.0",
			"duration_median": "265.0",
			"duration_count": "5"
		},
		{
			"place_id": "netherlands_8",
			"place_name": "Maastricht",
			"place_lat": "50.849811",
			"place_lon": "5.705876",
			"duration_min": "90.0",
			"duration_max": "170.0",
			"duration_median": "160.0",
			"duration_count": "3"
		}]
	},
	"belgium_11": {
		"place_id": "belgium_11",
		"place_name": "Spa",
		"place_lat": "50.490081",
		"place_lon": "5.855501",
		"place_brief_desc": "The spiritual home of the spa break",
		"place_longer_desc": "The spiritual home of the spa break",
		"place_image": "./static/images/spa.png",
		"place_tags": "history",
		"place_links": "./static/places/spa.html",
		"place_country": "Belgium"
	},
	"belgium_12": {
		"place_id": "belgium_12",
		"place_name": "Hasselt",
		"place_lat": "50.930876",
		"place_lon": "5.327062",
		"place_brief_desc": "Home of Belgian Jenever which inspired gin",
		"place_longer_desc": "Home of Belgian Jenever which inspired gin",
		"place_image": "./static/images/hasselt.png",
		"place_tags": "history",
		"place_links": "./static/places/hasselt.html",
		"place_country": "Belgium",
		"hops": [{
			"place_id": "Germany_3",
			"place_name": "Nuremberg",
			"place_lat": "49.450748",
			"place_lon": "11.077955",
			"duration_min": "525.0",
			"duration_max": "545.0",
			"duration_median": "535.0",
			"duration_count": "2"
		},
		{
			"place_id": "Germany_4",
			"place_name": "Munich",
			"place_lat": "48.140364",
			"place_lon": "11.558744",
			"duration_min": "655.0",
			"duration_max": "655.0",
			"duration_median": "655.0",
			"duration_count": "1"
		},
		{
			"place_id": "Germany_9",
			"place_name": "Aachen",
			"place_lat": "50.767641",
			"place_lon": "6.09119",
			"duration_min": "80.0",
			"duration_max": "85.0",
			"duration_median": "80.0",
			"duration_count": "3"
		},
		{
			"place_id": "belgium_1",
			"place_name": "Brussels",
			"place_lat": "50.835375",
			"place_lon": "4.335695",
			"duration_min": "95.0",
			"duration_max": "105.0",
			"duration_median": "100.0",
			"duration_count": "2"
		},
		{
			"place_id": "belgium_2",
			"place_name": "Bruges",
			"place_lat": "51.196939",
			"place_lon": "3.217078",
			"duration_min": "210.0",
			"duration_max": "215.0",
			"duration_median": "212.5",
			"duration_count": "2"
		},
		{
			"place_id": "belgium_3",
			"place_name": "Ghent",
			"place_lat": "51.035627",
			"place_lon": "3.710612",
			"duration_min": "160.0",
			"duration_max": "170.0",
			"duration_median": "165.0",
			"duration_count": "2"
		},
		{
			"place_id": "belgium_4",
			"place_name": "Antwerp",
			"place_lat": "51.215807",
			"place_lon": "4.421165",
			"duration_min": "135.0",
			"duration_max": "135.0",
			"duration_median": "135.0",
			"duration_count": "1"
		},
		{
			"place_id": "belgium_5",
			"place_name": "Leuven",
			"place_lat": "50.881543",
			"place_lon": "4.716146",
			"duration_min": "45.0",
			"duration_max": "45.0",
			"duration_median": "45.0",
			"duration_count": "2"
		},
		{
			"place_id": "croatia_1",
			"place_name": "Zagreb",
			"place_lat": "45.807411",
			"place_lon": "15.990291",
			"duration_min": "1250.0",
			"duration_max": "1250.0",
			"duration_median": "1250.0",
			"duration_count": "1"
		},
		{
			"place_id": "czechia_1",
			"place_name": "Prague",
			"place_lat": "50.081926",
			"place_lon": "14.451481",
			"duration_min": "755.0",
			"duration_max": "785.0",
			"duration_median": "770.0",
			"duration_count": "2"
		},
		{
			"place_id": "netherlands_8",
			"place_name": "Maastricht",
			"place_lat": "50.849811",
			"place_lon": "5.705876",
			"duration_min": "45.0",
			"duration_max": "50.0",
			"duration_median": "45.0",
			"duration_count": "3"
		}]
	},
	"belgium_2": {
		"place_id": "belgium_2",
		"place_name": "Bruges",
		"place_lat": "51.196939",
		"place_lon": "3.217078",
		"place_brief_desc": "Fairy-tale town with picturesque canals, medieval buildings, and charming squares.",
		"place_longer_desc": "Often called the Venice of the North, Bruges is a fairy-tale town with picturesque canals, medieval buildings, and charming squares.",
		"place_image": "./static/images/bruges.png",
		"place_tags": "history",
		"place_links": "./static/places/bruges.html",
		"place_country": "Belgium",
		"hops": [{
			"place_id": "Germany_3",
			"place_name": "Nuremberg",
			"place_lat": "49.450748",
			"place_lon": "11.077955",
			"duration_min": "775.0",
			"duration_max": "785.0",
			"duration_median": "780.0",
			"duration_count": "2"
		},
		{
			"place_id": "Germany_9",
			"place_name": "Aachen",
			"place_lat": "50.767641",
			"place_lon": "6.09119",
			"duration_min": "320.0",
			"duration_max": "330.0",
			"duration_median": "325.0",
			"duration_count": "2"
		},
		{
			"place_id": "belgium_1",
			"place_name": "Brussels",
			"place_lat": "50.835375",
			"place_lon": "4.335695",
			"duration_min": "110.0",
			"duration_max": "110.0",
			"duration_median": "110.0",
			"duration_count": "2"
		},
		{
			"place_id": "belgium_12",
			"place_name": "Hasselt",
			"place_lat": "50.930876",
			"place_lon": "5.327062",
			"duration_min": "230.0",
			"duration_max": "240.0",
			"duration_median": "235.0",
			"duration_count": "2"
		},
		{
			"place_id": "belgium_3",
			"place_name": "Ghent",
			"place_lat": "51.035627",
			"place_lon": "3.710612",
			"duration_min": "40.0",
			"duration_max": "45.0",
			"duration_median": "45.0",
			"duration_count": "3"
		},
		{
			"place_id": "belgium_5",
			"place_name": "Leuven",
			"place_lat": "50.881543",
			"place_lon": "4.716146",
			"duration_min": "170.0",
			"duration_max": "180.0",
			"duration_median": "175.0",
			"duration_count": "2"
		},
		{
			"place_id": "czechia_1",
			"place_name": "Prague",
			"place_lat": "50.081926",
			"place_lon": "14.451481",
			"duration_min": "1005.0",
			"duration_max": "1025.0",
			"duration_median": "1015.0",
			"duration_count": "2"
		},
		{
			"place_id": "netherlands_8",
			"place_name": "Maastricht",
			"place_lat": "50.849811",
			"place_lon": "5.705876",
			"duration_min": "285.0",
			"duration_max": "295.0",
			"duration_median": "290.0",
			"duration_count": "2"
		},
		{
			"place_id": "poland_1",
			"place_name": "Krakow",
			"place_lat": "50.069934",
			"place_lon": "19.940546",
			"duration_min": "1400.0",
			"duration_max": "1400.0",
			"duration_median": "1400.0",
			"duration_count": "1"
		},
		{
			"place_id": "poland_3",
			"place_name": "Wroclaw",
			"place_lat": "51.098075",
			"place_lon": "17.037084",
			"duration_min": "1145.0",
			"duration_max": "1145.0",
			"duration_median": "1145.0",
			"duration_count": "1"
		}]
	},
	"belgium_3": {
		"place_id": "belgium_3",
		"place_name": "Ghent",
		"place_lat": "51.035627",
		"place_lon": "3.710612",
		"place_brief_desc": "Lively, cultural, steeped in history and less busy than Bruges.",
		"place_longer_desc": "If Bruges is Venice then this is Verona. It\u2019s lively, cultural, steeped in history and less busy than Bruges. Have a wander around Gravensteen castle, St. Bavo's Cathedral, edgy Graffiti Street or groovy Patershol district. You can also sample some of the local specialties, such as waterzooi stew and cuberdon \u2018noses\u2019 (nose-shaped jelly babies)",
		"place_image": "./static/images/ghent.png",
		"place_tags": "history",
		"place_links": "./static/places/ghent.html",
		"place_country": "Belgium",
		"hops": [{
			"place_id": "Germany_3",
			"place_name": "Nuremberg",
			"place_lat": "49.450748",
			"place_lon": "11.077955",
			"duration_min": "730.0",
			"duration_max": "735.0",
			"duration_median": "732.5",
			"duration_count": "2"
		},
		{
			"place_id": "Germany_7",
			"place_name": "Hamburg",
			"place_lat": "53.55711",
			"place_lon": "9.997434",
			"duration_min": "580.0",
			"duration_max": "580.0",
			"duration_median": "580.0",
			"duration_count": "1"
		},
		{
			"place_id": "Germany_9",
			"place_name": "Aachen",
			"place_lat": "50.767641",
			"place_lon": "6.09119",
			"duration_min": "270.0",
			"duration_max": "285.0",
			"duration_median": "277.5",
			"duration_count": "2"
		},
		{
			"place_id": "belgium_1",
			"place_name": "Brussels",
			"place_lat": "50.835375",
			"place_lon": "4.335695",
			"duration_min": "60.0",
			"duration_max": "65.0",
			"duration_median": "62.5",
			"duration_count": "2"
		},
		{
			"place_id": "belgium_12",
			"place_name": "Hasselt",
			"place_lat": "50.930876",
			"place_lon": "5.327062",
			"duration_min": "180.0",
			"duration_max": "195.0",
			"duration_median": "187.5",
			"duration_count": "2"
		},
		{
			"place_id": "belgium_2",
			"place_name": "Bruges",
			"place_lat": "51.196939",
			"place_lon": "3.217078",
			"duration_min": "40.0",
			"duration_max": "45.0",
			"duration_median": "45.0",
			"duration_count": "3"
		},
		{
			"place_id": "belgium_4",
			"place_name": "Antwerp",
			"place_lat": "51.215807",
			"place_lon": "4.421165",
			"duration_min": "70.0",
			"duration_max": "70.0",
			"duration_median": "70.0",
			"duration_count": "2"
		},
		{
			"place_id": "belgium_5",
			"place_name": "Leuven",
			"place_lat": "50.881543",
			"place_lon": "4.716146",
			"duration_min": "120.0",
			"duration_max": "135.0",
			"duration_median": "127.5",
			"duration_count": "2"
		},
		{
			"place_id": "czechia_1",
			"place_name": "Prague",
			"place_lat": "50.081926",
			"place_lon": "14.451481",
			"duration_min": "960.0",
			"duration_max": "975.0",
			"duration_median": "967.5",
			"duration_count": "2"
		},
		{
			"place_id": "denmark_1",
			"place_name": "Copenhagen",
			"place_lat": "55.688237",
			"place_lon": "12.578426",
			"duration_min": "1000.0",
			"duration_max": "1000.0",
			"duration_median": "1000.0",
			"duration_count": "1"
		},
		{
			"place_id": "denmark_3",
			"place_name": "Odense",
			"place_lat": "55.401778",
			"place_lon": "10.386002",
			"duration_min": "855.0",
			"duration_max": "855.0",
			"duration_median": "855.0",
			"duration_count": "1"
		},
		{
			"place_id": "france_155",
			"place_name": "Lille",
			"place_lat": "50.64501",
			"place_lon": "3.082257",
			"duration_min": "55.0",
			"duration_max": "60.0",
			"duration_median": "57.5",
			"duration_count": "2"
		},
		{
			"place_id": "netherlands_2",
			"place_name": "Rotterdam",
			"place_lat": "51.924804",
			"place_lon": "4.468771",
			"duration_min": "135.0",
			"duration_max": "160.0",
			"duration_median": "147.5",
			"duration_count": "2"
		},
		{
			"place_id": "netherlands_4",
			"place_name": "Den Haag",
			"place_lat": "52.080408",
			"place_lon": "4.325169",
			"duration_min": "170.0",
			"duration_max": "200.0",
			"duration_median": "185.0",
			"duration_count": "2"
		},
		{
			"place_id": "netherlands_8",
			"place_name": "Maastricht",
			"place_lat": "50.849811",
			"place_lon": "5.705876",
			"duration_min": "235.0",
			"duration_max": "250.0",
			"duration_median": "242.5",
			"duration_count": "2"
		},
		{
			"place_id": "poland_1",
			"place_name": "Krakow",
			"place_lat": "50.069934",
			"place_lon": "19.940546",
			"duration_min": "1350.0",
			"duration_max": "1350.0",
			"duration_median": "1350.0",
			"duration_count": "1"
		},
		{
			"place_id": "poland_2",
			"place_name": "Warsaw",
			"place_lat": "52.224729",
			"place_lon": "21.001417",
			"duration_min": "1330.0",
			"duration_max": "1330.0",
			"duration_median": "1330.0",
			"duration_count": "1"
		},
		{
			"place_id": "poland_3",
			"place_name": "Wroclaw",
			"place_lat": "51.098075",
			"place_lon": "17.037084",
			"duration_min": "1095.0",
			"duration_max": "1095.0",
			"duration_median": "1095.0",
			"duration_count": "1"
		},
		{
			"place_id": "poland_6",
			"place_name": "Poznan",
			"place_lat": "52.410249",
			"place_lon": "16.905366",
			"duration_min": "1090.0",
			"duration_max": "1090.0",
			"duration_median": "1090.0",
			"duration_count": "1"
		}]
	},
	"belgium_4": {
		"place_id": "belgium_4",
		"place_name": "Antwerp",
		"place_lat": "51.215807",
		"place_lon": "4.421165",
		"place_brief_desc": "Hub of fashion, design, and diamonds.",
		"place_longer_desc": "The second-largest city in Belgium and a major port, Antwerp is a hub of fashion, design, and diamonds. Why not visit the Cathedral of Our Lady or be equally as awestruck by the Centraal Station. The Diamond Museum is worth a nosey, as is the trendy Zuid district. You can also shop for some of the best clothes and jewellery in Europe - apparently (I didn\u2019t notice them last time I was there but \u2026).",
		"place_image": "./static/images/antwerp.png",
		"place_tags": "history",
		"place_links": "./static/places/antwerp.html",
		"place_country": "Belgium",
		"hops": [{
			"place_id": "Germany_4",
			"place_name": "Munich",
			"place_lat": "48.140364",
			"place_lon": "11.558744",
			"duration_min": "795.0",
			"duration_max": "860.0",
			"duration_median": "800.0",
			"duration_count": "3"
		},
		{
			"place_id": "Germany_6",
			"place_name": "Freiburg",
			"place_lat": "47.997974",
			"place_lon": "7.841344",
			"duration_min": "545.0",
			"duration_max": "545.0",
			"duration_median": "545.0",
			"duration_count": "2"
		},
		{
			"place_id": "Germany_8",
			"place_name": "Heidelberg",
			"place_lat": "49.403582",
			"place_lon": "8.67548",
			"duration_min": "525.0",
			"duration_max": "525.0",
			"duration_median": "525.0",
			"duration_count": "1"
		},
		{
			"place_id": "Germany_9",
			"place_name": "Aachen",
			"place_lat": "50.767641",
			"place_lon": "6.09119",
			"duration_min": "170.0",
			"duration_max": "250.0",
			"duration_median": "200.0",
			"duration_count": "4"
		},
		{
			"place_id": "belgium_12",
			"place_name": "Hasselt",
			"place_lat": "50.930876",
			"place_lon": "5.327062",
			"duration_min": "140.0",
			"duration_max": "140.0",
			"duration_median": "140.0",
			"duration_count": "1"
		},
		{
			"place_id": "belgium_3",
			"place_name": "Ghent",
			"place_lat": "51.035627",
			"place_lon": "3.710612",
			"duration_min": "50.0",
			"duration_max": "60.0",
			"duration_median": "55.0",
			"duration_count": "2"
		},
		{
			"place_id": "croatia_1",
			"place_name": "Zagreb",
			"place_lat": "45.807411",
			"place_lon": "15.990291",
			"duration_min": "1395.0",
			"duration_max": "1395.0",
			"duration_median": "1395.0",
			"duration_count": "1"
		},
		{
			"place_id": "france_155",
			"place_name": "Lille",
			"place_lat": "50.64501",
			"place_lon": "3.082257",
			"duration_min": "110.0",
			"duration_max": "110.0",
			"duration_median": "110.0",
			"duration_count": "1"
		},
		{
			"place_id": "france_162",
			"place_name": "Strasbourg",
			"place_lat": "48.585339",
			"place_lon": "7.734067",
			"duration_min": "450.0",
			"duration_max": "455.0",
			"duration_median": "455.0",
			"duration_count": "3"
		},
		{
			"place_id": "netherlands_2",
			"place_name": "Rotterdam",
			"place_lat": "51.924804",
			"place_lon": "4.468771",
			"duration_min": "105.0",
			"duration_max": "105.0",
			"duration_median": "105.0",
			"duration_count": "2"
		},
		{
			"place_id": "netherlands_4",
			"place_name": "Den Haag",
			"place_lat": "52.080408",
			"place_lon": "4.325169",
			"duration_min": "145.0",
			"duration_max": "145.0",
			"duration_median": "145.0",
			"duration_count": "2"
		},
		{
			"place_id": "netherlands_8",
			"place_name": "Maastricht",
			"place_lat": "50.849811",
			"place_lon": "5.705876",
			"duration_min": "195.0",
			"duration_max": "195.0",
			"duration_median": "195.0",
			"duration_count": "1"
		},
		{
			"place_id": "romania_3",
			"place_name": "Sibiu",
			"place_lat": "45.799977",
			"place_lon": "24.161575",
			"duration_min": "1695.0",
			"duration_max": "1695.0",
			"duration_median": "1695.0",
			"duration_count": "1"
		},
		{
			"place_id": "slovakia_1",
			"place_name": "Bratislava",
			"place_lat": "48.154135",
			"place_lon": "17.097852",
			"duration_min": "1245.0",
			"duration_max": "1340.0",
			"duration_median": "1292.5",
			"duration_count": "4"
		},
		{
			"place_id": "switzerland_6",
			"place_name": "Zurich",
			"place_lat": "47.378968",
			"place_lon": "8.540534",
			"duration_min": "690.0",
			"duration_max": "690.0",
			"duration_median": "690.0",
			"duration_count": "1"
		}]
	},
	"belgium_5": {
		"place_id": "belgium_5",
		"place_name": "Leuven",
		"place_lat": "50.881543",
		"place_lon": "4.716146",
		"place_brief_desc": "A university town with a youthful vibe, Leuven is a great place to visit for culture and beer lovers.",
		"place_longer_desc": "A university town with a youthful vibe, Leuven is a great place to visit for culture and beer lovers. You can admire the Town Hall, the majestic University Library, the serene Beguinage, and the Stella Artois brewery. You can also enjoy some of the best nightlife and student atmosphere in Belgium.",
		"place_image": "./static/images/leuven.png",
		"place_tags": "history",
		"place_links": "./static/places/leuven.html",
		"place_country": "Belgium",
		"hops": [{
			"place_id": "Germany_3",
			"place_name": "Nuremberg",
			"place_lat": "49.450748",
			"place_lon": "11.077955",
			"duration_min": "590.0",
			"duration_max": "610.0",
			"duration_median": "600.0",
			"duration_count": "2"
		},
		{
			"place_id": "Germany_9",
			"place_name": "Aachen",
			"place_lat": "50.767641",
			"place_lon": "6.09119",
			"duration_min": "145.0",
			"duration_max": "145.0",
			"duration_median": "145.0",
			"duration_count": "2"
		},
		{
			"place_id": "belgium_1",
			"place_name": "Brussels",
			"place_lat": "50.835375",
			"place_lon": "4.335695",
			"duration_min": "24.0",
			"duration_max": "55.0",
			"duration_median": "34.5",
			"duration_count": "4"
		},
		{
			"place_id": "belgium_12",
			"place_name": "Hasselt",
			"place_lat": "50.930876",
			"place_lon": "5.327062",
			"duration_min": "55.0",
			"duration_max": "55.0",
			"duration_median": "55.0",
			"duration_count": "2"
		},
		{
			"place_id": "belgium_2",
			"place_name": "Bruges",
			"place_lat": "51.196939",
			"place_lon": "3.217078",
			"duration_min": "160.0",
			"duration_max": "165.0",
			"duration_median": "162.5",
			"duration_count": "2"
		},
		{
			"place_id": "belgium_3",
			"place_name": "Ghent",
			"place_lat": "51.035627",
			"place_lon": "3.710612",
			"duration_min": "110.0",
			"duration_max": "120.0",
			"duration_median": "115.0",
			"duration_count": "2"
		},
		{
			"place_id": "czechia_1",
			"place_name": "Prague",
			"place_lat": "50.081926",
			"place_lon": "14.451481",
			"duration_min": "820.0",
			"duration_max": "850.0",
			"duration_median": "835.0",
			"duration_count": "2"
		},
		{
			"place_id": "netherlands_8",
			"place_name": "Maastricht",
			"place_lat": "50.849811",
			"place_lon": "5.705876",
			"duration_min": "110.0",
			"duration_max": "110.0",
			"duration_median": "110.0",
			"duration_count": "2"
		}]
	},
	"belgium_7": {
		"place_id": "belgium_7",
		"place_name": "Namur",
		"place_lat": "50.468983",
		"place_lon": "4.862499",
		"place_brief_desc": "Charming and relaxed city that offers a lot of history and nature.",
		"place_longer_desc": "The capital of Wallonia and a strategic location at the confluence of two rivers, Namur is a charming and relaxed city that offers a lot of history and nature. You can visit the imposing Citadel, the elegant Saint Aubin's Cathedral, the cosy Old Town, and the scenic Meuse valley.",
		"place_image": "./static/images/namur.png",
		"place_tags": "history",
		"place_links": "./static/places/namur.html",
		"place_country": "Belgium",
		"hops": [{
			"place_id": "Germany_4",
			"place_name": "Munich",
			"place_lat": "48.140364",
			"place_lon": "11.558744",
			"duration_min": "650.0",
			"duration_max": "650.0",
			"duration_median": "650.0",
			"duration_count": "2"
		},
		{
			"place_id": "romania_3",
			"place_name": "Sibiu",
			"place_lat": "45.799977",
			"place_lon": "24.161575",
			"duration_min": "1785.0",
			"duration_max": "1785.0",
			"duration_median": "1785.0",
			"duration_count": "1"
		}]
	},
	"belgium_8": {
		"place_id": "belgium_8",
		"place_name": "Dinant",
		"place_lat": "50.26118",
		"place_lon": "4.907814",
		"place_brief_desc": "A picturesque town on the banks of the Meuse river.",
		"place_longer_desc": "A picturesque town on the banks of the Meuse river, Dinant is a perfect destination for a day trip from Brussels or Namur. You can admire the stunning Collegiate Church of Notre Dame, the imposing Citadel, the whimsical Saxophone Bridge, and the mysterious Grotto of Dinant.",
		"place_image": "./static/images/dinant.png",
		"place_tags": "history",
		"place_links": "./static/places/dinant.html",
		"place_country": "Belgium"
	},
	"belgium_9": {
		"place_id": "belgium_9",
		"place_name": "Mechelen",
		"place_lat": "51.017505",
		"place_lon": "4.483469",
		"place_brief_desc": "A hidden gem between Brussels and Antwerp, Mechelen is a small but beautiful city that boasts a rich cultural heritage and a vibrant atmosphere.",
		"place_longer_desc": "A hidden gem between Brussels and Antwerp, Mechelen is a small but beautiful city that boasts a rich cultural heritage and a vibrant atmosphere. You can visit the magnificent St. Rumbold's Cathedral, the impressive Palace of Margaret of Austria, the fun Toy Museum, and the cosy Grote Markt.",
		"place_image": "./static/images/mechelen.png",
		"place_tags": "history",
		"place_links": "./static/places/mechelen.html",
		"place_country": "Belgium"
	},
	"bulgaria_1": {
		"place_id": "bulgaria_1",
		"place_name": "Sofia",
		"place_lat": "42.712209",
		"place_lon": "23.321039",
		"place_brief_desc": "Sofia is the capital and largest city of Bulgaria.",
		"place_longer_desc": "Sofia is the capital and largest city of Bulgaria, and a good starting point for your train journey. Sofia has many historical and cultural sights, such as the Alexander Nevsky Cathedral, the National Palace of Culture, and the Boyana Church. You can also enjoy the lively nightlife, the green parks, and the diverse cuisine of Sofia.",
		"place_image": "./static/images/sofia.png",
		"place_tags": "history",
		"place_links": "./static/places/sofia.html",
		"place_country": "Bulgaria",
		"hops": [{
			"place_id": "Germany_4",
			"place_name": "Munich",
			"place_lat": "48.140364",
			"place_lon": "11.558744",
			"duration_min": "1315.0",
			"duration_max": "1315.0",
			"duration_median": "1315.0",
			"duration_count": "1"
		},
		{
			"place_id": "bulgaria_2",
			"place_name": "Plovdiv",
			"place_lat": "42.134068",
			"place_lon": "24.740247",
			"duration_min": "150.0",
			"duration_max": "150.0",
			"duration_median": "150.0",
			"duration_count": "1"
		},
		{
			"place_id": "croatia_1",
			"place_name": "Zagreb",
			"place_lat": "45.807411",
			"place_lon": "15.990291",
			"duration_min": "760.0",
			"duration_max": "760.0",
			"duration_median": "760.0",
			"duration_count": "1"
		},
		{
			"place_id": "slovenia_1",
			"place_name": "Ljubljana",
			"place_lat": "46.058687",
			"place_lon": "14.51294",
			"duration_min": "930.0",
			"duration_max": "930.0",
			"duration_median": "930.0",
			"duration_count": "1"
		}]
	},
	"bulgaria_2": {
		"place_id": "bulgaria_2",
		"place_name": "Plovdiv",
		"place_lat": "42.134068",
		"place_lon": "24.740247",
		"place_brief_desc": "Plovdiv is the second-largest city in Bulgaria and one of the oldest cities in Europe.",
		"place_longer_desc": "Plovdiv is the second-largest city in Bulgaria and one of the oldest cities in Europe. It has a charming old town with colourful houses, cobblestone streets, and Roman ruins. Plovdiv is also known for its artistic and creative vibe, with many galleries, festivals, and events.",
		"place_image": "./static/images/plovdiv.png",
		"place_tags": "history",
		"place_links": "./static/places/plovdiv.html",
		"place_country": "Bulgaria",
		"hops": [{
			"place_id": "Germany_4",
			"place_name": "Munich",
			"place_lat": "48.140364",
			"place_lon": "11.558744",
			"duration_min": "1480.0",
			"duration_max": "1480.0",
			"duration_median": "1480.0",
			"duration_count": "1"
		},
		{
			"place_id": "bulgaria_1",
			"place_name": "Sofia",
			"place_lat": "42.712209",
			"place_lon": "23.321039",
			"duration_min": "150.0",
			"duration_max": "150.0",
			"duration_median": "150.0",
			"duration_count": "1"
		},
		{
			"place_id": "croatia_1",
			"place_name": "Zagreb",
			"place_lat": "45.807411",
			"place_lon": "15.990291",
			"duration_min": "925.0",
			"duration_max": "925.0",
			"duration_median": "925.0",
			"duration_count": "1"
		},
		{
			"place_id": "slovenia_1",
			"place_name": "Ljubljana",
			"place_lat": "46.058687",
			"place_lon": "14.51294",
			"duration_min": "1095.0",
			"duration_max": "1095.0",
			"duration_median": "1095.0",
			"duration_count": "1"
		}]
	},
	"bulgaria_3": {
		"place_id": "bulgaria_3",
		"place_name": "Varna",
		"place_lat": "43.197968",
		"place_lon": "27.911246",
		"place_brief_desc": "Varna is the largest city on the Bulgarian Black Sea coast and a popular summer resort.",
		"place_longer_desc": "Varna is the largest city on the Bulgarian Black Sea coast and a popular summer resort. It has a long sandy beach, a vibrant promenade, and a lively cultural scene. Varna also has some interesting historical and natural attractions, such as the Roman Baths, the Sea Garden, and the Stone Forest. ",
		"place_image": "./static/images/varna.png",
		"place_tags": "history",
		"place_links": "./static/places/varna.html",
		"place_country": "Bulgaria"
	},
	"bulgaria_4": {
		"place_id": "bulgaria_4",
		"place_name": "Burgas",
		"place_lat": "42.490805",
		"place_lon": "27.472671",
		"place_brief_desc": "Burgas is another coastal city that offers a relaxing seaside escape. ",
		"place_longer_desc": "Burgas is another coastal city that offers a relaxing seaside escape. It has a beautiful beach, a spacious park, and a modern city centre. Burgas is also a gateway to some of the best natural wonders of Bulgaria, such as the Rila Lakes, the Strandzha Mountain, and the Pomorie Lake.",
		"place_image": "./static/images/burgas.png",
		"place_tags": "history",
		"place_links": "./static/places/burgas.html",
		"place_country": "Bulgaria"
	},
	"bulgaria_5": {
		"place_id": "bulgaria_5",
		"place_name": "Veliko Tarnovo",
		"place_lat": "43.074106",
		"place_lon": "25.638071",
		"place_brief_desc": "Veliko Tarnovo is a picturesque town that was once the capital of the medieval Bulgarian Empire.",
		"place_longer_desc": "Veliko Tarnovo is a picturesque town that was once the capital of the medieval Bulgarian Empire. It is famous for its stunning hilltop fortress, Tsarevets, which offers panoramic views of the town and the Yantra River. Veliko Tarnovo also has a charming old town with narrow streets, stone houses, and churches.",
		"place_image": "./static/images/veliko tarnovo.png",
		"place_tags": "history",
		"place_links": "./static/places/veliko tarnovo.html",
		"place_country": "Bulgaria"
	},
	"bulgaria_7": {
		"place_id": "bulgaria_7",
		"place_name": "Bansko",
		"place_lat": "41.843869",
		"place_lon": "23.490144",
		"place_brief_desc": "Bansko is a popular ski resort in the Pirin Mountains that attracts winter sports enthusiasts from all over Europe",
		"place_longer_desc": "Bansko is a popular ski resort in the Pirin Mountains that attracts winter sports enthusiasts from all over Europe. It has modern facilities, diverse slopes, and a lively apr\u00e8s-ski scene. Bansko also has a charming old town with traditional stone houses, taverns, and museums.",
		"place_image": "./static/images/bansko.png",
		"place_tags": "history",
		"place_links": "./static/places/bansko.html",
		"place_country": "Bulgaria"
	},
	"bulgaria_8": {
		"place_id": "bulgaria_8",
		"place_name": "Koprivshtitsa",
		"place_lat": "42.700901",
		"place_lon": "24.338842",
		"place_brief_desc": "Koprivshtitsa is a small town that preserves the authentic atmosphere of the Bulgarian Revival period in the 19th century.",
		"place_longer_desc": "Koprivshtitsa is a small town that preserves the authentic atmosphere of the Bulgarian Revival period in the 19th century. It has over 300 historical houses that display the typical architecture and decoration of that era. Koprivshtitsa also has several museums that showcase the cultural and historical heritage of Bulgaria.",
		"place_image": "./static/images/koprivshtitsa.png",
		"place_tags": "history",
		"place_links": "./static/places/koprivshtitsa.html",
		"place_country": "Bulgaria"
	},
	"croatia_1": {
		"place_id": "croatia_1",
		"place_name": "Zagreb",
		"place_lat": "45.807411",
		"place_lon": "15.990291",
		"place_brief_desc": "Croatia's capital and largest city, known for its medieval Old Town, Upper Town, and Lower Town.",
		"place_longer_desc": "Zagreb is a charming city with a lot to offer visitors. The Old Town is home to many well-preserved medieval buildings, including the Zagreb Cathedral and the St. Mark's Church. Visitors can also visit the Upper Town, a hilltop neighborhood with stunning views of the city, and the Lower Town, a lively neighborhood with shops, restaurants, and bars. Zagreb is also a great place to enjoy Croatian cuisine and culture.",
		"place_image": "./static/images/zagreb.png",
		"place_tags": "history",
		"place_links": "./static/places/zagreb.html",
		"place_country": "Croatia",
		"hops": [{
			"place_id": "Germany_2",
			"place_name": "Dresden",
			"place_lat": "51.040221",
			"place_lon": "13.731409",
			"duration_min": "710.0",
			"duration_max": "765.0",
			"duration_median": "737.5",
			"duration_count": "8"
		},
		{
			"place_id": "Germany_3",
			"place_name": "Nuremberg",
			"place_lat": "49.450748",
			"place_lon": "11.077955",
			"duration_min": "570.0",
			"duration_max": "710.0",
			"duration_median": "570.0",
			"duration_count": "5"
		},
		{
			"place_id": "Germany_4",
			"place_name": "Munich",
			"place_lat": "48.140364",
			"place_lon": "11.558744",
			"duration_min": "500.0",
			"duration_max": "610.0",
			"duration_median": "530.0",
			"duration_count": "12"
		},
		{
			"place_id": "Germany_6",
			"place_name": "Freiburg",
			"place_lat": "47.997974",
			"place_lon": "7.841344",
			"duration_min": "895.0",
			"duration_max": "895.0",
			"duration_median": "895.0",
			"duration_count": "1"
		},
		{
			"place_id": "Germany_7",
			"place_name": "Hamburg",
			"place_lat": "53.55711",
			"place_lon": "9.997434",
			"duration_min": "1265.0",
			"duration_max": "1265.0",
			"duration_median": "1265.0",
			"duration_count": "1"
		},
		{
			"place_id": "Germany_9",
			"place_name": "Aachen",
			"place_lat": "50.767641",
			"place_lon": "6.09119",
			"duration_min": "1215.0",
			"duration_max": "1215.0",
			"duration_median": "1215.0",
			"duration_count": "1"
		},
		{
			"place_id": "belgium_12",
			"place_name": "Hasselt",
			"place_lat": "50.930876",
			"place_lon": "5.327062",
			"duration_min": "1305.0",
			"duration_max": "1305.0",
			"duration_median": "1305.0",
			"duration_count": "1"
		},
		{
			"place_id": "belgium_4",
			"place_name": "Antwerp",
			"place_lat": "51.215807",
			"place_lon": "4.421165",
			"duration_min": "1445.0",
			"duration_max": "1445.0",
			"duration_median": "1445.0",
			"duration_count": "1"
		},
		{
			"place_id": "bulgaria_1",
			"place_name": "Sofia",
			"place_lat": "42.712209",
			"place_lon": "23.321039",
			"duration_min": "735.0",
			"duration_max": "735.0",
			"duration_median": "735.0",
			"duration_count": "1"
		},
		{
			"place_id": "bulgaria_2",
			"place_name": "Plovdiv",
			"place_lat": "42.134068",
			"place_lon": "24.740247",
			"duration_min": "900.0",
			"duration_max": "900.0",
			"duration_median": "900.0",
			"duration_count": "1"
		},
		{
			"place_id": "czechia_1",
			"place_name": "Prague",
			"place_lat": "50.081926",
			"place_lon": "14.451481",
			"duration_min": "595.0",
			"duration_max": "620.0",
			"duration_median": "610.0",
			"duration_count": "8"
		},
		{
			"place_id": "france_162",
			"place_name": "Strasbourg",
			"place_lat": "48.585339",
			"place_lon": "7.734067",
			"duration_min": "875.0",
			"duration_max": "875.0",
			"duration_median": "875.0",
			"duration_count": "1"
		},
		{
			"place_id": "france_19",
			"place_name": "Paris",
			"place_lat": "48.8404960",
			"place_lon": "2.36707900",
			"duration_min": "1240.0",
			"duration_max": "1240.0",
			"duration_median": "1240.0",
			"duration_count": "1"
		},
		{
			"place_id": "netherlands_2",
			"place_name": "Rotterdam",
			"place_lat": "51.924804",
			"place_lon": "4.468771",
			"duration_min": "1370.0",
			"duration_max": "1370.0",
			"duration_median": "1370.0",
			"duration_count": "1"
		},
		{
			"place_id": "netherlands_4",
			"place_name": "Den Haag",
			"place_lat": "52.080408",
			"place_lon": "4.325169",
			"duration_min": "1405.0",
			"duration_max": "1405.0",
			"duration_median": "1405.0",
			"duration_count": "1"
		},
		{
			"place_id": "netherlands_8",
			"place_name": "Maastricht",
			"place_lat": "50.849811",
			"place_lon": "5.705876",
			"duration_min": "1255.0",
			"duration_max": "1255.0",
			"duration_median": "1255.0",
			"duration_count": "1"
		},
		{
			"place_id": "slovenia_1",
			"place_name": "Ljubljana",
			"place_lat": "46.058687",
			"place_lon": "14.51294",
			"duration_min": "155.0",
			"duration_max": "175.0",
			"duration_median": "165.0",
			"duration_count": "10"
		}]
	},
	"croatia_2": {
		"place_id": "croatia_2",
		"place_name": "Split",
		"place_lat": "43.504887",
		"place_lon": "16.44279",
		"place_brief_desc": "Croatia's second-largest city and a popular tourist destination, known for its Diocletian's Palace, Riva waterfront, and Marjan Hill.",
		"place_longer_desc": "Split is a beautiful city with a lot to offer visitors. Diocletian's Palace is a UNESCO World Heritage Site and one of the most popular tourist attractions in Croatia. Visitors can also visit the Riva waterfront, a lively promenade with shops, restaurants, and bars, and Marjan Hill, a hill with stunning views of the city and the Adriatic Sea. Split is also a great place to enjoy Croatian cuisine and culture.",
		"place_image": "./static/images/split.png",
		"place_tags": "history",
		"place_links": "./static/places/split.html",
		"place_country": "Croatia",
		"hops": [{
			"place_id": "Germany_4",
			"place_name": "Munich",
			"place_lat": "48.140364",
			"place_lon": "11.558744",
			"duration_min": "905.0",
			"duration_max": "915.0",
			"duration_median": "910.0",
			"duration_count": "2"
		},
		{
			"place_id": "slovenia_1",
			"place_name": "Ljubljana",
			"place_lat": "46.058687",
			"place_lon": "14.51294",
			"duration_min": "510.0",
			"duration_max": "551.0",
			"duration_median": "530.5",
			"duration_count": "2"
		},
		{
			"place_id": "slovenia_2",
			"place_name": "Bled",
			"place_lat": "46.368302",
			"place_lon": "14.082303",
			"duration_min": "573.0",
			"duration_max": "573.0",
			"duration_median": "573.0",
			"duration_count": "1"
		}]
	},
	"czechia_1": {
		"place_id": "czechia_1",
		"place_name": "Prague",
		"place_lat": "50.081926",
		"place_lon": "14.451481",
		"place_brief_desc": "A must-see destination for anyone visiting the country.",
		"place_longer_desc": "The capital and largest city of the Czech Republic, Prague is a must-see destination for anyone visiting the country. Prague has a stunning old town, a majestic castle, a famous astronomical clock, and many other attractions. You can easily reach Prague by train from any major city in Europe.",
		"place_image": "./static/images/prague.png",
		"place_tags": "history",
		"place_links": "./static/places/prague.html",
		"place_country": "Czechia",
		"hops": [{
			"place_id": "Germany_1",
			"place_name": "Berlin",
			"place_lat": "52.520501",
			"place_lon": "13.386988",
			"duration_min": "280.0",
			"duration_max": "315.0",
			"duration_median": "295.0",
			"duration_count": "10"
		},
		{
			"place_id": "Germany_2",
			"place_name": "Dresden",
			"place_lat": "51.040221",
			"place_lon": "13.731409",
			"duration_min": "109.0",
			"duration_max": "155.0",
			"duration_median": "110.0",
			"duration_count": "143"
		},
		{
			"place_id": "Germany_3",
			"place_name": "Nuremberg",
			"place_lat": "49.450748",
			"place_lon": "11.077955",
			"duration_min": "210.0",
			"duration_max": "400.0",
			"duration_median": "230.0",
			"duration_count": "19"
		},
		{
			"place_id": "Germany_4",
			"place_name": "Munich",
			"place_lat": "48.140364",
			"place_lon": "11.558744",
			"duration_min": "285.0",
			"duration_max": "385.0",
			"duration_median": "310.0",
			"duration_count": "17"
		},
		{
			"place_id": "Germany_6",
			"place_name": "Freiburg",
			"place_lat": "47.997974",
			"place_lon": "7.841344",
			"duration_min": "485.0",
			"duration_max": "725.0",
			"duration_median": "710.0",
			"duration_count": "7"
		},
		{
			"place_id": "Germany_7",
			"place_name": "Hamburg",
			"place_lat": "53.55711",
			"place_lon": "9.997434",
			"duration_min": "545.0",
			"duration_max": "655.0",
			"duration_median": "617.5",
			"duration_count": "10"
		},
		{
			"place_id": "Germany_8",
			"place_name": "Heidelberg",
			"place_lat": "49.403582",
			"place_lon": "8.67548",
			"duration_min": "430.0",
			"duration_max": "440.0",
			"duration_median": "435.0",
			"duration_count": "2"
		},
		{
			"place_id": "Germany_9",
			"place_name": "Aachen",
			"place_lat": "50.767641",
			"place_lon": "6.09119",
			"duration_min": "685.0",
			"duration_max": "720.0",
			"duration_median": "715.0",
			"duration_count": "3"
		},
		{
			"place_id": "austria_4",
			"place_name": "Innsbruck",
			"place_lat": "47.263331",
			"place_lon": "11.400506",
			"duration_min": "450.0",
			"duration_max": "450.0",
			"duration_median": "450.0",
			"duration_count": "1"
		},
		{
			"place_id": "belgium_1",
			"place_name": "Brussels",
			"place_lat": "50.835375",
			"place_lon": "4.335695",
			"duration_min": "890.0",
			"duration_max": "905.0",
			"duration_median": "897.5",
			"duration_count": "2"
		},
		{
			"place_id": "belgium_12",
			"place_name": "Hasselt",
			"place_lat": "50.930876",
			"place_lon": "5.327062",
			"duration_min": "775.0",
			"duration_max": "800.0",
			"duration_median": "787.5",
			"duration_count": "2"
		},
		{
			"place_id": "belgium_2",
			"place_name": "Bruges",
			"place_lat": "51.196939",
			"place_lon": "3.217078",
			"duration_min": "1000.0",
			"duration_max": "1020.0",
			"duration_median": "1010.0",
			"duration_count": "2"
		},
		{
			"place_id": "belgium_3",
			"place_name": "Ghent",
			"place_lat": "51.035627",
			"place_lon": "3.710612",
			"duration_min": "955.0",
			"duration_max": "970.0",
			"duration_median": "962.5",
			"duration_count": "2"
		},
		{
			"place_id": "belgium_5",
			"place_name": "Leuven",
			"place_lat": "50.881543",
			"place_lon": "4.716146",
			"duration_min": "830.0",
			"duration_max": "855.0",
			"duration_median": "842.5",
			"duration_count": "2"
		},
		{
			"place_id": "croatia_1",
			"place_name": "Zagreb",
			"place_lat": "45.807411",
			"place_lon": "15.990291",
			"duration_min": "565.0",
			"duration_max": "615.0",
			"duration_median": "580.0",
			"duration_count": "10"
		},
		{
			"place_id": "czechia_10",
			"place_name": "Ceske Budejovice",
			"place_lat": "48.974616",
			"place_lon": "14.48875",
			"duration_min": "124.0",
			"duration_max": "124.0",
			"duration_median": "124.0",
			"duration_count": "2"
		},
		{
			"place_id": "czechia_3",
			"place_name": "Karlovy Vary",
			"place_lat": "50.235668",
			"place_lon": "12.866854",
			"duration_min": "120.0",
			"duration_max": "120.0",
			"duration_median": "120.0",
			"duration_count": "1"
		},
		{
			"place_id": "czechia_5",
			"place_name": "Brno",
			"place_lat": "49.190537",
			"place_lon": "16.612776",
			"duration_min": "140.0",
			"duration_max": "180.0",
			"duration_median": "155.0",
			"duration_count": "24"
		},
		{
			"place_id": "czechia_6",
			"place_name": "Pilsen",
			"place_lat": "49.746889",
			"place_lon": "13.377351",
			"duration_min": "75.0",
			"duration_max": "110.0",
			"duration_median": "75.0",
			"duration_count": "20"
		},
		{
			"place_id": "czechia_7",
			"place_name": "Olomouc",
			"place_lat": "49.593128",
			"place_lon": "17.277932",
			"duration_min": "220.0",
			"duration_max": "240.0",
			"duration_median": "240.0",
			"duration_count": "3"
		},
		{
			"place_id": "denmark_1",
			"place_name": "Copenhagen",
			"place_lat": "55.688237",
			"place_lon": "12.578426",
			"duration_min": "780.0",
			"duration_max": "840.0",
			"duration_median": "825.0",
			"duration_count": "6"
		},
		{
			"place_id": "france_123",
			"place_name": "Montpellier",
			"place_lat": "43.6047800",
			"place_lon": "3.88116800",
			"duration_min": "1230.0",
			"duration_max": "1285.0",
			"duration_median": "1257.5",
			"duration_count": "2"
		},
		{
			"place_id": "france_127",
			"place_name": "Narbonne",
			"place_lat": "43.1906640",
			"place_lon": "3.00556200",
			"duration_min": "1340.0",
			"duration_max": "1340.0",
			"duration_median": "1340.0",
			"duration_count": "1"
		},
		{
			"place_id": "france_155",
			"place_name": "Lille",
			"place_lat": "50.64501",
			"place_lon": "3.082257",
			"duration_min": "1065.0",
			"duration_max": "1065.0",
			"duration_median": "1065.0",
			"duration_count": "4"
		},
		{
			"place_id": "france_162",
			"place_name": "Strasbourg",
			"place_lat": "48.585339",
			"place_lon": "7.734067",
			"duration_min": "575.0",
			"duration_max": "730.0",
			"duration_median": "730.0",
			"duration_count": "5"
		},
		{
			"place_id": "france_19",
			"place_name": "Paris",
			"place_lat": "48.8404960",
			"place_lon": "2.36707900",
			"duration_min": "800.0",
			"duration_max": "1265.0",
			"duration_median": "1070.0",
			"duration_count": "8"
		},
		{
			"place_id": "france_93",
			"place_name": "Lyon",
			"place_lat": "45.7605960",
			"place_lon": "4.85940900",
			"duration_min": "900.0",
			"duration_max": "1000.0",
			"duration_median": "900.0",
			"duration_count": "3"
		},
		{
			"place_id": "hungary_6",
			"place_name": "Szeged",
			"place_lat": "46.23981",
			"place_lon": "20.143181",
			"duration_min": "555.0",
			"duration_max": "565.0",
			"duration_median": "555.0",
			"duration_count": "3"
		},
		{
			"place_id": "hungary_7",
			"place_name": "Gyor",
			"place_lat": "47.681986",
			"place_lon": "17.634795",
			"duration_min": "325.0",
			"duration_max": "325.0",
			"duration_median": "325.0",
			"duration_count": "2"
		},
		{
			"place_id": "netherlands_2",
			"place_name": "Rotterdam",
			"place_lat": "51.924804",
			"place_lon": "4.468771",
			"duration_min": "1000.0",
			"duration_max": "1000.0",
			"duration_median": "1000.0",
			"duration_count": "1"
		},
		{
			"place_id": "netherlands_3",
			"place_name": "Utrecht",
			"place_lat": "52.089397",
			"place_lon": "5.109864",
			"duration_min": "890.0",
			"duration_max": "890.0",
			"duration_median": "890.0",
			"duration_count": "5"
		},
		{
			"place_id": "netherlands_4",
			"place_name": "Den Haag",
			"place_lat": "52.080408",
			"place_lon": "4.325169",
			"duration_min": "1035.0",
			"duration_max": "1035.0",
			"duration_median": "1035.0",
			"duration_count": "1"
		},
		{
			"place_id": "netherlands_8",
			"place_name": "Maastricht",
			"place_lat": "50.849811",
			"place_lon": "5.705876",
			"duration_min": "725.0",
			"duration_max": "750.0",
			"duration_median": "737.5",
			"duration_count": "2"
		},
		{
			"place_id": "norway_2",
			"place_name": "Oslo",
			"place_lat": "59.909527",
			"place_lon": "10.781842",
			"duration_min": "1355.0",
			"duration_max": "1355.0",
			"duration_median": "1355.0",
			"duration_count": "1"
		},
		{
			"place_id": "poland_1",
			"place_name": "Krakow",
			"place_lat": "50.069934",
			"place_lon": "19.940546",
			"duration_min": "440.0",
			"duration_max": "495.0",
			"duration_median": "490.0",
			"duration_count": "5"
		},
		{
			"place_id": "poland_3",
			"place_name": "Wroclaw",
			"place_lat": "51.098075",
			"place_lon": "17.037084",
			"duration_min": "270.0",
			"duration_max": "270.0",
			"duration_median": "270.0",
			"duration_count": "1"
		},
		{
			"place_id": "romania_3",
			"place_name": "Sibiu",
			"place_lat": "45.799977",
			"place_lon": "24.161575",
			"duration_min": "1005.0",
			"duration_max": "1005.0",
			"duration_median": "1005.0",
			"duration_count": "1"
		},
		{
			"place_id": "slovakia_1",
			"place_name": "Bratislava",
			"place_lat": "48.154135",
			"place_lon": "17.097852",
			"duration_min": "249.0",
			"duration_max": "295.0",
			"duration_median": "265.0",
			"duration_count": "12"
		},
		{
			"place_id": "slovenia_1",
			"place_name": "Ljubljana",
			"place_lat": "46.058687",
			"place_lon": "14.51294",
			"duration_min": "578.0",
			"duration_max": "578.0",
			"duration_median": "578.0",
			"duration_count": "2"
		},
		{
			"place_id": "slovenia_2",
			"place_name": "Bled",
			"place_lat": "46.368302",
			"place_lon": "14.082303",
			"duration_min": "516.0",
			"duration_max": "516.0",
			"duration_median": "516.0",
			"duration_count": "2"
		},
		{
			"place_id": "sweden_1",
			"place_name": "Stockholm",
			"place_lat": "59.330963",
			"place_lon": "18.066134",
			"duration_min": "1405.0",
			"duration_max": "1410.0",
			"duration_median": "1407.5",
			"duration_count": "2"
		},
		{
			"place_id": "sweden_3",
			"place_name": "Malmo",
			"place_lat": "55.609231",
			"place_lon": "13.00126",
			"duration_min": "890.0",
			"duration_max": "925.0",
			"duration_median": "920.0",
			"duration_count": "3"
		},
		{
			"place_id": "sweden_5",
			"place_name": "Linkoping",
			"place_lat": "58.416014",
			"place_lon": "15.626677",
			"duration_min": "1250.0",
			"duration_max": "1250.0",
			"duration_median": "1250.0",
			"duration_count": "2"
		},
		{
			"place_id": "switzerland_2",
			"place_name": "Bern",
			"place_lat": "46.948834",
			"place_lon": "7.439131",
			"duration_min": "640.0",
			"duration_max": "640.0",
			"duration_median": "640.0",
			"duration_count": "1"
		},
		{
			"place_id": "switzerland_3",
			"place_name": "Geneva",
			"place_lat": "46.210209",
			"place_lon": "6.142455",
			"duration_min": "785.0",
			"duration_max": "785.0",
			"duration_median": "785.0",
			"duration_count": "1"
		},
		{
			"place_id": "switzerland_6",
			"place_name": "Zurich",
			"place_lat": "47.378968",
			"place_lon": "8.540534",
			"duration_min": "590.0",
			"duration_max": "700.0",
			"duration_median": "640.0",
			"duration_count": "5"
		}]
	},
	"czechia_10": {
		"place_id": "czechia_10",
		"place_name": "Ceske Budejovice",
		"place_lat": "48.974616",
		"place_lon": "14.48875",
		"place_brief_desc": "A city in Southern Bohemia, Ceske Budejovice - original home of Budweiser is another place where you can take civilised strolls around the town in a mild fug of beer fumes.",
		"place_longer_desc": "A city in Southern Bohemia, Ceske Budejovice - original home of Budweiser is another place where you can take civilised strolls around the town in a mild fug of beer fumes.",
		"place_image": "./static/images/ceske budejovice.png",
		"place_tags": "history",
		"place_links": "./static/places/ceske budejovice.html",
		"place_country": "Czechia",
		"hops": [{
			"place_id": "Germany_2",
			"place_name": "Dresden",
			"place_lat": "51.040221",
			"place_lon": "13.731409",
			"duration_min": "270.0",
			"duration_max": "295.0",
			"duration_median": "282.5",
			"duration_count": "4"
		},
		{
			"place_id": "Germany_4",
			"place_name": "Munich",
			"place_lat": "48.140364",
			"place_lon": "11.558744",
			"duration_min": "365.0",
			"duration_max": "365.0",
			"duration_median": "365.0",
			"duration_count": "1"
		},
		{
			"place_id": "czechia_1",
			"place_name": "Prague",
			"place_lat": "50.081926",
			"place_lon": "14.451481",
			"duration_min": "135.0",
			"duration_max": "135.0",
			"duration_median": "135.0",
			"duration_count": "2"
		},
		{
			"place_id": "czechia_2",
			"place_name": "Cesky Krumlov",
			"place_lat": "48.822429",
			"place_lon": "14.317299",
			"duration_min": "25.0",
			"duration_max": "25.0",
			"duration_median": "25.0",
			"duration_count": "1"
		},
		{
			"place_id": "czechia_5",
			"place_name": "Brno",
			"place_lat": "49.190537",
			"place_lon": "16.612776",
			"duration_min": "220.0",
			"duration_max": "220.0",
			"duration_median": "220.0",
			"duration_count": "1"
		},
		{
			"place_id": "czechia_8",
			"place_name": "Telc",
			"place_lat": "49.1826",
			"place_lon": "15.464278",
			"duration_min": "105.0",
			"duration_max": "105.0",
			"duration_median": "105.0",
			"duration_count": "1"
		},
		{
			"place_id": "slovenia_1",
			"place_name": "Ljubljana",
			"place_lat": "46.058687",
			"place_lon": "14.51294",
			"duration_min": "448.0",
			"duration_max": "448.0",
			"duration_median": "448.0",
			"duration_count": "2"
		},
		{
			"place_id": "slovenia_2",
			"place_name": "Bled",
			"place_lat": "46.368302",
			"place_lon": "14.082303",
			"duration_min": "386.0",
			"duration_max": "386.0",
			"duration_median": "386.0",
			"duration_count": "2"
		}]
	},
	"czechia_2": {
		"place_id": "czechia_2",
		"place_name": "Cesky Krumlov",
		"place_lat": "48.822429",
		"place_lon": "14.317299",
		"place_brief_desc": "Picturesque town surrounded by a meandering river and a medieval castle.",
		"place_longer_desc": "A UNESCO World Heritage Site, Cesky Krumlov is a picturesque town in the south of the country, surrounded by a meandering river and a medieval castle. The town has a charming atmosphere, with cobblestone streets, colorful houses, and cozy cafes.",
		"place_image": "./static/images/cesky krumlov.png",
		"place_tags": "history",
		"place_links": "./static/places/cesky krumlov.html",
		"place_country": "Czechia",
		"hops": [{
			"place_id": "Germany_4",
			"place_name": "Munich",
			"place_lat": "48.140364",
			"place_lon": "11.558744",
			"duration_min": "335.0",
			"duration_max": "335.0",
			"duration_median": "335.0",
			"duration_count": "1"
		},
		{
			"place_id": "czechia_10",
			"place_name": "Ceske Budejovice",
			"place_lat": "48.974616",
			"place_lon": "14.48875",
			"duration_min": "30.0",
			"duration_max": "30.0",
			"duration_median": "30.0",
			"duration_count": "1"
		},
		{
			"place_id": "czechia_5",
			"place_name": "Brno",
			"place_lat": "49.190537",
			"place_lon": "16.612776",
			"duration_min": "255.0",
			"duration_max": "255.0",
			"duration_median": "255.0",
			"duration_count": "1"
		},
		{
			"place_id": "czechia_8",
			"place_name": "Telc",
			"place_lat": "49.1826",
			"place_lon": "15.464278",
			"duration_min": "140.0",
			"duration_max": "140.0",
			"duration_median": "140.0",
			"duration_count": "1"
		}]
	},
	"czechia_3": {
		"place_id": "czechia_3",
		"place_name": "Karlovy Vary",
		"place_lat": "50.235668",
		"place_lon": "12.866854",
		"place_brief_desc": "Famous for its mineral springs, elegant buildings, and film festival.",
		"place_longer_desc": "A spa town in the west of the country, Karlovy Vary is famous for its mineral springs, elegant buildings, and film festival. You can relax in one of the many thermal baths, enjoy a walk along the colonnades, or visit the glass museum. You can take a direct train from Prague to Karlovy Vary in about two hours.",
		"place_image": "./static/images/karlovy vary.png",
		"place_tags": "history",
		"place_links": "./static/places/karlovy vary.html",
		"place_country": "Czechia",
		"hops": [{
			"place_id": "czechia_1",
			"place_name": "Prague",
			"place_lat": "50.081926",
			"place_lon": "14.451481",
			"duration_min": "115.0",
			"duration_max": "115.0",
			"duration_median": "115.0",
			"duration_count": "1"
		}]
	},
	"czechia_4": {
		"place_id": "czechia_4",
		"place_name": "Kutna Hora",
		"place_lat": "49.961839",
		"place_lon": "15.300854",
		"place_brief_desc": "Once a prosperous silver mining center that paid for it's Gothic cathedral , the Italian court, and the ossuary of Sedlec..",
		"place_longer_desc": "A historical town in Central Bohemia, Kutna Hora was once a prosperous silver mining center and a rival of Prague. Today, it is a popular tourist destination, with several impressive monuments, such as the Gothic cathedral of St. Barbara, the Italian court, and the ossuary of Sedlec. You can take a direct train from Prague to Kutna Hora in about an hour.",
		"place_image": "./static/images/kutna hora.png",
		"place_tags": "history",
		"place_links": "./static/places/kutna hora.html",
		"place_country": "Czechia"
	},
	"czechia_5": {
		"place_id": "czechia_5",
		"place_name": "Brno",
		"place_lat": "49.190537",
		"place_lon": "16.612776",
		"place_brief_desc": "The second largest city and the cultural hub of the Czech Republic.",
		"place_longer_desc": "The second largest city and the cultural hub of the Czech Republic, Brno is located in the southeast of the country. Brno has a vibrant nightlife, a modern art scene, and a variety of museums and galleries. You can also visit the nearby Moravian Karst, a natural wonder with caves and gorges. You can take a direct train from Prague to Brno in about two and a half hours.",
		"place_image": "./static/images/brno.png",
		"place_tags": "history",
		"place_links": "./static/places/brno.html",
		"place_country": "Czechia",
		"hops": [{
			"place_id": "Germany_2",
			"place_name": "Dresden",
			"place_lat": "51.040221",
			"place_lon": "13.731409",
			"duration_min": "260.0",
			"duration_max": "440.0",
			"duration_median": "285.0",
			"duration_count": "13"
		},
		{
			"place_id": "Germany_3",
			"place_name": "Nuremberg",
			"place_lat": "49.450748",
			"place_lon": "11.077955",
			"duration_min": "410.0",
			"duration_max": "410.0",
			"duration_median": "410.0",
			"duration_count": "2"
		},
		{
			"place_id": "Germany_4",
			"place_name": "Munich",
			"place_lat": "48.140364",
			"place_lon": "11.558744",
			"duration_min": "445.0",
			"duration_max": "590.0",
			"duration_median": "486.0",
			"duration_count": "3"
		},
		{
			"place_id": "Germany_7",
			"place_name": "Hamburg",
			"place_lat": "53.55711",
			"place_lon": "9.997434",
			"duration_min": "760.0",
			"duration_max": "805.0",
			"duration_median": "790.0",
			"duration_count": "6"
		},
		{
			"place_id": "czechia_1",
			"place_name": "Prague",
			"place_lat": "50.081926",
			"place_lon": "14.451481",
			"duration_min": "145.0",
			"duration_max": "170.0",
			"duration_median": "155.0",
			"duration_count": "25"
		},
		{
			"place_id": "czechia_10",
			"place_name": "Ceske Budejovice",
			"place_lat": "48.974616",
			"place_lon": "14.48875",
			"duration_min": "220.0",
			"duration_max": "220.0",
			"duration_median": "220.0",
			"duration_count": "1"
		},
		{
			"place_id": "czechia_2",
			"place_name": "Cesky Krumlov",
			"place_lat": "48.822429",
			"place_lon": "14.317299",
			"duration_min": "250.0",
			"duration_max": "250.0",
			"duration_median": "250.0",
			"duration_count": "1"
		},
		{
			"place_id": "czechia_6",
			"place_name": "Pilsen",
			"place_lat": "49.746889",
			"place_lon": "13.377351",
			"duration_min": "236.0",
			"duration_max": "236.0",
			"duration_median": "236.0",
			"duration_count": "1"
		},
		{
			"place_id": "czechia_7",
			"place_name": "Olomouc",
			"place_lat": "49.593128",
			"place_lon": "17.277932",
			"duration_min": "60.0",
			"duration_max": "65.0",
			"duration_median": "65.0",
			"duration_count": "5"
		},
		{
			"place_id": "czechia_8",
			"place_name": "Telc",
			"place_lat": "49.1826",
			"place_lon": "15.464278",
			"duration_min": "105.0",
			"duration_max": "105.0",
			"duration_median": "105.0",
			"duration_count": "1"
		},
		{
			"place_id": "czechia_9",
			"place_name": "Liberec",
			"place_lat": "50.761429",
			"place_lon": "15.045947",
			"duration_min": "285.0",
			"duration_max": "285.0",
			"duration_median": "285.0",
			"duration_count": "3"
		},
		{
			"place_id": "france_19",
			"place_name": "Paris",
			"place_lat": "48.8404960",
			"place_lon": "2.36707900",
			"duration_min": "990.0",
			"duration_max": "990.0",
			"duration_median": "990.0",
			"duration_count": "2"
		},
		{
			"place_id": "hungary_6",
			"place_name": "Szeged",
			"place_lat": "46.23981",
			"place_lon": "20.143181",
			"duration_min": "395.0",
			"duration_max": "396.0",
			"duration_median": "395.0",
			"duration_count": "3"
		},
		{
			"place_id": "hungary_7",
			"place_name": "Gyor",
			"place_lat": "47.681986",
			"place_lon": "17.634795",
			"duration_min": "180.0",
			"duration_max": "180.0",
			"duration_median": "180.0",
			"duration_count": "2"
		},
		{
			"place_id": "poland_1",
			"place_name": "Krakow",
			"place_lat": "50.069934",
			"place_lon": "19.940546",
			"duration_min": "310.0",
			"duration_max": "315.0",
			"duration_median": "315.0",
			"duration_count": "3"
		},
		{
			"place_id": "poland_3",
			"place_name": "Wroclaw",
			"place_lat": "51.098075",
			"place_lon": "17.037084",
			"duration_min": "285.0",
			"duration_max": "285.0",
			"duration_median": "285.0",
			"duration_count": "1"
		},
		{
			"place_id": "poland_4",
			"place_name": "Gdansk",
			"place_lat": "54.365843",
			"place_lon": "18.64396",
			"duration_min": "740.0",
			"duration_max": "740.0",
			"duration_median": "740.0",
			"duration_count": "1"
		},
		{
			"place_id": "poland_6",
			"place_name": "Poznan",
			"place_lat": "52.410249",
			"place_lon": "16.905366",
			"duration_min": "465.0",
			"duration_max": "465.0",
			"duration_median": "465.0",
			"duration_count": "1"
		},
		{
			"place_id": "romania_3",
			"place_name": "Sibiu",
			"place_lat": "45.799977",
			"place_lon": "24.161575",
			"duration_min": "836.0",
			"duration_max": "836.0",
			"duration_median": "836.0",
			"duration_count": "1"
		},
		{
			"place_id": "slovakia_1",
			"place_name": "Bratislava",
			"place_lat": "48.154135",
			"place_lon": "17.097852",
			"duration_min": "92.0",
			"duration_max": "195.0",
			"duration_median": "105.0",
			"duration_count": "11"
		}]
	},
	"czechia_6": {
		"place_id": "czechia_6",
		"place_name": "Pilsen",
		"place_lat": "49.746889",
		"place_lon": "13.377351",
		"place_brief_desc": "A city in Western Bohemia that attracts beer lovers from all over the world.",
		"place_longer_desc": "The birthplace of the famous Pilsner beer, Pilsen is a city in Western Bohemia that attracts beer lovers from all over the world. You can visit the Pilsner Urquell brewery, the largest brewery museum in Europe, and taste some of the best beers in the world. You can also explore the historical center of Pilsen, with its Gothic cathedral and Renaissance town hall. You can take a direct train from Prague to Pilsen in about an hour and a half.",
		"place_image": "./static/images/pilsen.png",
		"place_tags": "history",
		"place_links": "./static/places/pilsen.html",
		"place_country": "Czechia",
		"hops": [{
			"place_id": "Germany_3",
			"place_name": "Nuremberg",
			"place_lat": "49.450748",
			"place_lon": "11.077955",
			"duration_min": "135.0",
			"duration_max": "175.0",
			"duration_median": "145.0",
			"duration_count": "3"
		},
		{
			"place_id": "Germany_4",
			"place_name": "Munich",
			"place_lat": "48.140364",
			"place_lon": "11.558744",
			"duration_min": "245.0",
			"duration_max": "280.0",
			"duration_median": "262.5",
			"duration_count": "2"
		},
		{
			"place_id": "czechia_1",
			"place_name": "Prague",
			"place_lat": "50.081926",
			"place_lon": "14.451481",
			"duration_min": "77.0",
			"duration_max": "110.0",
			"duration_median": "77.0",
			"duration_count": "19"
		},
		{
			"place_id": "czechia_5",
			"place_name": "Brno",
			"place_lat": "49.190537",
			"place_lon": "16.612776",
			"duration_min": "240.0",
			"duration_max": "240.0",
			"duration_median": "240.0",
			"duration_count": "1"
		},
		{
			"place_id": "czechia_7",
			"place_name": "Olomouc",
			"place_lat": "49.593128",
			"place_lon": "17.277932",
			"duration_min": "310.0",
			"duration_max": "310.0",
			"duration_median": "310.0",
			"duration_count": "1"
		},
		{
			"place_id": "france_123",
			"place_name": "Montpellier",
			"place_lat": "43.6047800",
			"place_lon": "3.88116800",
			"duration_min": "1195.0",
			"duration_max": "1195.0",
			"duration_median": "1195.0",
			"duration_count": "1"
		},
		{
			"place_id": "france_162",
			"place_name": "Strasbourg",
			"place_lat": "48.585339",
			"place_lon": "7.734067",
			"duration_min": "485.0",
			"duration_max": "495.0",
			"duration_median": "490.0",
			"duration_count": "2"
		},
		{
			"place_id": "france_93",
			"place_name": "Lyon",
			"place_lat": "45.7605960",
			"place_lon": "4.85940900",
			"duration_min": "910.0",
			"duration_max": "910.0",
			"duration_median": "910.0",
			"duration_count": "1"
		},
		{
			"place_id": "poland_1",
			"place_name": "Krakow",
			"place_lat": "50.069934",
			"place_lon": "19.940546",
			"duration_min": "555.0",
			"duration_max": "595.0",
			"duration_median": "575.0",
			"duration_count": "2"
		}]
	},
	"czechia_7": {
		"place_id": "czechia_7",
		"place_name": "Olomouc",
		"place_lat": "49.593128",
		"place_lon": "17.277932",
		"place_brief_desc": "A university town in Eastern Moravia, Olomouc is often overlooked by tourists but has a lot to offer.",
		"place_longer_desc": "A university town in Eastern Moravia, Olomouc is often overlooked by tourists but has a lot to offer. Olomouc has one of the largest historical centers in the country, with many Baroque fountains, churches, and palaces. You can also admire the Holy Trinity Column, a UNESCO World Heritage Site and one of the largest sculptures in Europe. You can take a direct train from Prague to Olomouc in about two hours.",
		"place_image": "./static/images/olomouc.png",
		"place_tags": "history",
		"place_links": "./static/places/olomouc.html",
		"place_country": "Czechia",
		"hops": [{
			"place_id": "Germany_3",
			"place_name": "Nuremberg",
			"place_lat": "49.450748",
			"place_lon": "11.077955",
			"duration_min": "490.0",
			"duration_max": "490.0",
			"duration_median": "490.0",
			"duration_count": "2"
		},
		{
			"place_id": "Germany_4",
			"place_name": "Munich",
			"place_lat": "48.140364",
			"place_lon": "11.558744",
			"duration_min": "515.0",
			"duration_max": "550.0",
			"duration_median": "532.5",
			"duration_count": "2"
		},
		{
			"place_id": "czechia_1",
			"place_name": "Prague",
			"place_lat": "50.081926",
			"place_lon": "14.451481",
			"duration_min": "210.0",
			"duration_max": "250.0",
			"duration_median": "250.0",
			"duration_count": "3"
		},
		{
			"place_id": "czechia_5",
			"place_name": "Brno",
			"place_lat": "49.190537",
			"place_lon": "16.612776",
			"duration_min": "60.0",
			"duration_max": "70.0",
			"duration_median": "65.0",
			"duration_count": "5"
		},
		{
			"place_id": "czechia_6",
			"place_name": "Pilsen",
			"place_lat": "49.746889",
			"place_lon": "13.377351",
			"duration_min": "300.0",
			"duration_max": "300.0",
			"duration_median": "300.0",
			"duration_count": "1"
		},
		{
			"place_id": "france_19",
			"place_name": "Paris",
			"place_lat": "48.8404960",
			"place_lon": "2.36707900",
			"duration_min": "1070.0",
			"duration_max": "1070.0",
			"duration_median": "1070.0",
			"duration_count": "2"
		},
		{
			"place_id": "poland_1",
			"place_name": "Krakow",
			"place_lat": "50.069934",
			"place_lon": "19.940546",
			"duration_min": "240.0",
			"duration_max": "245.0",
			"duration_median": "245.0",
			"duration_count": "3"
		},
		{
			"place_id": "poland_3",
			"place_name": "Wroclaw",
			"place_lat": "51.098075",
			"place_lon": "17.037084",
			"duration_min": "215.0",
			"duration_max": "215.0",
			"duration_median": "215.0",
			"duration_count": "1"
		},
		{
			"place_id": "poland_4",
			"place_name": "Gdansk",
			"place_lat": "54.365843",
			"place_lon": "18.64396",
			"duration_min": "675.0",
			"duration_max": "675.0",
			"duration_median": "675.0",
			"duration_count": "1"
		},
		{
			"place_id": "poland_6",
			"place_name": "Poznan",
			"place_lat": "52.410249",
			"place_lon": "16.905366",
			"duration_min": "395.0",
			"duration_max": "395.0",
			"duration_median": "395.0",
			"duration_count": "1"
		},
		{
			"place_id": "slovakia_1",
			"place_name": "Bratislava",
			"place_lat": "48.154135",
			"place_lon": "17.097852",
			"duration_min": "270.0",
			"duration_max": "270.0",
			"duration_median": "270.0",
			"duration_count": "1"
		}]
	},
	"czechia_8": {
		"place_id": "czechia_8",
		"place_name": "Telc",
		"place_lat": "49.1826",
		"place_lon": "15.464278",
		"place_brief_desc": "UNESCO World Heritage Site, Telc is a small town in Southern Moravia that looks like a fairy tale.",
		"place_longer_desc": "Another UNESCO World Heritage Site, Telc is a small town in Southern Moravia that looks like a fairy tale. Telc has a stunning main square, lined with colorful Renaissance houses with arcades and gables. You can also visit the Telc Castle, a Renaissance masterpiece with lavish interiors and gardens. You can take a direct train from Prague to Telc in about three hours.",
		"place_image": "./static/images/telc.png",
		"place_tags": "history",
		"place_links": "./static/places/telc.html",
		"place_country": "Czechia",
		"hops": [{
			"place_id": "Germany_4",
			"place_name": "Munich",
			"place_lat": "48.140364",
			"place_lon": "11.558744",
			"duration_min": "485.0",
			"duration_max": "485.0",
			"duration_median": "485.0",
			"duration_count": "1"
		},
		{
			"place_id": "czechia_10",
			"place_name": "Ceske Budejovice",
			"place_lat": "48.974616",
			"place_lon": "14.48875",
			"duration_min": "115.0",
			"duration_max": "115.0",
			"duration_median": "115.0",
			"duration_count": "1"
		},
		{
			"place_id": "czechia_2",
			"place_name": "Cesky Krumlov",
			"place_lat": "48.822429",
			"place_lon": "14.317299",
			"duration_min": "145.0",
			"duration_max": "145.0",
			"duration_median": "145.0",
			"duration_count": "1"
		},
		{
			"place_id": "czechia_5",
			"place_name": "Brno",
			"place_lat": "49.190537",
			"place_lon": "16.612776",
			"duration_min": "115.0",
			"duration_max": "115.0",
			"duration_median": "115.0",
			"duration_count": "1"
		}]
	},
	"czechia_9": {
		"place_id": "czechia_9",
		"place_name": "Liberec",
		"place_lat": "50.761429",
		"place_lon": "15.045947",
		"place_brief_desc": "Ideal destination for nature lovers and winter sports enthusiasts.",
		"place_longer_desc": " A city in Northern Bohemia, Liberec is an ideal destination for nature lovers and winter sports enthusiasts. Liberec is surrounded by mountains and forests, where you can hike, bike, or ski. You can also visit the Jested Tower, a futuristic landmark that offers panoramic views of the city and beyond. You can take a direct train from Prague to Liberec in about an hour and 45 minutes.",
		"place_image": "./static/images/liberec.png",
		"place_tags": "history",
		"place_links": "./static/places/liberec.html",
		"place_country": "Czechia",
		"hops": [{
			"place_id": "Germany_2",
			"place_name": "Dresden",
			"place_lat": "51.040221",
			"place_lon": "13.731409",
			"duration_min": "113.0",
			"duration_max": "215.0",
			"duration_median": "119.0",
			"duration_count": "34"
		},
		{
			"place_id": "czechia_5",
			"place_name": "Brno",
			"place_lat": "49.190537",
			"place_lon": "16.612776",
			"duration_min": "285.0",
			"duration_max": "285.0",
			"duration_median": "285.0",
			"duration_count": "3"
		}]
	},
	"denmark_1": {
		"place_id": "denmark_1",
		"place_name": "Copenhagen",
		"place_lat": "55.688237",
		"place_lon": "12.578426",
		"place_brief_desc": "The capital of Denmark and a vibrant city with a rich history and culture.",
		"place_longer_desc": "The capital of Denmark and a vibrant city with a rich history and culture. Visitors can enjoy Copenhagen's many attractions, including Nyhavn, Tivoli Gardens, Rosenborg Castle, and the National Museum of Denmark.",
		"place_image": "./static/images/copenhagen.png",
		"place_tags": "history",
		"place_links": "./static/places/copenhagen.html",
		"place_country": "Denmark",
		"hops": [{
			"place_id": "Germany_10",
			"place_name": "Lubeck",
			"place_lat": "53.86767",
			"place_lon": "10.669737",
			"duration_min": "270.0",
			"duration_max": "300.0",
			"duration_median": "280.0",
			"duration_count": "5"
		},
		{
			"place_id": "Germany_2",
			"place_name": "Dresden",
			"place_lat": "51.040221",
			"place_lon": "13.731409",
			"duration_min": "695.0",
			"duration_max": "695.0",
			"duration_median": "695.0",
			"duration_count": "2"
		},
		{
			"place_id": "Germany_3",
			"place_name": "Nuremberg",
			"place_lat": "49.450748",
			"place_lon": "11.077955",
			"duration_min": "860.0",
			"duration_max": "860.0",
			"duration_median": "860.0",
			"duration_count": "1"
		},
		{
			"place_id": "Germany_4",
			"place_name": "Munich",
			"place_lat": "48.140364",
			"place_lon": "11.558744",
			"duration_min": "1010.0",
			"duration_max": "1010.0",
			"duration_median": "1010.0",
			"duration_count": "1"
		},
		{
			"place_id": "Germany_7",
			"place_name": "Hamburg",
			"place_lat": "53.55711",
			"place_lon": "9.997434",
			"duration_min": "310.0",
			"duration_max": "450.0",
			"duration_median": "352.5",
			"duration_count": "16"
		},
		{
			"place_id": "belgium_3",
			"place_name": "Ghent",
			"place_lat": "51.035627",
			"place_lon": "3.710612",
			"duration_min": "995.0",
			"duration_max": "995.0",
			"duration_median": "995.0",
			"duration_count": "1"
		},
		{
			"place_id": "czechia_1",
			"place_name": "Prague",
			"place_lat": "50.081926",
			"place_lon": "14.451481",
			"duration_min": "775.0",
			"duration_max": "815.0",
			"duration_median": "810.0",
			"duration_count": "4"
		},
		{
			"place_id": "denmark_3",
			"place_name": "Odense",
			"place_lat": "55.401778",
			"place_lon": "10.386002",
			"duration_min": "70.0",
			"duration_max": "130.0",
			"duration_median": "70.0",
			"duration_count": "7"
		},
		{
			"place_id": "france_19",
			"place_name": "Paris",
			"place_lat": "48.8404960",
			"place_lon": "2.36707900",
			"duration_min": "1140.0",
			"duration_max": "1140.0",
			"duration_median": "1140.0",
			"duration_count": "1"
		},
		{
			"place_id": "netherlands_2",
			"place_name": "Rotterdam",
			"place_lat": "51.924804",
			"place_lon": "4.468771",
			"duration_min": "850.0",
			"duration_max": "850.0",
			"duration_median": "850.0",
			"duration_count": "1"
		},
		{
			"place_id": "netherlands_4",
			"place_name": "Den Haag",
			"place_lat": "52.080408",
			"place_lon": "4.325169",
			"duration_min": "815.0",
			"duration_max": "815.0",
			"duration_median": "815.0",
			"duration_count": "1"
		},
		{
			"place_id": "netherlands_9",
			"place_name": "Groningen",
			"place_lat": "53.210684",
			"place_lon": "6.564274",
			"duration_min": "580.0",
			"duration_max": "580.0",
			"duration_median": "580.0",
			"duration_count": "1"
		},
		{
			"place_id": "norway_2",
			"place_name": "Oslo",
			"place_lat": "59.909527",
			"place_lon": "10.781842",
			"duration_min": "545.0",
			"duration_max": "550.0",
			"duration_median": "547.5",
			"duration_count": "2"
		},
		{
			"place_id": "poland_1",
			"place_name": "Krakow",
			"place_lat": "50.069934",
			"place_lon": "19.940546",
			"duration_min": "1000.0",
			"duration_max": "1000.0",
			"duration_median": "1000.0",
			"duration_count": "1"
		},
		{
			"place_id": "poland_3",
			"place_name": "Wroclaw",
			"place_lat": "51.098075",
			"place_lon": "17.037084",
			"duration_min": "770.0",
			"duration_max": "770.0",
			"duration_median": "770.0",
			"duration_count": "1"
		},
		{
			"place_id": "sweden_1",
			"place_name": "Stockholm",
			"place_lat": "59.330963",
			"place_lon": "18.066134",
			"duration_min": "565.0",
			"duration_max": "590.0",
			"duration_median": "570.0",
			"duration_count": "3"
		},
		{
			"place_id": "sweden_3",
			"place_name": "Malmo",
			"place_lat": "55.609231",
			"place_lon": "13.00126",
			"duration_min": "65.0",
			"duration_max": "95.0",
			"duration_median": "75.0",
			"duration_count": "12"
		},
		{
			"place_id": "sweden_5",
			"place_name": "Linkoping",
			"place_lat": "58.416014",
			"place_lon": "15.626677",
			"duration_min": "400.0",
			"duration_max": "410.0",
			"duration_median": "410.0",
			"duration_count": "3"
		}]
	},
	"denmark_10": {
		"place_id": "denmark_10",
		"place_name": "Ribe",
		"place_lat": "55.327635",
		"place_lon": "8.770308",
		"place_brief_desc": "Denmark's oldest town, with a well-preserved medieval center.",
		"place_longer_desc": "Denmark's oldest town, with a well-preserved medieval center. Visitors can visit the Ribe Cathedral, the oldest cathedral in Denmark, and the Ribe Viking Centre, an open-air museum that recreates Viking life.",
		"place_image": "./static/images/ribe.png",
		"place_tags": "history",
		"place_links": "./static/places/ribe.html",
		"place_country": "Denmark"
	},
	"denmark_3": {
		"place_id": "denmark_3",
		"place_name": "Odense",
		"place_lat": "55.401778",
		"place_lon": "10.386002",
		"place_brief_desc": "The birthplace of Hans Christian Andersen and a charming city with a well-preserved medieval center.",
		"place_longer_desc": "The birthplace of Hans Christian Andersen and a charming city with a well-preserved medieval center. Visitors can visit the Hans Christian Andersen Museum and the Odense Cathedral.",
		"place_image": "./static/images/odense.png",
		"place_tags": "history",
		"place_links": "./static/places/odense.html",
		"place_country": "Denmark",
		"hops": [{
			"place_id": "Germany_7",
			"place_name": "Hamburg",
			"place_lat": "53.55711",
			"place_lon": "9.997434",
			"duration_min": "250.0",
			"duration_max": "250.0",
			"duration_median": "250.0",
			"duration_count": "1"
		},
		{
			"place_id": "belgium_3",
			"place_name": "Ghent",
			"place_lat": "51.035627",
			"place_lon": "3.710612",
			"duration_min": "860.0",
			"duration_max": "860.0",
			"duration_median": "860.0",
			"duration_count": "1"
		},
		{
			"place_id": "denmark_1",
			"place_name": "Copenhagen",
			"place_lat": "55.688237",
			"place_lon": "12.578426",
			"duration_min": "69.0",
			"duration_max": "140.0",
			"duration_median": "72.0",
			"duration_count": "17"
		},
		{
			"place_id": "netherlands_2",
			"place_name": "Rotterdam",
			"place_lat": "51.924804",
			"place_lon": "4.468771",
			"duration_min": "715.0",
			"duration_max": "715.0",
			"duration_median": "715.0",
			"duration_count": "1"
		},
		{
			"place_id": "netherlands_4",
			"place_name": "Den Haag",
			"place_lat": "52.080408",
			"place_lon": "4.325169",
			"duration_min": "680.0",
			"duration_max": "680.0",
			"duration_median": "680.0",
			"duration_count": "1"
		}]
	},
	"denmark_4": {
		"place_id": "denmark_4",
		"place_name": "Roskilde",
		"place_lat": "55.639012",
		"place_lon": "12.088855",
		"place_brief_desc": "The former capital of Denmark and a city with a rich Viking heritage.",
		"place_longer_desc": "The former capital of Denmark and a city with a rich Viking heritage. Visitors can visit the Viking Ship Museum, which houses a collection of five well-preserved Viking ships.",
		"place_image": "./static/images/roskilde.png",
		"place_tags": "history",
		"place_links": "./static/places/roskilde.html",
		"place_country": "Denmark"
	},
	"denmark_5": {
		"place_id": "denmark_5",
		"place_name": "Aarhus",
		"place_lat": "56.150076",
		"place_lon": "10.204995",
		"place_brief_desc": "Denmark's second-largest city and a vibrant cultural hub.",
		"place_longer_desc": "Denmark's second-largest city and a vibrant cultural hub. Visitors can enjoy Aarhus' many museums, including the ARoS Aarhus Art Museum and the Moesgaard Museum, as well as its lively waterfront area.",
		"place_image": "./static/images/aarhus.png",
		"place_tags": "history",
		"place_links": "./static/places/aarhus.html",
		"place_country": "Denmark",
		"hops": [{
			"place_id": "Germany_7",
			"place_name": "Hamburg",
			"place_lat": "53.55711",
			"place_lon": "9.997434",
			"duration_min": "280.0",
			"duration_max": "390.0",
			"duration_median": "305.0",
			"duration_count": "3"
		},
		{
			"place_id": "poland_1",
			"place_name": "Krakow",
			"place_lat": "50.069934",
			"place_lon": "19.940546",
			"duration_min": "1060.0",
			"duration_max": "1060.0",
			"duration_median": "1060.0",
			"duration_count": "1"
		},
		{
			"place_id": "poland_3",
			"place_name": "Wroclaw",
			"place_lat": "51.098075",
			"place_lon": "17.037084",
			"duration_min": "835.0",
			"duration_max": "835.0",
			"duration_median": "835.0",
			"duration_count": "1"
		}]
	},
	"denmark_8": {
		"place_id": "denmark_8",
		"place_name": "Skagen",
		"place_lat": "57.724231",
		"place_lon": "10.591279",
		"place_brief_desc": "A picturesque town at the northern tip of Jutland, known for its beautiful beaches, dramatic sand dunes, and picturesque harbor.",
		"place_longer_desc": "A picturesque town at the northern tip of Jutland, known for its beautiful beaches, dramatic sand dunes, and picturesque harbor. Visitors can also visit the Skagen Museum, which houses a collection of art by Danish painters who were inspired by the town's unique light and atmosphere.",
		"place_image": "./static/images/skagen.png",
		"place_tags": "history",
		"place_links": "./static/places/skagen.html",
		"place_country": "Denmark"
	},
	"denmark_9": {
		"place_id": "denmark_9",
		"place_name": "Humlebaek",
		"place_lat": "55.96381",
		"place_lon": "12.532931",
		"place_brief_desc": "A world-renowned museum of modern and contemporary art, located in Humleb\u00e6k, just a short train ride from Copenhagen.",
		"place_longer_desc": "A world-renowned museum of modern and contemporary art, located in Humleb\u00e6k, just a short train ride from Copenhagen.",
		"place_image": "./static/images/humlebaek.png",
		"place_tags": "history",
		"place_links": "./static/places/humlebaek.html",
		"place_country": "Denmark"
	},
	"estonia_1": {
		"place_id": "estonia_1",
		"place_name": "Tallinn",
		"place_lat": "59.437296",
		"place_lon": "24.744777",
		"place_brief_desc": "Estonia's capital and largest city, known for its medieval Old Town, Toompea Castle, and Alexander Nevsky Cathedral.",
		"place_longer_desc": "Tallinn is a charming city with a lot to offer visitors. The Old Town is a UNESCO World Heritage Site and is home to many well-preserved medieval buildings. Visitors can also visit Toompea Castle, the seat of the Estonian Parliament, and Alexander Nevsky Cathedral, one of the largest Orthodox cathedrals in Northern Europe. Tallinn is also a great place to enjoy Estonian cuisine and culture.",
		"place_image": "./static/images/tallinn.png",
		"place_tags": "history",
		"place_links": "./static/places/tallinn.html",
		"place_country": "Estonia",
		"hops": [{
			"place_id": "lithuania_2",
			"place_name": "Kaunas",
			"place_lat": "54.886291",
			"place_lon": "23.931766",
			"duration_min": "515.0",
			"duration_max": "515.0",
			"duration_median": "515.0",
			"duration_count": "1"
		},
		{
			"place_id": "poland_2",
			"place_name": "Warsaw",
			"place_lat": "52.224729",
			"place_lon": "21.001417",
			"duration_min": "875.0",
			"duration_max": "875.0",
			"duration_median": "875.0",
			"duration_count": "1"
		}]
	},
	"finland_1": {
		"place_id": "finland_1",
		"place_name": "Helsinki",
		"place_lat": "60.171742",
		"place_lon": "24.941443",
		"place_brief_desc": "The capital of Finland and a vibrant city with a rich history and culture.",
		"place_longer_desc": "Helsinki is home to many world-famous attractions, including Suomenlinna Fortress, Seurasaari Open-Air Museum, and the Temppeliaukio Church (Rock Church). Visitors can also enjoy the city's many cafes, restaurants, and bars, as well as its vibrant nightlife.",
		"place_image": "./static/images/helsinki.png",
		"place_tags": "history",
		"place_links": "./static/places/helsinki.html",
		"place_country": "Finland"
	},
	"finland_3": {
		"place_id": "finland_3",
		"place_name": "Turku",
		"place_lat": "60.454012",
		"place_lon": "22.252833",
		"place_brief_desc": "Finland's oldest city and a charming town with a well-preserved medieval center.",
		"place_longer_desc": "Turku is home to many attractions, including Turku Cathedral, Turku Castle, and the Aboa Vetus & Ars Nova Museum. Visitors can also enjoy the city's many restaurants, cafes, and shops.",
		"place_image": "./static/images/turku.png",
		"place_tags": "history",
		"place_links": "./static/places/turku.html",
		"place_country": "Finland"
	},
	"finland_4": {
		"place_id": "finland_4",
		"place_name": "Rovaniemi",
		"place_lat": "66.498089",
		"place_lon": "25.705365",
		"place_brief_desc": "The official hometown of Santa Claus and a popular winter destination.",
		"place_longer_desc": "Rovaniemi is home to many attractions, including the Santa Claus Village, the Arktikum Science Museum and Arctic Centre, and the Pilke Science Centre. Visitors can also enjoy many winter activities in Rovaniemi, such as skiing, snowboarding, and reindeer sledding.",
		"place_image": "./static/images/rovaniemi.png",
		"place_tags": "history",
		"place_links": "./static/places/rovaniemi.html",
		"place_country": "Finland"
	},
	"finland_5": {
		"place_id": "finland_5",
		"place_name": "Vaasa",
		"place_lat": "63.097578",
		"place_lon": "21.621736",
		"place_brief_desc": "Town on the eastern edge of the Kvarken",
		"place_longer_desc": "Lake Saimaa is a great place to relax and enjoy the Finnish wilderness. Visitors can swim, fish, boat, and hike in the area. There are also many villages and towns around the lake, where visitors can find restaurants, cafes, and shops.",
		"place_image": "./static/images/vaasa.png",
		"place_tags": "history",
		"place_links": "./static/places/vaasa.html",
		"place_country": "Finland"
	},
	"france_1": {
		"place_id": "france_1",
		"place_name": "Futuroscope",
		"place_lat": "46.6699180",
		"place_lon": "0.37720900",
		"place_brief_desc": "French theme park based upon multimedia, cinematographic, and audiovisual techniques.",
		"place_longer_desc": "French theme park based upon multimedia, cinematographic, and audiovisual techniques. It has several 3D cinemas and a few 4D cinemas along with other attractions and shows, some of which are the only examples in the world",
		"place_image": "./static/images/futuroscope.png",
		"place_tags": "museum|science|kids",
		"place_links": "./static/places/futuroscope.html",
		"place_country": "France"
	},
	"france_10": {
		"place_id": "france_10",
		"place_name": "La Rochelle",
		"place_lat": "46.1527030",
		"place_lon": "-1.1452880",
		"place_brief_desc": "La Rochelle, capital of Charente-Maritime and one of the most livable cities in France, is a pretty good place to go and get nautical.",
		"place_longer_desc": "La Rochelle, capital of Charente-Maritime and one of the most livable cities in France, is a pretty good place to go and get nautical.",
		"place_image": "./static/images/la rochelle.png",
		"place_tags": "history",
		"place_links": "./static/places/la rochelle.html",
		"place_country": "France"
	},
	"france_105": {
		"place_id": "france_105",
		"place_name": "Marseille",
		"place_lat": "43.3030300",
		"place_lon": "5.38055500",
		"place_brief_desc": "Second most populated city of France (and third urban area) the biggest Mediterranean port and the economic center of the Provence-Alpes-C\u00f4te d'Azur region.",
		"place_longer_desc": "Marseille (Proven\u00e7al: Marselha) is the second most populated city of France (and third urban area) the biggest Mediterranean port and the economic center of the Provence-Alpes-C\u00f4te d'Azur region. In 2013 the city (with its region) was the European Capital of Culture, a large series of cultural events took place, and several new infrastructures were inaugurated.",
		"place_image": "./static/images/marseille.png",
		"place_tags": "history|sea|city break",
		"place_links": "./static/places/marseille.html",
		"place_country": "France",
		"hops": [{
			"place_id": "Germany_4",
			"place_name": "Munich",
			"place_lat": "48.140364",
			"place_lon": "11.558744",
			"duration_min": "890.0",
			"duration_max": "890.0",
			"duration_median": "890.0",
			"duration_count": "1"
		},
		{
			"place_id": "france_123",
			"place_name": "Montpellier",
			"place_lat": "43.6047800",
			"place_lon": "3.88116800",
			"duration_min": "145.0",
			"duration_max": "145.0",
			"duration_median": "145.0",
			"duration_count": "1"
		},
		{
			"place_id": "france_152",
			"place_name": "Avignon",
			"place_lat": "43.941304",
			"place_lon": "4.805256",
			"duration_min": "34.0",
			"duration_max": "38.0",
			"duration_median": "34.0",
			"duration_count": "9"
		},
		{
			"place_id": "france_162",
			"place_name": "Strasbourg",
			"place_lat": "48.585339",
			"place_lon": "7.734067",
			"duration_min": "330.0",
			"duration_max": "334.0",
			"duration_median": "330.0",
			"duration_count": "9"
		},
		{
			"place_id": "france_93",
			"place_name": "Lyon",
			"place_lat": "45.7605960",
			"place_lon": "4.85940900",
			"duration_min": "101.0",
			"duration_max": "245.0",
			"duration_median": "103.0",
			"duration_count": "10"
		}]
	},
	"france_106": {
		"place_id": "france_106",
		"place_name": "Arles",
		"place_lat": "43.6853590",
		"place_lon": "4.63210900",
		"place_brief_desc": "Arles, spiritual capital of Provence and home to Roman remains",
		"place_longer_desc": "Arles, spiritual capital of Provence, is located where the mighty Rh\u00f4ne meets the Camargue and was founded by the veterans of Julius Caesar's crack Sixth legion. And while it has world class Roman buildings (that are still in active use today), it's probably more famous for being the place where Vincent Van Gogh came in search of light - the art world hasn't been the same since.",
		"place_image": "./static/images/arles.png",
		"place_tags": "history|art",
		"place_links": "./static/places/arles.html",
		"place_country": "France"
	},