{"place_id": "austria_5", "place_name": "Bregenz", "place_lat": "47.503001", "place_lon": "9.739623", "place_brief_desc": "The capital of Vorarlberg, Bregenz is a scenic city on the shores of Lake Constance. You can enjoy the lake views and activities, such as swimming, boating, or cycling along the shore. You can also visit the Bregenz Festival, which features opera performances on a floating stage on the lake every summer. Bregenz is also close to some of the most beautiful alpine regions in Austria, such as the Bregenzerwald or the Arlberg.", "place_longer_desc": "../static/places/bregenz.html", "place_image": "../static/images/bregenz.png", "place_tags": "history", "place_links": "https://www.lonelyplanet.com/search?q=Bregenz", "place_country": "Austria", "hops": {"Germany_4": {"to_place_id": "Germany_4", "to_place_name": "Munich", "to_lat": "48.140364", "to_lon": "11.558744", "journeys": [7320, 7320, 7320], "duration_median": 7320, "duration_min": 7320, "duration_max": 7320}, "czechia_1": {"to_place_id": "czechia_1", "to_place_name": "Prague", "to_lat": "50.081926", "to_lon": "14.451481", "journeys": [36840, 36840], "duration_median": 36840.0, "duration_min": 36840, "duration_max": 36840}, "czechia_10": {"to_place_id": "czechia_10", "to_place_name": "Ceske Budejovice", "to_lat": "48.974616", "to_lon": "14.48875", "journeys": [30420], "duration_median": 30420, "duration_min": 30420, "duration_max": 30420}, "austria_1": {"to_place_id": "austria_1", "to_place_name": "Vienna", "to_lat": "48.207037", "to_lon": "16.341553", "journeys": [32280, 39300, 35880, 32280, 39300, 35880], "duration_median": 35880.0, "duration_min": 32280, "duration_max": 39300}, "austria_2": {"to_place_id": "austria_2", "to_place_name": "Salzburg", "to_lat": "47.813848", "to_lon": "13.045514", "journeys": [19260, 20340, 22860], "duration_median": 20340, "duration_min": 19260, "duration_max": 22860}, "austria_3": {"to_place_id": "austria_3", "to_place_name": "Graz", "to_lat": "47.072301", "to_lon": "15.416437", "journeys": [36420, 46440, 36420], "duration_median": 36420, "duration_min": 36420, "duration_max": 46440}, "switzerland_6": {"to_place_id": "switzerland_6", "to_place_name": "Zurich", "to_lat": "47.378968", "to_lon": "8.540534", "journeys": [10380, 7740, 5220, 10380, 7740, 5220], "duration_median": 7740.0, "duration_min": 5220, "duration_max": 10380}}}