{"place_id": "bulgaria_1", "place_name": "Sofia", "place_lat": "42.712209", "place_lon": "23.321039", "place_brief_desc": "Sofia is the capital and largest city of Bulgaria.", "place_longer_desc": "Sofia is the capital and largest city of Bulgaria, and a good starting point for your train journey. Sofia has many historical and cultural sights, such as the Alexander Nevsky Cathedral, the National Palace of Culture, and the Boyana Church. You can also enjoy the lively nightlife, the green parks, and the diverse cuisine of Sofia.", "place_image": "./static/images/sofia.png", "place_tags": "history", "place_links": "./static/places/sofia.html", "place_country": "Bulgaria", "hops": [{"place_id": "Germany_4", "place_name": "Munich", "place_lat": "48.140364", "place_lon": "11.558744", "duration_min": "1315.0", "duration_max": "1315.0", "duration_median": "1315.0", "duration_count": "1"}, {"place_id": "bulgaria_2", "place_name": "Plovdiv", "place_lat": "42.134068", "place_lon": "24.740247", "duration_min": "150.0", "duration_max": "150.0", "duration_median": "150.0", "duration_count": "1"}, {"place_id": "croatia_1", "place_name": "Zagreb", "place_lat": "45.807411", "place_lon": "15.990291", "duration_min": "760.0", "duration_max": "760.0", "duration_median": "760.0", "duration_count": "1"}, {"place_id": "slovenia_1", "place_name": "Ljubljana", "place_lat": "46.058687", "place_lon": "14.51294", "duration_min": "930.0", "duration_max": "930.0", "duration_median": "930.0", "duration_count": "1"}]}