{"place_id": "czechia_10", "place_name": "Ceske Budejovice", "place_lat": "48.974616", "place_lon": "14.48875", "place_brief_desc": "A city in Southern Bohemia, Ceske Budejovice - original home of Budweiser is another place where you can take civilised strolls around the town in a mild fug of beer fumes.", "place_longer_desc": "A city in Southern Bohemia, Ceske Budejovice - original home of Budweiser is another place where you can take civilised strolls around the town in a mild fug of beer fumes.", "place_image": "./static/images/ceske budejovice.png", "place_tags": "history", "place_links": "./static/places/ceske budejovice.html", "place_country": "Czechia", "hops": [{"place_id": "Germany_2", "place_name": "Dresden", "place_lat": "51.040221", "place_lon": "13.731409", "duration_min": "270.0", "duration_max": "295.0", "duration_median": "282.5", "duration_count": "4"}, {"place_id": "Germany_4", "place_name": "Munich", "place_lat": "48.140364", "place_lon": "11.558744", "duration_min": "365.0", "duration_max": "365.0", "duration_median": "365.0", "duration_count": "1"}, {"place_id": "czechia_1", "place_name": "Prague", "place_lat": "50.081926", "place_lon": "14.451481", "duration_min": "135.0", "duration_max": "135.0", "duration_median": "135.0", "duration_count": "2"}, {"place_id": "czechia_2", "place_name": "Cesky Krumlov", "place_lat": "48.822429", "place_lon": "14.317299", "duration_min": "25.0", "duration_max": "25.0", "duration_median": "25.0", "duration_count": "1"}, {"place_id": "czechia_5", "place_name": "Brno", "place_lat": "49.190537", "place_lon": "16.612776", "duration_min": "220.0", "duration_max": "220.0", "duration_median": "220.0", "duration_count": "1"}, {"place_id": "czechia_8", "place_name": "Telc", "place_lat": "49.1826", "place_lon": "15.464278", "duration_min": "105.0", "duration_max": "105.0", "duration_median": "105.0", "duration_count": "1"}, {"place_id": "slovenia_1", "place_name": "Ljubljana", "place_lat": "46.058687", "place_lon": "14.51294", "duration_min": "448.0", "duration_max": "448.0", "duration_median": "448.0", "duration_count": "2"}, {"place_id": "slovenia_2", "place_name": "Bled", "place_lat": "46.368302", "place_lon": "14.082303", "duration_min": "386.0", "duration_max": "386.0", "duration_median": "386.0", "duration_count": "2"}]}