{"place_id": "czechia_10", "place_name": "Ceske Budejovice", "place_lat": "48.974616", "place_lon": "14.48875", "place_brief_desc": "A city in Southern Bohemia, Ceske Budejovice - original home of Budweiser is another place where you can take civilised strolls around the town in a mild fug of beer fumes.", "place_longer_desc": "../static/places/ceske budejovice.html", "place_image": "../static/images/ceske budejovice.png", "place_tags": "history", "place_links": "https://www.lonelyplanet.com/search?q=Ceske Budejovice", "place_country": "Czechia", "hops": {"czechia_1": {"place_id": "czechia_1", "place_name": "Prague", "place_lat": "50.081926", "place_lon": "14.451481", "journeys": [7380, 6120, 6120, 7380, 6120, 6120], "duration_median": 6120.0, "duration_min": 6120, "duration_max": 7380}, "czechia_2": {"place_id": "czechia_2", "place_name": "Cesky Krumlov", "place_lat": "48.822429", "place_lon": "14.317299", "journeys": [2820, 2760, 2640], "duration_median": 2760, "duration_min": 2640, "duration_max": 2820}, "czechia_6": {"place_id": "czechia_6", "place_name": "Pilsen", "place_lat": "49.746889", "place_lon": "13.377351", "journeys": [6780, 6780, 6780, 6780, 6780, 6780], "duration_median": 6780.0, "duration_min": 6780, "duration_max": 6780}, "switzerland_6": {"place_id": "switzerland_6", "place_name": "Zurich", "place_lat": "47.378968", "place_lon": "8.540534", "journeys": [58980, 55380, 48180, 58980, 55380, 48180], "duration_median": 55380.0, "duration_min": 48180, "duration_max": 58980}}}