{"place_id": "czechia_6", "place_name": "Pilsen", "place_lat": "49.746889", "place_lon": "13.377351", "place_brief_desc": "The birthplace of the famous Pilsner beer, Pilsen is a city in Western Bohemia that attracts beer lovers from all over the world. You can visit the Pilsner Urquell brewery, the largest brewery museum in Europe, and taste some of the best beers in the world. You can also explore the historical center of Pilsen, with its Gothic cathedral and Renaissance town hall. You can take a direct train from Prague to Pilsen in about an hour and a half.", "place_longer_desc": "../static/places/pilsen.html", "place_image": "../static/images/pilsen.png", "place_tags": "history", "place_links": "https://www.lonelyplanet.com/search?q=Pilsen", "place_country": "Czechia", "hops": {"Germany_4": {"place_id": "Germany_4", "place_name": "Munich", "place_lat": "48.140364", "place_lon": "11.558744", "journeys": [14820, 14820, 14820, 14820, 14820, 14820], "duration_median": 14820.0, "duration_min": 14820, "duration_max": 14820}, "czechia_1": {"place_id": "czechia_1", "place_name": "Prague", "place_lat": "50.081926", "place_lon": "14.451481", "journeys": [4620, 5160, 4620, 4620, 5160, 4620, 4620, 5160, 4620, 4620, 5160, 4620], "duration_median": 4620.0, "duration_min": 4620, "duration_max": 5160}, "czechia_3": {"place_id": "czechia_3", "place_name": "Karlovy Vary", "place_lat": "50.235668", "place_lon": "12.866854", "journeys": [8580, 8580, 8580, 8580, 8580, 8580], "duration_median": 8580.0, "duration_min": 8580, "duration_max": 8580}, "czechia_7": {"place_id": "czechia_7", "place_name": "Olomouc", "place_lat": "49.593128", "place_lon": "17.277932", "journeys": [13680, 13680, 13680, 13680, 13680, 13680], "duration_median": 13680.0, "duration_min": 13680, "duration_max": 13680}, "czechia_10": {"place_id": "czechia_10", "place_name": "Ceske Budejovice", "place_lat": "48.974616", "place_lon": "14.48875", "journeys": [6660, 6660, 6660, 6660, 6660, 6660], "duration_median": 6660.0, "duration_min": 6660, "duration_max": 6660}}}