{"place_id": "czechia_7", "place_name": "Olomouc", "place_lat": "49.593128", "place_lon": "17.277932", "place_brief_desc": "A university town in Eastern Moravia, Olomouc is often overlooked by tourists but has a lot to offer. Olomouc has one of the largest historical centers in the country, with many Baroque fountains, churches, and palaces. You can also admire the Holy Trinity Column, a UNESCO World Heritage Site and one of the largest sculptures in Europe. You can take a direct train from Prague to Olomouc in about two hours.", "place_longer_desc": "./static/places/olomouc.html", "place_image": "./static/images/olomouc.png", "place_tags": "history", "place_links": "https://www.lonelyplanet.com/search?q=Olomouc", "place_country": "Czechia", "hops": {"czechia_1": {"place_id": "czechia_1", "place_name": "Prague", "place_lat": "50.081926", "place_lon": "14.451481", "journeys": [8880, 9000, 9960, 8460, 8880, 9000, 9960, 8460], "duration_median": 8940.0, "duration_min": 8460, "duration_max": 9960}, "czechia_3": {"place_id": "czechia_3", "place_name": "Karlovy Vary", "place_lat": "50.235668", "place_lon": "12.866854", "journeys": [21360, 21360, 21360], "duration_median": 21360, "duration_min": 21360, "duration_max": 21360}, "czechia_5": {"place_id": "czechia_5", "place_name": "Brno", "place_lat": "49.190537", "place_lon": "16.612776", "journeys": [5760, 7980, 5700], "duration_median": 5760, "duration_min": 5700, "duration_max": 7980}, "czechia_6": {"place_id": "czechia_6", "place_name": "Pilsen", "place_lat": "49.746889", "place_lon": "13.377351", "journeys": [13440, 13440, 13440, 13440, 13440, 13440], "duration_median": 13440.0, "duration_min": 13440, "duration_max": 13440}}}