{"place_id": "czechia_7", "place_name": "Olomouc", "place_lat": "49.593128", "place_lon": "17.277932", "place_brief_desc": "A university town in Eastern Moravia, Olomouc is often overlooked by tourists but has a lot to offer.", "place_longer_desc": "A university town in Eastern Moravia, Olomouc is often overlooked by tourists but has a lot to offer. Olomouc has one of the largest historical centers in the country, with many Baroque fountains, churches, and palaces. You can also admire the Holy Trinity Column, a UNESCO World Heritage Site and one of the largest sculptures in Europe. You can take a direct train from Prague to Olomouc in about two hours.", "place_image": "./static/images/olomouc.png", "place_tags": "history", "place_links": "./static/places/olomouc.html", "place_country": "Czechia", "hops": [{"place_id": "Germany_3", "place_name": "Nuremberg", "place_lat": "49.450748", "place_lon": "11.077955", "duration_min": "490.0", "duration_max": "490.0", "duration_median": "490.0", "duration_count": "2"}, {"place_id": "Germany_4", "place_name": "Munich", "place_lat": "48.140364", "place_lon": "11.558744", "duration_min": "515.0", "duration_max": "550.0", "duration_median": "532.5", "duration_count": "2"}, {"place_id": "czechia_1", "place_name": "Prague", "place_lat": "50.081926", "place_lon": "14.451481", "duration_min": "210.0", "duration_max": "250.0", "duration_median": "60", "duration_count": "4"}, {"place_id": "czechia_5", "place_name": "Brno", "place_lat": "49.190537", "place_lon": "16.612776", "duration_min": "60.0", "duration_max": "70.0", "duration_median": "12", "duration_count": "6"}, {"place_id": "czechia_6", "place_name": "Pilsen", "place_lat": "49.746889", "place_lon": "13.377351", "duration_min": "300.0", "duration_max": "300.0", "duration_median": "300.0", "duration_count": "1"}, {"place_id": "france_19", "place_name": "Paris", "place_lat": "48.8404960", "place_lon": "2.36707900", "duration_min": "1070.0", "duration_max": "1070.0", "duration_median": "1070.0", "duration_count": "2"}, {"place_id": "poland_1", "place_name": "Krakow", "place_lat": "50.069934", "place_lon": "19.940546", "duration_min": "240.0", "duration_max": "245.0", "duration_median": "245.0", "duration_count": "3"}, {"place_id": "poland_3", "place_name": "Wroclaw", "place_lat": "51.098075", "place_lon": "17.037084", "duration_min": "215.0", "duration_max": "215.0", "duration_median": "215.0", "duration_count": "1"}, {"place_id": "poland_4", "place_name": "Gdansk", "place_lat": "54.365843", "place_lon": "18.64396", "duration_min": "675.0", "duration_max": "675.0", "duration_median": "675.0", "duration_count": "1"}, {"place_id": "poland_6", "place_name": "Poznan", "place_lat": "52.410249", "place_lon": "16.905366", "duration_min": "395.0", "duration_max": "395.0", "duration_median": "395.0", "duration_count": "1"}, {"place_id": "slovakia_1", "place_name": "Bratislava", "place_lat": "48.154135", "place_lon": "17.097852", "duration_min": "270.0", "duration_max": "270.0", "duration_median": "270.0", "duration_count": "1"}, {"place_id": "estonia_1", "place_name": "Tallinn", "place_lat": "59.437296", "place_lon": "24.744777", "duration_min": "1555.0", "duration_max": "1555.0", "duration_median": "1555.0", "duration_count": "1"}, {"place_id": "lithuania_1", "place_name": "Vilnius", "place_lat": "54.670236", "place_lon": "25.282908", "duration_min": "995.0", "duration_max": "1010.0", "duration_median": "1002.5", "duration_count": "2"}, {"place_id": "poland_2", "place_name": "Warsaw", "place_lat": "52.224729", "place_lon": "21.001417", "duration_min": "420.0", "duration_max": "420.0", "duration_median": "420.0", "duration_count": "1"}]}