{"place_id": "denmark_4", "place_name": "Roskilde", "place_lat": "55.639012", "place_lon": "12.088855", "place_brief_desc": "The former capital of Denmark and a city with a rich Viking heritage.", "place_longer_desc": "The former capital of Denmark and a city with a rich Viking heritage. Visitors can visit the Viking Ship Museum, which houses a collection of five well-preserved Viking ships.", "place_image": "./static/images/roskilde.png", "place_tags": "history", "place_links": "./static/places/roskilde.html", "place_country": "Denmark", "hops": [{"place_id": "denmark_1", "place_name": "Copenhagen", "place_lat": "55.688237", "place_lon": "12.578426", "duration_min": "15.0", "duration_max": "85.0", "duration_median": "29.0", "duration_count": "4608"}, {"place_id": "denmark_3", "place_name": "Odense", "place_lat": "55.401778", "place_lon": "10.386002", "duration_min": "54.0", "duration_max": "97.0", "duration_median": "75.0", "duration_count": "604"}, {"place_id": "denmark_5", "place_name": "Aarhus", "place_lat": "56.150076", "place_lon": "10.204995", "duration_min": "143.0", "duration_max": "263.0", "duration_median": "190.0", "duration_count": "166"}, {"place_id": "denmark_9", "place_name": "Humlebaek", "place_lat": "55.96381", "place_lon": "12.532931", "duration_min": "58.0", "duration_max": "97.0", "duration_median": "68.0", "duration_count": "468"}]}