{"place_id": "estonia_1", "place_name": "Tallinn", "place_lat": "59.437296", "place_lon": "24.744777", "place_brief_desc": "Estonia's capital and largest city, known for its medieval Old Town, Toompea Castle, and Alexander Nevsky Cathedral.", "place_longer_desc": "Tallinn is a charming city with a lot to offer visitors. The Old Town is a UNESCO World Heritage Site and is home to many well-preserved medieval buildings. Visitors can also visit Toompea Castle, the seat of the Estonian Parliament, and Alexander Nevsky Cathedral, one of the largest Orthodox cathedrals in Northern Europe. Tallinn is also a great place to enjoy Estonian cuisine and culture.", "place_image": "./static/images/tallinn.png", "place_tags": "history", "place_links": "./static/places/tallinn.html", "place_country": "Estonia", "hops": [{"place_id": "lithuania_2", "place_name": "Kaunas", "place_lat": "54.886291", "place_lon": "23.931766", "duration_min": "515.0", "duration_max": "515.0", "duration_median": "515.0", "duration_count": "1"}, {"place_id": "poland_2", "place_name": "Warsaw", "place_lat": "52.224729", "place_lon": "21.001417", "duration_min": "875.0", "duration_max": "985.0", "duration_median": "492", "duration_count": "2"}, {"place_id": "czechia_1", "place_name": "Prague", "place_lat": "50.081926", "place_lon": "14.451481", "duration_min": "1665.0", "duration_max": "1665.0", "duration_median": "1665.0", "duration_count": "1"}, {"place_id": "czechia_5", "place_name": "Brno", "place_lat": "49.190537", "place_lon": "16.612776", "duration_min": "1495.0", "duration_max": "1495.0", "duration_median": "1495.0", "duration_count": "1"}, {"place_id": "czechia_7", "place_name": "Olomouc", "place_lat": "49.593128", "place_lon": "17.277932", "duration_min": "1420.0", "duration_max": "1420.0", "duration_median": "1420.0", "duration_count": "1"}, {"place_id": "lithuania_1", "place_name": "Vilnius", "place_lat": "54.670236", "place_lon": "25.282908", "duration_min": "520.0", "duration_max": "542.0", "duration_median": "531.0", "duration_count": "2"}]}