{"place_id": "france_2", "place_name": "Versailles", "place_lat": "48.7956490", "place_lon": "2.13592400", "place_brief_desc": "Famed for its royal residence built by King Louis XIV is a must see for most.", "place_longer_desc": "Versailles, famed for its royal residence built by King Louis XIV is a must see for most.", "place_image": "./static/images/versailles.png", "place_tags": "museum|history|kids| culture", "place_links": "./static/places/versailles.html", "place_country": "France", "hops": [{"place_id": "france_105", "place_name": "Marseille", "place_lat": "43.3030300", "place_lon": "5.38055500", "duration_min": "253.0", "duration_max": "261.0", "duration_median": "253.0", "duration_count": "13"}, {"place_id": "france_152", "place_name": "Avignon", "place_lat": "43.941304", "place_lon": "4.805256", "duration_min": "221.0", "duration_max": "229.0", "duration_median": "221.0", "duration_count": "13"}, {"place_id": "france_93", "place_name": "Lyon", "place_lat": "45.7605960", "place_lon": "4.85940900", "duration_min": "139.0", "duration_max": "151.0", "duration_median": "140.0", "duration_count": "13"}, {"place_id": "france_4", "place_name": "Chartres", "place_lat": "48.4486280", "place_lon": "1.48120200", "duration_min": "41.0", "duration_max": "65.0", "duration_median": "50.5", "duration_count": "120"}]}