{"place_id": "france_145", "place_name": "Perpignan", "place_lat": "42.6960790", "place_lon": "2.87962200", "place_brief_desc": "Once the continental capital of the Kingdom of Majorca.", "place_longer_desc": "Perpignan is home to about 120,000 people, and has two rivers flowing through it; with the T\u00eat to the north, and the Basse through the centre. Once the continental capital of the Kingdom of Majorca, Perpignan has been an economical and educational centre for centuries, and this is evident in its architecture.", "place_image": "./static/images/perpignan.png", "place_tags": "history|skiing", "place_links": "./static/places/perpignan.html", "place_country": "France", "hops": [{"place_id": "france_123", "place_name": "Montpellier", "place_lat": "43.6047800", "place_lon": "3.88116800", "duration_min": "94.0", "duration_max": "126.0", "duration_median": "37", "duration_count": "115"}, {"place_id": "france_19", "place_name": "Paris", "place_lat": "48.8404960", "place_lon": "2.36707900", "duration_min": "300.0", "duration_max": "690.0", "duration_median": "298", "duration_count": "43"}, {"place_id": "france_28", "place_name": "Limoges", "place_lat": "45.8372180", "place_lon": "1.26900800", "duration_min": "389.0", "duration_max": "389.0", "duration_median": "389.0", "duration_count": "1"}, {"place_id": "france_38", "place_name": "Toulouse", "place_lat": "43.6114370", "place_lon": "1.45423700", "duration_min": "145.0", "duration_max": "180.0", "duration_median": "150", "duration_count": "33"}, {"place_id": "france_93", "place_name": "Lyon", "place_lat": "45.7605960", "place_lon": "4.85940900", "duration_min": "208.0", "duration_max": "415.0", "duration_median": "37", "duration_count": "12"}, {"place_id": "france_105", "place_name": "Marseille", "place_lat": "43.3030300", "place_lon": "5.38055500", "duration_min": "211.0", "duration_max": "212.0", "duration_median": "211.0", "duration_count": "44"}, {"place_id": "france_125", "place_name": "Nimes", "place_lat": "43.8323870", "place_lon": "4.36608100", "duration_min": "124.0", "duration_max": "180.0", "duration_median": "43", "duration_count": "106"}, {"place_id": "france_127", "place_name": "Narbonne", "place_lat": "43.1906640", "place_lon": "3.00556200", "duration_min": "34.0", "duration_max": "80.0", "duration_median": "24", "duration_count": "202"}, {"place_id": "france_152", "place_name": "Avignon", "place_lat": "43.941304", "place_lon": "4.805256", "duration_min": "172.0", "duration_max": "204.0", "duration_median": "45", "duration_count": "57"}, {"place_id": "spain_1", "place_name": "Barcelona", "place_lat": "41.37922", "place_lon": "2.140624", "duration_min": "79.0", "duration_max": "90.0", "duration_median": "11", "duration_count": "88"}, {"place_id": "spain_104", "place_name": "Figueres", "place_lat": "42.2647710", "place_lon": "2.94354700", "duration_min": "21.0", "duration_max": "25.0", "duration_median": "3", "duration_count": "88"}, {"place_id": "spain_105", "place_name": "Girona", "place_lat": "41.9793030", "place_lon": "2.81700600", "duration_min": "38.0", "duration_max": "42.0", "duration_median": "5", "duration_count": "88"}, {"place_id": "spain_55", "place_name": "Zaragoza", "place_lat": "41.658649", "place_lon": "-0.911615", "duration_min": "183.0", "duration_max": "183.0", "duration_median": "183.0", "duration_count": "36"}, {"place_id": "Germany_6", "place_name": "Freiburg", "place_lat": "47.997974", "place_lon": "7.841344", "duration_min": "695.0", "duration_max": "750.0", "duration_median": "722.5", "duration_count": "2"}, {"place_id": "Germany_8", "place_name": "Heidelberg", "place_lat": "49.403582", "place_lon": "8.67548", "duration_min": "955.0", "duration_max": "955.0", "duration_median": "955.0", "duration_count": "1"}, {"place_id": "france_162", "place_name": "Strasbourg", "place_lat": "48.585339", "place_lon": "7.734067", "duration_min": "765.0", "duration_max": "820.0", "duration_median": "792.5", "duration_count": "2"}, {"place_id": "belgium_1", "place_name": "Brussels", "place_lat": "50.835375", "place_lon": "4.335695", "duration_min": "497.0", "duration_max": "497.0", "duration_median": "497.0", "duration_count": "2"}, {"place_id": "france_124", "place_name": "Sete", "place_lat": "43.4128080", "place_lon": "3.69641000", "duration_min": "79.0", "duration_max": "102.0", "duration_median": "45", "duration_count": "79"}, {"place_id": "france_155", "place_name": "Lille", "place_lat": "50.64501", "place_lon": "3.082257", "duration_min": "436.0", "duration_max": "440.0", "duration_median": "438.0", "duration_count": "2"}, {"place_id": "france_163", "place_name": "Arras", "place_lat": "50.286889", "place_lon": "2.781829", "duration_min": "407.0", "duration_max": "407.0", "duration_median": "407.0", "duration_count": "2"}, {"place_id": "france_148", "place_name": "Collioure", "place_lat": "42.5269200", "place_lon": "3.07824800", "duration_min": "19.0", "duration_max": "74.0", "duration_median": "23.0", "duration_count": "170"}, {"place_id": "france_159", "place_name": "Tarascon", "place_lat": "43.801172", "place_lon": "4.656925", "duration_min": "173.0", "duration_max": "188.0", "duration_median": "181.5", "duration_count": "26"}, {"place_id": "france_72", "place_name": "Carcassonne", "place_lat": "43.2181650", "place_lon": "2.35243000", "duration_min": "82.0", "duration_max": "100.0", "duration_median": "92.0", "duration_count": "40"}, {"place_id": "spain_806", "place_name": "Portbou", "place_lat": "42.4244940", "place_lon": "3.15785800", "duration_min": "34.0", "duration_max": "107.0", "duration_median": "38.0", "duration_count": "149"}]}