{"place_id": "france_145", "place_name": "Perpignan", "place_lat": "42.6960790", "place_lon": "2.87962200", "place_brief_desc": "Perpignan is home to about 120,000 people, and has two rivers flowing through it; with the T\u00c3\u00aat to the north, and the Basse through the centre. Once the continental capital of the Kingdom of Majorca, Perpignan has been an economical and educational centre for centuries, and this is evident in its architecture.", "place_longer_desc": "../static/places/perpignan.html", "place_image": "../static/images/perpignan.png", "place_tags": "history|skiing", "place_links": "https://www.lonelyplanet.com/search?q=Perpignan", "place_country": "France", "hops": {"france_19": {"to_place_id": "france_19", "to_place_name": "Paris", "to_lat": "48.861496", "to_lon": "2.333681", "journeys": [18840, 18840, 18840, 18840, 18840, 18840], "duration_median": 18840.0, "duration_min": 18840, "duration_max": 18840}, "france_38": {"to_place_id": "france_38", "to_place_name": "Toulouse", "to_lat": "43.611409", "to_lon": "1.453942", "journeys": [8700, 9960, 9240], "duration_median": 9240, "duration_min": 8700, "duration_max": 9960}, "france_72": {"to_place_id": "france_72", "to_place_name": "Carcassonne", "to_lat": "43.218185", "to_lon": "2.351794", "journeys": [4920, 6000, 5520], "duration_median": 5520, "duration_min": 4920, "duration_max": 6000}, "france_93": {"to_place_id": "france_93", "to_place_name": "Lyon", "to_lat": "45.702255", "to_lon": "4.863811", "journeys": [13320, 12480, 13320, 13320, 12480, 13320], "duration_median": 13320.0, "duration_min": 12480, "duration_max": 13320}, "france_105": {"to_place_id": "france_105", "to_place_name": "Marseille", "to_lat": "43.303816", "to_lon": "5.38195", "journeys": [12720, 12720, 12720], "duration_median": 12720, "duration_min": 12720, "duration_max": 12720}, "france_123": {"to_place_id": "france_123", "to_place_name": "Montpellier", "to_lat": "43.599651", "to_lon": "3.899979", "journeys": [5940, 6360, 6840], "duration_median": 6360, "duration_min": 5940, "duration_max": 6840}, "france_124": {"to_place_id": "france_124", "to_place_name": "Sete", "to_lat": "43.412811", "to_lon": "3.696535", "journeys": [4800, 5100, 5700], "duration_median": 5100, "duration_min": 4800, "duration_max": 5700}, "france_125": {"to_place_id": "france_125", "to_place_name": "Nimes", "to_lat": "43.821397", "to_lon": "4.441912", "journeys": [7860, 8160, 9180, 7860, 8160, 9180, 9840, 7620, 10020], "duration_median": 8160, "duration_min": 7620, "duration_max": 10020}, "france_127": {"to_place_id": "france_127", "to_place_name": "Narbonne", "to_lat": "43.1904", "to_lon": "3.006011", "journeys": [2520, 2100, 2280], "duration_median": 2280, "duration_min": 2100, "duration_max": 2520}, "france_148": {"to_place_id": "france_148", "to_place_name": "Collioure", "to_lat": "42.526906", "to_lon": "3.078077", "journeys": [1140, 1260, 1140], "duration_median": 1140, "duration_min": 1140, "duration_max": 1260}, "france_151": {"to_place_id": "france_151", "to_place_name": "Cerbere", "to_lat": "42.441661", "to_lon": "3.163187", "journeys": [2220, 2400, 2220], "duration_median": 2220, "duration_min": 2220, "duration_max": 2400}, "france_163": {"to_place_id": "france_163", "to_place_name": "Arras", "to_lat": "50.286889", "to_lon": "2.781829", "journeys": [24420, 24420], "duration_median": 24420.0, "duration_min": 24420, "duration_max": 24420}, "spain_1": {"to_place_id": "spain_1", "to_place_name": "Barcelona", "to_lat": "41.378911", "to_lon": "2.140368", "journeys": [4740, 5400, 4980], "duration_median": 4980, "duration_min": 4740, "duration_max": 5400}, "spain_19": {"to_place_id": "spain_19", "to_place_name": "Tarragona", "to_lat": "41.192026", "to_lon": "1.271587", "journeys": [7260, 7260, 7260], "duration_median": 7260, "duration_min": 7260, "duration_max": 7260}, "spain_20": {"to_place_id": "spain_20", "to_place_name": "Madrid", "to_lat": "40.472151", "to_lon": "-3.68235", "journeys": [16560, 16560, 16560, 15960, 15960, 15960], "duration_median": 16260.0, "duration_min": 15960, "duration_max": 16560}, "spain_55": {"to_place_id": "spain_55", "to_place_name": "Zaragoza", "to_lat": "41.65844", "to_lon": "-0.909906", "journeys": [10980, 10980, 10980], "duration_median": 10980, "duration_min": 10980, "duration_max": 10980}, "spain_104": {"to_place_id": "spain_104", "to_place_name": "Figueres", "to_lat": "42.26478", "to_lon": "2.943023", "journeys": [1260, 1380, 1500], "duration_median": 1380, "duration_min": 1260, "duration_max": 1500}, "spain_105": {"to_place_id": "spain_105", "to_place_name": "Girona", "to_lat": "41.979517", "to_lon": "2.816482", "journeys": [2280, 2520, 2520], "duration_median": 2520, "duration_min": 2280, "duration_max": 2520}, "spain_806": {"to_place_id": "spain_806", "to_place_name": "Portbou", "to_lat": "42.424725", "to_lon": "3.157848", "journeys": [3060, 3120, 2820], "duration_median": 3060, "duration_min": 2820, "duration_max": 3120}}}