{"place_id": "france_161", "place_name": "Nice", "place_lat": "43.704825", "place_lon": "7.261765", "place_brief_desc": "With its mix of real-city life, old-world opulence, year-round sunshine, vibrant street life and stunning seaside location, no place in France compares with Nice.", "place_longer_desc": "../static/places/nice.html", "place_image": "../static/images/nice.png", "place_tags": "museums|history|kids| culture", "place_links": "https://www.lonelyplanet.com/search?q=avignon", "place_country": "France", "hops": {"france_19": {"to_place_id": "france_19", "to_place_name": "Paris", "to_lat": "48.861496", "to_lon": "2.333681", "journeys": [20700, 21180, 21180, 20700, 21180, 21180], "duration_median": 21180.0, "duration_min": 20700, "duration_max": 21180}, "france_93": {"to_place_id": "france_93", "to_place_name": "Lyon", "to_lat": "45.702255", "to_lon": "4.863811", "journeys": [13620, 15960, 16800, 15960, 16800, 16500], "duration_median": 16230.0, "duration_min": 13620, "duration_max": 16800}, "france_105": {"to_place_id": "france_105", "to_place_name": "Marseille", "to_lat": "43.303816", "to_lon": "5.38195", "journeys": [9480, 9180, 9360], "duration_median": 9360, "duration_min": 9180, "duration_max": 9480}, "france_162": {"to_place_id": "france_162", "to_place_name": "Strasbourg", "to_lat": "48.585339", "to_lon": "7.734067", "journeys": [32040, 32040, 32220], "duration_median": 32040, "duration_min": 32040, "duration_max": 32220}}}