{"place_id": "france_19", "place_name": "Paris", "place_lat": "48.8404960", "place_lon": "2.36707900", "place_brief_desc": "One of the most popular places to visit in the world andwith good reason.", "place_longer_desc": "One of the most popular places to visit in the world andwith good reason.", "place_image": "./static/images/paris.png", "place_tags": "history|kids|city break", "place_links": "./static/places/paris.html", "place_country": "France", "hops": [{"place_id": "france_123", "place_name": "Montpellier", "place_lat": "43.6047800", "place_lon": "3.88116800", "duration_min": "203.0", "duration_max": "580.0", "duration_median": "206", "duration_count": "50"}, {"place_id": "france_145", "place_name": "Perpignan", "place_lat": "42.6960790", "place_lon": "2.87962200", "duration_min": "298.0", "duration_max": "689.0", "duration_median": "285", "duration_count": "41"}, {"place_id": "france_28", "place_name": "Limoges", "place_lat": "45.8372180", "place_lon": "1.26900800", "duration_min": "299.0", "duration_max": "299.0", "duration_median": "299.0", "duration_count": "1"}, {"place_id": "france_38", "place_name": "Toulouse", "place_lat": "43.6114370", "place_lon": "1.45423700", "duration_min": "495.0", "duration_max": "495.0", "duration_median": "495.0", "duration_count": "1"}, {"place_id": "france_93", "place_name": "Lyon", "place_lat": "45.7605960", "place_lon": "4.85940900", "duration_min": "114.0", "duration_max": "360.0", "duration_median": "71", "duration_count": "310"}, {"place_id": "Germany_2", "place_name": "Dresden", "place_lat": "51.040221", "place_lon": "13.731409", "duration_min": "865.0", "duration_max": "1120.0", "duration_median": "1110.0", "duration_count": "5"}, {"place_id": "Germany_3", "place_name": "Nuremberg", "place_lat": "49.450748", "place_lon": "11.077955", "duration_min": "545.0", "duration_max": "615.0", "duration_median": "590.0", "duration_count": "5"}, {"place_id": "Germany_4", "place_name": "Munich", "place_lat": "48.140364", "place_lon": "11.558744", "duration_min": "670.0", "duration_max": "835.0", "duration_median": "727.5", "duration_count": "8"}, {"place_id": "Germany_6", "place_name": "Freiburg", "place_lat": "47.997974", "place_lon": "7.841344", "duration_min": "445.0", "duration_max": "445.0", "duration_median": "445.0", "duration_count": "1"}, {"place_id": "Germany_7", "place_name": "Hamburg", "place_lat": "53.55711", "place_lon": "9.997434", "duration_min": "750.0", "duration_max": "795.0", "duration_median": "780.0", "duration_count": "3"}, {"place_id": "Germany_8", "place_name": "Heidelberg", "place_lat": "49.403582", "place_lon": "8.67548", "duration_min": "400.0", "duration_max": "435.0", "duration_median": "430.0", "duration_count": "3"}, {"place_id": "Germany_9", "place_name": "Aachen", "place_lat": "50.767641", "place_lon": "6.09119", "duration_min": "380.0", "duration_max": "490.0", "duration_median": "430.0", "duration_count": "4"}, {"place_id": "belgium_1", "place_name": "Brussels", "place_lat": "50.835375", "place_lon": "4.335695", "duration_min": "220.0", "duration_max": "325.0", "duration_median": "250.0", "duration_count": "4"}, {"place_id": "croatia_1", "place_name": "Zagreb", "place_lat": "45.807411", "place_lon": "15.990291", "duration_min": "1215.0", "duration_max": "1215.0", "duration_median": "1215.0", "duration_count": "1"}, {"place_id": "czechia_1", "place_name": "Prague", "place_lat": "50.081926", "place_lon": "14.451481", "duration_min": "805.0", "duration_max": "1245.0", "duration_median": "857.5", "duration_count": "8"}, {"place_id": "czechia_5", "place_name": "Brno", "place_lat": "49.190537", "place_lon": "16.612776", "duration_min": "1000.0", "duration_max": "1000.0", "duration_median": "1000.0", "duration_count": "2"}, {"place_id": "czechia_7", "place_name": "Olomouc", "place_lat": "49.593128", "place_lon": "17.277932", "duration_min": "1075.0", "duration_max": "1075.0", "duration_median": "1075.0", "duration_count": "2"}, {"place_id": "denmark_1", "place_name": "Copenhagen", "place_lat": "55.688237", "place_lon": "12.578426", "duration_min": "1155.0", "duration_max": "1155.0", "duration_median": "1155.0", "duration_count": "1"}, {"place_id": "france_15", "place_name": "Saintes", "place_lat": "45.7488860", "place_lon": "-0.6173560", "duration_min": "440.0", "duration_max": "440.0", "duration_median": "440.0", "duration_count": "1"}, {"place_id": "france_155", "place_name": "Lille", "place_lat": "50.64501", "place_lon": "3.082257", "duration_min": "180.0", "duration_max": "180.0", "duration_median": "180.0", "duration_count": "4"}, {"place_id": "france_162", "place_name": "Strasbourg", "place_lat": "48.585339", "place_lon": "7.734067", "duration_min": "340.0", "duration_max": "445.0", "duration_median": "360.0", "duration_count": "11"}, {"place_id": "france_24", "place_name": "Bordeaux", "place_lat": "44.8258230", "place_lon": "-0.5560120", "duration_min": "485.0", "duration_max": "485.0", "duration_median": "485.0", "duration_count": "1"}, {"place_id": "france_6", "place_name": "Rennes", "place_lat": "48.1030710", "place_lon": "-1.6721310", "duration_min": "270.0", "duration_max": "490.0", "duration_median": "490.0", "duration_count": "3"}, {"place_id": "france_83", "place_name": "Bayonne", "place_lat": "43.4970180", "place_lon": "-1.4701940", "duration_min": "630.0", "duration_max": "630.0", "duration_median": "630.0", "duration_count": "1"}, {"place_id": "hungary_7", "place_name": "Gyor", "place_lat": "47.681986", "place_lon": "17.634795", "duration_min": "1140.0", "duration_max": "1185.0", "duration_median": "1162.5", "duration_count": "2"}, {"place_id": "netherlands_8", "place_name": "Maastricht", "place_lat": "50.849811", "place_lon": "5.705876", "duration_min": "365.0", "duration_max": "520.0", "duration_median": "442.5", "duration_count": "2"}, {"place_id": "poland_1", "place_name": "Krakow", "place_lat": "50.069934", "place_lon": "19.940546", "duration_min": "1325.0", "duration_max": "1325.0", "duration_median": "1325.0", "duration_count": "2"}, {"place_id": "poland_2", "place_name": "Warsaw", "place_lat": "52.224729", "place_lon": "21.001417", "duration_min": "1415.0", "duration_max": "1480.0", "duration_median": "1415.0", "duration_count": "3"}, {"place_id": "poland_3", "place_name": "Wroclaw", "place_lat": "51.098075", "place_lon": "17.037084", "duration_min": "1095.0", "duration_max": "1120.0", "duration_median": "1107.5", "duration_count": "4"}, {"place_id": "poland_6", "place_name": "Poznan", "place_lat": "52.410249", "place_lon": "16.905366", "duration_min": "1230.0", "duration_max": "1280.0", "duration_median": "1280.0", "duration_count": "3"}, {"place_id": "romania_3", "place_name": "Sibiu", "place_lat": "45.799977", "place_lon": "24.161575", "duration_min": "1840.0", "duration_max": "1840.0", "duration_median": "1840.0", "duration_count": "1"}, {"place_id": "slovakia_1", "place_name": "Bratislava", "place_lat": "48.154135", "place_lon": "17.097852", "duration_min": "1205.0", "duration_max": "1205.0", "duration_median": "1205.0", "duration_count": "1"}, {"place_id": "slovenia_1", "place_name": "Ljubljana", "place_lat": "46.058687", "place_lon": "14.51294", "duration_min": "1066.0", "duration_max": "1066.0", "duration_median": "1066.0", "duration_count": "1"}, {"place_id": "sweden_3", "place_name": "Malmo", "place_lat": "55.609231", "place_lon": "13.00126", "duration_min": "1240.0", "duration_max": "1240.0", "duration_median": "1240.0", "duration_count": "1"}, {"place_id": "switzerland_6", "place_name": "Zurich", "place_lat": "47.378968", "place_lon": "8.540534", "duration_min": "244.0", "duration_max": "575.0", "duration_median": "200", "duration_count": "11"}, {"place_id": "france_105", "place_name": "Marseille", "place_lat": "43.3030300", "place_lon": "5.38055500", "duration_min": "184.0", "duration_max": "214.0", "duration_median": "198.0", "duration_count": "138"}, {"place_id": "france_106", "place_name": "Arles", "place_lat": "43.6853590", "place_lon": "4.63210900", "duration_min": "242.0", "duration_max": "244.0", "duration_median": "242.0", "duration_count": "15"}, {"place_id": "france_124", "place_name": "Sete", "place_lat": "43.4128080", "place_lon": "3.69641000", "duration_min": "211.0", "duration_max": "230.0", "duration_median": "218.0", "duration_count": "39"}, {"place_id": "france_125", "place_name": "Nimes", "place_lat": "43.8323870", "place_lon": "4.36608100", "duration_min": "174.0", "duration_max": "183.0", "duration_median": "180.0", "duration_count": "48"}, {"place_id": "france_127", "place_name": "Narbonne", "place_lat": "43.1906640", "place_lon": "3.00556200", "duration_min": "260.0", "duration_max": "282.0", "duration_median": "264.0", "duration_count": "39"}, {"place_id": "france_152", "place_name": "Avignon", "place_lat": "43.941304", "place_lon": "4.805256", "duration_min": "154.0", "duration_max": "241.0", "duration_median": "160.0", "duration_count": "150"}, {"place_id": "france_160", "place_name": "Orange", "place_lat": "44.137557", "place_lon": "4.819396", "duration_min": "204.0", "duration_max": "214.0", "duration_median": "204.0", "duration_count": "20"}, {"place_id": "france_161", "place_name": "Nice", "place_lat": "43.704825", "place_lon": "7.261765", "duration_min": "336.0", "duration_max": "362.0", "duration_median": "348.0", "duration_count": "37"}, {"place_id": "spain_1", "place_name": "Barcelona", "place_lat": "41.37922", "place_lon": "2.140624", "duration_min": "389.0", "duration_max": "412.0", "duration_median": "412.0", "duration_count": "11"}, {"place_id": "spain_104", "place_name": "Figueres", "place_lat": "42.2647710", "place_lon": "2.94354700", "duration_min": "331.0", "duration_max": "345.0", "duration_median": "345.0", "duration_count": "11"}, {"place_id": "spain_105", "place_name": "Girona", "place_lat": "41.9793030", "place_lon": "2.81700600", "duration_min": "348.0", "duration_max": "364.0", "duration_median": "364.0", "duration_count": "11"}, {"place_id": "switzerland_3", "place_name": "Geneva", "place_lat": "46.210209", "place_lon": "6.142455", "duration_min": "191.0", "duration_max": "192.0", "duration_median": "192.0", "duration_count": "16"}]}