{"place_id": "france_161", "place_name": "Nice", "place_lat": "43.704825", "place_lon": "7.261765", "place_brief_desc": "With its mix of real-city life, old-world opulence, year-round sunshine, vibrant street life and stunning seaside location, no place in France compares with Nice.", "place_longer_desc": "With its mix of real-city life, old-world opulence, year-round sunshine, vibrant street life and stunning seaside location, no place in France compares with Nice.", "place_image": "./static/images/nice.png", "place_tags": "museums|history|kids| culture", "place_links": "./static/places/nice.html", "place_country": "France", "hops": [{"place_id": "Germany_4", "place_name": "Munich", "place_lat": "48.140364", "place_lon": "11.558744", "duration_min": "705.0", "duration_max": "705.0", "duration_median": "705.0", "duration_count": "1"}, {"place_id": "france_105", "place_name": "Marseille", "place_lat": "43.3030300", "place_lon": "5.38055500", "duration_min": "151.0", "duration_max": "202.0", "duration_median": "87", "duration_count": "147"}, {"place_id": "france_152", "place_name": "Avignon", "place_lat": "43.941304", "place_lon": "4.805256", "duration_min": "171.0", "duration_max": "218.0", "duration_median": "204.0", "duration_count": "57"}, {"place_id": "france_162", "place_name": "Strasbourg", "place_lat": "48.585339", "place_lon": "7.734067", "duration_min": "534.0", "duration_max": "537.0", "duration_median": "534.0", "duration_count": "20"}, {"place_id": "france_19", "place_name": "Paris", "place_lat": "48.8404960", "place_lon": "2.36707900", "duration_min": "334.0", "duration_max": "354.0", "duration_median": "349.0", "duration_count": "41"}, {"place_id": "france_93", "place_name": "Lyon", "place_lat": "45.7605960", "place_lon": "4.85940900", "duration_min": "266.0", "duration_max": "293.0", "duration_median": "277.5", "duration_count": "50"}]}