{"place_id": "france_145", "place_name": "Perpignan", "place_lat": "42.6960790", "place_lon": "2.87962200", "place_brief_desc": "Once the continental capital of the Kingdom of Majorca.", "place_longer_desc": "Perpignan is home to about 120,000 people, and has two rivers flowing through it; with the T\u00eat to the north, and the Basse through the centre. Once the continental capital of the Kingdom of Majorca, Perpignan has been an economical and educational centre for centuries, and this is evident in its architecture.", "place_image": "./static/images/perpignan.png", "place_tags": "history|skiing", "place_links": "./static/places/perpignan.html", "place_country": "France", "hops": [{"place_id": "Germany_6", "place_name": "Freiburg", "place_lat": "47.997974", "place_lon": "7.841344", "duration_min": "695.0", "duration_max": "750.0", "duration_median": "722.5", "duration_count": "2"}, {"place_id": "Germany_8", "place_name": "Heidelberg", "place_lat": "49.403582", "place_lon": "8.67548", "duration_min": "955.0", "duration_max": "955.0", "duration_median": "955.0", "duration_count": "1"}, {"place_id": "france_123", "place_name": "Montpellier", "place_lat": "43.6047800", "place_lon": "3.88116800", "duration_min": "110.0", "duration_max": "120.0", "duration_median": "115.0", "duration_count": "2"}, {"place_id": "france_125", "place_name": "Nimes", "place_lat": "43.8323870", "place_lon": "4.36608100", "duration_min": "180.0", "duration_max": "180.0", "duration_median": "180.0", "duration_count": "1"}, {"place_id": "france_162", "place_name": "Strasbourg", "place_lat": "48.585339", "place_lon": "7.734067", "duration_min": "765.0", "duration_max": "820.0", "duration_median": "792.5", "duration_count": "2"}, {"place_id": "france_93", "place_name": "Lyon", "place_lat": "45.7605960", "place_lon": "4.85940900", "duration_min": "415.0", "duration_max": "415.0", "duration_median": "415.0", "duration_count": "1"}]}