{"place_id": "Germany_4", "place_name": "Munich", "place_lat": "48.140364", "place_lon": "11.558744", "place_brief_desc": "The capital of Bavaria is a popular destination for its Oktoberfest, its beer halls and its fairy-tale castles.", "place_longer_desc": "The capital of Bavaria is a popular destination for its Oktoberfest, its beer halls and its fairy-tale castles. You can enjoy the festive atmosphere at Marienplatz, see the famous Glockenspiel clock, visit the impressive Munich Residenz palace and museum, and take a day trip to Neuschwanstein Castle, one of the most spectacular castles in the world", "place_image": "./static/images/munich.png", "place_tags": "history", "place_links": "./static/places/munich.html", "place_country": "Germany", "hops": [{"place_id": "Germany_1", "place_name": "Berlin", "place_lat": "52.520501", "place_lon": "13.386988", "duration_min": "234.0", "duration_max": "657.0", "duration_median": "296.0", "duration_count": "147"}, {"place_id": "Germany_10", "place_name": "Lubeck", "place_lat": "53.86767", "place_lon": "10.669737", "duration_min": "439.0", "duration_max": "720.0", "duration_median": "444.0", "duration_count": "10"}, {"place_id": "Germany_2", "place_name": "Dresden", "place_lat": "51.040221", "place_lon": "13.731409", "duration_min": "390.0", "duration_max": "410.0", "duration_median": "390.0", "duration_count": "6"}, {"place_id": "Germany_3", "place_name": "Nuremberg", "place_lat": "49.450748", "place_lon": "11.077955", "duration_min": "62.0", "duration_max": "209.0", "duration_median": "20", "duration_count": "684"}, {"place_id": "Germany_5", "place_name": "Cologne", "place_lat": "50.941312", "place_lon": "6.967206", "duration_min": "235.0", "duration_max": "524.0", "duration_median": "38", "duration_count": "392"}, {"place_id": "Germany_6", "place_name": "Freiburg", "place_lat": "47.997974", "place_lon": "7.841344", "duration_min": "244.0", "duration_max": "400.0", "duration_median": "290.0", "duration_count": "22"}, {"place_id": "Germany_7", "place_name": "Hamburg", "place_lat": "53.55711", "place_lon": "9.997434", "duration_min": "356.0", "duration_max": "960.0", "duration_median": "19", "duration_count": "595"}, {"place_id": "Germany_8", "place_name": "Heidelberg", "place_lat": "49.403582", "place_lon": "8.67548", "duration_min": "177.0", "duration_max": "370.0", "duration_median": "180.0", "duration_count": "77"}, {"place_id": "Germany_9", "place_name": "Aachen", "place_lat": "50.767641", "place_lon": "6.09119", "duration_min": "575.0", "duration_max": "600.0", "duration_median": "587.5", "duration_count": "2"}, {"place_id": "austria_2", "place_name": "Salzburg", "place_lat": "47.813848", "place_lon": "13.045514", "duration_min": "86.0", "duration_max": "162.0", "duration_median": "1", "duration_count": "177"}, {"place_id": "austria_4", "place_name": "Innsbruck", "place_lat": "47.263331", "place_lon": "11.400506", "duration_min": "130.0", "duration_max": "150.0", "duration_median": "137.5", "duration_count": "24"}, {"place_id": "austria_5", "place_name": "Bregenz", "place_lat": "47.503001", "place_lon": "9.739623", "duration_min": "145.0", "duration_max": "180.0", "duration_median": "150.0", "duration_count": "6"}, {"place_id": "belgium_12", "place_name": "Hasselt", "place_lat": "50.930876", "place_lon": "5.327062", "duration_min": "665.0", "duration_max": "665.0", "duration_median": "665.0", "duration_count": "1"}, {"place_id": "belgium_4", "place_name": "Antwerp", "place_lat": "51.215807", "place_lon": "4.421165", "duration_min": "800.0", "duration_max": "835.0", "duration_median": "815.0", "duration_count": "4"}, {"place_id": "belgium_7", "place_name": "Namur", "place_lat": "50.468983", "place_lon": "4.862499", "duration_min": "675.0", "duration_max": "675.0", "duration_median": "675.0", "duration_count": "2"}, {"place_id": "bulgaria_1", "place_name": "Sofia", "place_lat": "42.712209", "place_lon": "23.321039", "duration_min": "1295.0", "duration_max": "1295.0", "duration_median": "1295.0", "duration_count": "1"}, {"place_id": "bulgaria_2", "place_name": "Plovdiv", "place_lat": "42.134068", "place_lon": "24.740247", "duration_min": "1460.0", "duration_max": "1460.0", "duration_median": "1460.0", "duration_count": "1"}, {"place_id": "croatia_1", "place_name": "Zagreb", "place_lat": "45.807411", "place_lon": "15.990291", "duration_min": "460.0", "duration_max": "565.0", "duration_median": "510.0", "duration_count": "12"}, {"place_id": "croatia_2", "place_name": "Split", "place_lat": "43.504887", "place_lon": "16.44279", "duration_min": "905.0", "duration_max": "920.0", "duration_median": "912.5", "duration_count": "2"}, {"place_id": "czechia_1", "place_name": "Prague", "place_lat": "50.081926", "place_lon": "14.451481", "duration_min": "290.0", "duration_max": "380.0", "duration_median": "300.0", "duration_count": "17"}, {"place_id": "czechia_10", "place_name": "Ceske Budejovice", "place_lat": "48.974616", "place_lon": "14.48875", "duration_min": "355.0", "duration_max": "355.0", "duration_median": "355.0", "duration_count": "1"}, {"place_id": "czechia_2", "place_name": "Cesky Krumlov", "place_lat": "48.822429", "place_lon": "14.317299", "duration_min": "320.0", "duration_max": "320.0", "duration_median": "320.0", "duration_count": "1"}, {"place_id": "czechia_5", "place_name": "Brno", "place_lat": "49.190537", "place_lon": "16.612776", "duration_min": "440.0", "duration_max": "580.0", "duration_median": "480.0", "duration_count": "3"}, {"place_id": "czechia_6", "place_name": "Pilsen", "place_lat": "49.746889", "place_lon": "13.377351", "duration_min": "235.0", "duration_max": "275.0", "duration_median": "255.0", "duration_count": "2"}, {"place_id": "czechia_7", "place_name": "Olomouc", "place_lat": "49.593128", "place_lon": "17.277932", "duration_min": "505.0", "duration_max": "550.0", "duration_median": "527.5", "duration_count": "2"}, {"place_id": "czechia_8", "place_name": "Telc", "place_lat": "49.1826", "place_lon": "15.464278", "duration_min": "465.0", "duration_max": "465.0", "duration_median": "465.0", "duration_count": "1"}, {"place_id": "denmark_1", "place_name": "Copenhagen", "place_lat": "55.688237", "place_lon": "12.578426", "duration_min": "1030.0", "duration_max": "1030.0", "duration_median": "1030.0", "duration_count": "1"}, {"place_id": "france_105", "place_name": "Marseille", "place_lat": "43.3030300", "place_lon": "5.38055500", "duration_min": "880.0", "duration_max": "880.0", "duration_median": "880.0", "duration_count": "1"}, {"place_id": "france_123", "place_name": "Montpellier", "place_lat": "43.6047800", "place_lon": "3.88116800", "duration_min": "1035.0", "duration_max": "1035.0", "duration_median": "1035.0", "duration_count": "1"}, {"place_id": "france_161", "place_name": "Nice", "place_lat": "43.704825", "place_lon": "7.261765", "duration_min": "710.0", "duration_max": "710.0", "duration_median": "710.0", "duration_count": "1"}, {"place_id": "france_162", "place_name": "Strasbourg", "place_lat": "48.585339", "place_lon": "7.734067", "duration_min": "226.0", "duration_max": "390.0", "duration_median": "59", "duration_count": "23"}, {"place_id": "france_19", "place_name": "Paris", "place_lat": "48.8404960", "place_lon": "2.36707900", "duration_min": "670.0", "duration_max": "820.0", "duration_median": "740.0", "duration_count": "8"}, {"place_id": "france_93", "place_name": "Lyon", "place_lat": "45.7605960", "place_lon": "4.85940900", "duration_min": "705.0", "duration_max": "730.0", "duration_median": "717.5", "duration_count": "2"}, {"place_id": "hungary_7", "place_name": "Gyor", "place_lat": "47.681986", "place_lon": "17.634795", "duration_min": "405.0", "duration_max": "450.0", "duration_median": "405.0", "duration_count": "3"}, {"place_id": "italy_1", "place_name": "Venice", "place_lat": "45.444427", "place_lon": "12.315491", "duration_min": "410.0", "duration_max": "500.0", "duration_median": "477.5", "duration_count": "4"}, {"place_id": "italy_5", "place_name": "Naples", "place_lat": "40.860791", "place_lon": "14.257611", "duration_min": "875.0", "duration_max": "875.0", "duration_median": "875.0", "duration_count": "1"}, {"place_id": "italy_8", "place_name": "Turin", "place_lat": "45.067428", "place_lon": "7.672976", "duration_min": "545.0", "duration_max": "545.0", "duration_median": "545.0", "duration_count": "2"}, {"place_id": "netherlands_2", "place_name": "Rotterdam", "place_lat": "51.924804", "place_lon": "4.468771", "duration_min": "785.0", "duration_max": "815.0", "duration_median": "800.0", "duration_count": "2"}, {"place_id": "netherlands_3", "place_name": "Utrecht", "place_lat": "52.089397", "place_lon": "5.109864", "duration_min": "665.0", "duration_max": "665.0", "duration_median": "665.0", "duration_count": "1"}, {"place_id": "netherlands_4", "place_name": "Den Haag", "place_lat": "52.080408", "place_lon": "4.325169", "duration_min": "820.0", "duration_max": "850.0", "duration_median": "835.0", "duration_count": "2"}, {"place_id": "netherlands_8", "place_name": "Maastricht", "place_lat": "50.849811", "place_lon": "5.705876", "duration_min": "615.0", "duration_max": "615.0", "duration_median": "615.0", "duration_count": "1"}, {"place_id": "poland_1", "place_name": "Krakow", "place_lat": "50.069934", "place_lon": "19.940546", "duration_min": "795.0", "duration_max": "795.0", "duration_median": "795.0", "duration_count": "1"}, {"place_id": "poland_2", "place_name": "Warsaw", "place_lat": "52.224729", "place_lon": "21.001417", "duration_min": "885.0", "duration_max": "910.0", "duration_median": "910.0", "duration_count": "6"}, {"place_id": "poland_3", "place_name": "Wroclaw", "place_lat": "51.098075", "place_lon": "17.037084", "duration_min": "630.0", "duration_max": "650.0", "duration_median": "640.0", "duration_count": "12"}, {"place_id": "poland_4", "place_name": "Gdansk", "place_lat": "54.365843", "place_lon": "18.64396", "duration_min": "1015.0", "duration_max": "1185.0", "duration_median": "1100.0", "duration_count": "2"}, {"place_id": "romania_3", "place_name": "Sibiu", "place_lat": "45.799977", "place_lon": "24.161575", "duration_min": "1120.0", "duration_max": "1120.0", "duration_median": "1120.0", "duration_count": "1"}, {"place_id": "slovakia_1", "place_name": "Bratislava", "place_lat": "48.154135", "place_lon": "17.097852", "duration_min": "400.0", "duration_max": "450.0", "duration_median": "435.0", "duration_count": "9"}, {"place_id": "slovakia_2", "place_name": "Kosice", "place_lat": "48.722918", "place_lon": "21.268721", "duration_min": "810.0", "duration_max": "810.0", "duration_median": "810.0", "duration_count": "1"}, {"place_id": "slovenia_1", "place_name": "Ljubljana", "place_lat": "46.058687", "place_lon": "14.51294", "duration_min": "310.0", "duration_max": "381.0", "duration_median": "355.0", "duration_count": "12"}, {"place_id": "slovenia_2", "place_name": "Bled", "place_lat": "46.368302", "place_lon": "14.082303", "duration_min": "316.0", "duration_max": "316.0", "duration_median": "316.0", "duration_count": "1"}, {"place_id": "switzerland_2", "place_name": "Bern", "place_lat": "46.948834", "place_lon": "7.439131", "duration_min": "405.0", "duration_max": "405.0", "duration_median": "405.0", "duration_count": "2"}, {"place_id": "switzerland_3", "place_name": "Geneva", "place_lat": "46.210209", "place_lon": "6.142455", "duration_min": "560.0", "duration_max": "580.0", "duration_median": "570.0", "duration_count": "2"}, {"place_id": "switzerland_6", "place_name": "Zurich", "place_lat": "47.378968", "place_lon": "8.540534", "duration_min": "230.0", "duration_max": "305.0", "duration_median": "270.0", "duration_count": "16"}]}