{"place_id": "Germany_7", "place_name": "Hamburg", "place_lat": "53.55711", "place_lon": "9.997434", "place_brief_desc": "Germany's second-largest city, its biggest port and party town.", "place_longer_desc": "The city of Hamburg is Germany's second-largest city and its biggest port. You can experience the maritime flair of this cosmopolitan city by visiting the Speicherstadt warehouse district, the Miniatur Wunderland model railway museum, the Elbphilharmonie concert hall and the Fish Market. You can also enjoy the nightlife and entertainment options at the Reeperbahn district, also known as \"the sinful mile\".", "place_image": "./static/images/hamburg.png", "place_tags": "history", "place_links": "./static/places/hamburg.html", "place_country": "Germany", "hops": [{"place_id": "Germany_1", "place_name": "Berlin", "place_lat": "52.520501", "place_lon": "13.386988", "duration_min": "102.0", "duration_max": "264.0", "duration_median": "114.0", "duration_count": "290"}, {"place_id": "Germany_10", "place_name": "Lubeck", "place_lat": "53.86767", "place_lon": "10.669737", "duration_min": "34.0", "duration_max": "105.0", "duration_median": "48.0", "duration_count": "79"}, {"place_id": "Germany_2", "place_name": "Dresden", "place_lat": "51.040221", "place_lon": "13.731409", "duration_min": "249.0", "duration_max": "535.0", "duration_median": "256.0", "duration_count": "74"}, {"place_id": "Germany_3", "place_name": "Nuremberg", "place_lat": "49.450748", "place_lon": "11.077955", "duration_min": "291.0", "duration_max": "579.0", "duration_median": "350.0", "duration_count": "448"}, {"place_id": "Germany_4", "place_name": "Munich", "place_lat": "48.140364", "place_lon": "11.558744", "duration_min": "356.0", "duration_max": "935.0", "duration_median": "470.0", "duration_count": "556"}, {"place_id": "Germany_5", "place_name": "Cologne", "place_lat": "50.941312", "place_lon": "6.967206", "duration_min": "215.0", "duration_max": "342.0", "duration_median": "249.0", "duration_count": "550"}, {"place_id": "Germany_6", "place_name": "Freiburg", "place_lat": "47.997974", "place_lon": "7.841344", "duration_min": "396.0", "duration_max": "655.0", "duration_median": "451.0", "duration_count": "298"}, {"place_id": "Germany_8", "place_name": "Heidelberg", "place_lat": "49.403582", "place_lon": "8.67548", "duration_min": "332.0", "duration_max": "635.0", "duration_median": "399.0", "duration_count": "168"}, {"place_id": "austria_2", "place_name": "Salzburg", "place_lat": "47.813848", "place_lon": "13.045514", "duration_min": "705.0", "duration_max": "722.0", "duration_median": "713.5", "duration_count": "6"}, {"place_id": "belgium_1", "place_name": "Brussels", "place_lat": "50.835375", "place_lon": "4.335695", "duration_min": "485.0", "duration_max": "485.0", "duration_median": "485.0", "duration_count": "1"}, {"place_id": "belgium_3", "place_name": "Ghent", "place_lat": "51.035627", "place_lon": "3.710612", "duration_min": "600.0", "duration_max": "600.0", "duration_median": "600.0", "duration_count": "1"}, {"place_id": "croatia_1", "place_name": "Zagreb", "place_lat": "45.807411", "place_lon": "15.990291", "duration_min": "1221.0", "duration_max": "1221.0", "duration_median": "1221.0", "duration_count": "1"}, {"place_id": "czechia_1", "place_name": "Prague", "place_lat": "50.081926", "place_lon": "14.451481", "duration_min": "550.0", "duration_max": "655.0", "duration_median": "630.0", "duration_count": "12"}, {"place_id": "czechia_5", "place_name": "Brno", "place_lat": "49.190537", "place_lon": "16.612776", "duration_min": "775.0", "duration_max": "805.0", "duration_median": "805.0", "duration_count": "7"}, {"place_id": "denmark_1", "place_name": "Copenhagen", "place_lat": "55.688237", "place_lon": "12.578426", "duration_min": "320.0", "duration_max": "440.0", "duration_median": "357.5", "duration_count": "16"}, {"place_id": "denmark_3", "place_name": "Odense", "place_lat": "55.401778", "place_lon": "10.386002", "duration_min": "265.0", "duration_max": "265.0", "duration_median": "265.0", "duration_count": "1"}, {"place_id": "denmark_5", "place_name": "Aarhus", "place_lat": "56.150076", "place_lon": "10.204995", "duration_min": "280.0", "duration_max": "380.0", "duration_median": "310.0", "duration_count": "3"}, {"place_id": "france_19", "place_name": "Paris", "place_lat": "48.8404960", "place_lon": "2.36707900", "duration_min": "740.0", "duration_max": "820.0", "duration_median": "760.0", "duration_count": "4"}, {"place_id": "hungary_6", "place_name": "Szeged", "place_lat": "46.23981", "place_lon": "20.143181", "duration_min": "1175.0", "duration_max": "1205.0", "duration_median": "1175.0", "duration_count": "3"}, {"place_id": "netherlands_1", "place_name": "Amsterdam", "place_lat": "52.379191", "place_lon": "4.899427", "duration_min": "365.0", "duration_max": "365.0", "duration_median": "365.0", "duration_count": "1"}, {"place_id": "netherlands_2", "place_name": "Rotterdam", "place_lat": "51.924804", "place_lon": "4.468771", "duration_min": "455.0", "duration_max": "515.0", "duration_median": "480.0", "duration_count": "5"}, {"place_id": "netherlands_4", "place_name": "Den Haag", "place_lat": "52.080408", "place_lon": "4.325169", "duration_min": "420.0", "duration_max": "480.0", "duration_median": "450.0", "duration_count": "4"}, {"place_id": "netherlands_9", "place_name": "Groningen", "place_lat": "53.210684", "place_lon": "6.564274", "duration_min": "210.0", "duration_max": "300.0", "duration_median": "265.0", "duration_count": "15"}, {"place_id": "norway_2", "place_name": "Oslo", "place_lat": "59.909527", "place_lon": "10.781842", "duration_min": "900.0", "duration_max": "900.0", "duration_median": "900.0", "duration_count": "1"}, {"place_id": "poland_1", "place_name": "Krakow", "place_lat": "50.069934", "place_lon": "19.940546", "duration_min": "725.0", "duration_max": "745.0", "duration_median": "735.0", "duration_count": "2"}, {"place_id": "poland_2", "place_name": "Warsaw", "place_lat": "52.224729", "place_lon": "21.001417", "duration_min": "675.0", "duration_max": "725.0", "duration_median": "700.0", "duration_count": "2"}, {"place_id": "poland_3", "place_name": "Wroclaw", "place_lat": "51.098075", "place_lon": "17.037084", "duration_min": "495.0", "duration_max": "520.0", "duration_median": "507.5", "duration_count": "2"}, {"place_id": "poland_4", "place_name": "Gdansk", "place_lat": "54.365843", "place_lon": "18.64396", "duration_min": "760.0", "duration_max": "760.0", "duration_median": "760.0", "duration_count": "1"}, {"place_id": "poland_6", "place_name": "Poznan", "place_lat": "52.410249", "place_lon": "16.905366", "duration_min": "445.0", "duration_max": "445.0", "duration_median": "445.0", "duration_count": "1"}, {"place_id": "romania_3", "place_name": "Sibiu", "place_lat": "45.799977", "place_lon": "24.161575", "duration_min": "1645.0", "duration_max": "1645.0", "duration_median": "1645.0", "duration_count": "1"}, {"place_id": "slovakia_1", "place_name": "Bratislava", "place_lat": "48.154135", "place_lon": "17.097852", "duration_min": "885.0", "duration_max": "915.0", "duration_median": "885.0", "duration_count": "3"}, {"place_id": "sweden_1", "place_name": "Stockholm", "place_lat": "59.330963", "place_lon": "18.066134", "duration_min": "935.0", "duration_max": "935.0", "duration_median": "935.0", "duration_count": "1"}, {"place_id": "sweden_3", "place_name": "Malmo", "place_lat": "55.609231", "place_lon": "13.00126", "duration_min": "425.0", "duration_max": "515.0", "duration_median": "430.0", "duration_count": "7"}, {"place_id": "sweden_5", "place_name": "Linkoping", "place_lat": "58.416014", "place_lon": "15.626677", "duration_min": "745.0", "duration_max": "745.0", "duration_median": "745.0", "duration_count": "1"}, {"place_id": "switzerland_4", "place_name": "Lucerne", "place_lat": "47.050179", "place_lon": "8.310186", "duration_min": "910.0", "duration_max": "910.0", "duration_median": "910.0", "duration_count": "1"}, {"place_id": "switzerland_6", "place_name": "Zurich", "place_lat": "47.378968", "place_lon": "8.540534", "duration_min": "775.0", "duration_max": "850.0", "duration_median": "835.0", "duration_count": "3"}]}