{"place_id": "Germany_3", "place_name": "Nuremberg", "place_lat": "49.450748", "place_lon": "11.077955", "place_brief_desc": "The city of Nuremberg is famous for its medieval old town, its Christmas market and its role in the Nazi era.", "place_longer_desc": "The city of Nuremberg is famous for its medieval old town, its Christmas market and its role in the Nazi era. You can walk along the ancient city walls, visit the imposing Nuremberg Castle, learn about the history of the Nazi Party Rally Grounds and the Nuremberg Trials, and sample some of the local specialties such as Nuremberg sausages and gingerbread.", "place_image": "./static/images/nuremberg.png", "place_tags": "history", "place_links": "./static/places/nuremberg.html", "place_country": "Germany", "hops": [{"place_id": "Germany_1", "place_name": "Berlin", "place_lat": "52.520501", "place_lon": "13.386988", "duration_min": "168.0", "duration_max": "395.0", "duration_median": "210.0", "duration_count": "174"}, {"place_id": "Germany_10", "place_name": "Lubeck", "place_lat": "53.86767", "place_lon": "10.669737", "duration_min": "364.0", "duration_max": "580.0", "duration_median": "366.0", "duration_count": "10"}, {"place_id": "Germany_2", "place_name": "Dresden", "place_lat": "51.040221", "place_lon": "13.731409", "duration_min": "235.0", "duration_max": "270.0", "duration_median": "250.0", "duration_count": "11"}, {"place_id": "Germany_4", "place_name": "Munich", "place_lat": "48.140364", "place_lon": "11.558744", "duration_min": "60.0", "duration_max": "187.0", "duration_median": "73.0", "duration_count": "525"}, {"place_id": "Germany_5", "place_name": "Cologne", "place_lat": "50.941312", "place_lon": "6.967206", "duration_min": "169.0", "duration_max": "357.0", "duration_median": "282.0", "duration_count": "426"}, {"place_id": "Germany_6", "place_name": "Freiburg", "place_lat": "47.997974", "place_lon": "7.841344", "duration_min": "265.0", "duration_max": "270.0", "duration_median": "265.0", "duration_count": "3"}, {"place_id": "Germany_7", "place_name": "Hamburg", "place_lat": "53.55711", "place_lon": "9.997434", "duration_min": "289.0", "duration_max": "584.0", "duration_median": "347.5", "duration_count": "448"}, {"place_id": "Germany_8", "place_name": "Heidelberg", "place_lat": "49.403582", "place_lon": "8.67548", "duration_min": "180.0", "duration_max": "185.0", "duration_median": "185.0", "duration_count": "3"}, {"place_id": "Germany_9", "place_name": "Aachen", "place_lat": "50.767641", "place_lon": "6.09119", "duration_min": "455.0", "duration_max": "480.0", "duration_median": "475.0", "duration_count": "3"}, {"place_id": "austria_2", "place_name": "Salzburg", "place_lat": "47.813848", "place_lon": "13.045514", "duration_min": "156.0", "duration_max": "241.0", "duration_median": "241.0", "duration_count": "17"}, {"place_id": "belgium_1", "place_name": "Brussels", "place_lat": "50.835375", "place_lon": "4.335695", "duration_min": "660.0", "duration_max": "660.0", "duration_median": "660.0", "duration_count": "2"}, {"place_id": "belgium_12", "place_name": "Hasselt", "place_lat": "50.930876", "place_lon": "5.327062", "duration_min": "545.0", "duration_max": "555.0", "duration_median": "550.0", "duration_count": "2"}, {"place_id": "belgium_2", "place_name": "Bruges", "place_lat": "51.196939", "place_lon": "3.217078", "duration_min": "770.0", "duration_max": "775.0", "duration_median": "772.5", "duration_count": "2"}, {"place_id": "belgium_3", "place_name": "Ghent", "place_lat": "51.035627", "place_lon": "3.710612", "duration_min": "725.0", "duration_max": "725.0", "duration_median": "725.0", "duration_count": "2"}, {"place_id": "belgium_5", "place_name": "Leuven", "place_lat": "50.881543", "place_lon": "4.716146", "duration_min": "600.0", "duration_max": "610.0", "duration_median": "605.0", "duration_count": "2"}, {"place_id": "croatia_1", "place_name": "Zagreb", "place_lat": "45.807411", "place_lon": "15.990291", "duration_min": "550.0", "duration_max": "715.0", "duration_median": "550.0", "duration_count": "5"}, {"place_id": "czechia_1", "place_name": "Prague", "place_lat": "50.081926", "place_lon": "14.451481", "duration_min": "215.0", "duration_max": "390.0", "duration_median": "237.5", "duration_count": "20"}, {"place_id": "czechia_5", "place_name": "Brno", "place_lat": "49.190537", "place_lon": "16.612776", "duration_min": "445.0", "duration_max": "445.0", "duration_median": "445.0", "duration_count": "2"}, {"place_id": "czechia_6", "place_name": "Pilsen", "place_lat": "49.746889", "place_lon": "13.377351", "duration_min": "140.0", "duration_max": "165.0", "duration_median": "140.0", "duration_count": "3"}, {"place_id": "czechia_7", "place_name": "Olomouc", "place_lat": "49.593128", "place_lon": "17.277932", "duration_min": "520.0", "duration_max": "520.0", "duration_median": "520.0", "duration_count": "2"}, {"place_id": "denmark_1", "place_name": "Copenhagen", "place_lat": "55.688237", "place_lon": "12.578426", "duration_min": "890.0", "duration_max": "890.0", "duration_median": "890.0", "duration_count": "1"}, {"place_id": "france_123", "place_name": "Montpellier", "place_lat": "43.6047800", "place_lon": "3.88116800", "duration_min": "1015.0", "duration_max": "1050.0", "duration_median": "1032.5", "duration_count": "2"}, {"place_id": "france_127", "place_name": "Narbonne", "place_lat": "43.1906640", "place_lon": "3.00556200", "duration_min": "1125.0", "duration_max": "1125.0", "duration_median": "1125.0", "duration_count": "1"}, {"place_id": "france_162", "place_name": "Strasbourg", "place_lat": "48.585339", "place_lon": "7.734067", "duration_min": "320.0", "duration_max": "340.0", "duration_median": "320.0", "duration_count": "5"}, {"place_id": "france_19", "place_name": "Paris", "place_lat": "48.8404960", "place_lon": "2.36707900", "duration_min": "570.0", "duration_max": "635.0", "duration_median": "580.0", "duration_count": "4"}, {"place_id": "france_93", "place_name": "Lyon", "place_lat": "45.7605960", "place_lon": "4.85940900", "duration_min": "665.0", "duration_max": "765.0", "duration_median": "665.0", "duration_count": "3"}, {"place_id": "hungary_7", "place_name": "Gyor", "place_lat": "47.681986", "place_lon": "17.634795", "duration_min": "531.0", "duration_max": "531.0", "duration_median": "531.0", "duration_count": "1"}, {"place_id": "italy_1", "place_name": "Venice", "place_lat": "45.444427", "place_lon": "12.315491", "duration_min": "540.0", "duration_max": "540.0", "duration_median": "540.0", "duration_count": "1"}, {"place_id": "italy_8", "place_name": "Turin", "place_lat": "45.067428", "place_lon": "7.672976", "duration_min": "685.0", "duration_max": "685.0", "duration_median": "685.0", "duration_count": "2"}, {"place_id": "netherlands_2", "place_name": "Rotterdam", "place_lat": "51.924804", "place_lon": "4.468771", "duration_min": "650.0", "duration_max": "765.0", "duration_median": "707.5", "duration_count": "2"}, {"place_id": "netherlands_4", "place_name": "Den Haag", "place_lat": "52.080408", "place_lon": "4.325169", "duration_min": "685.0", "duration_max": "800.0", "duration_median": "742.5", "duration_count": "2"}, {"place_id": "netherlands_8", "place_name": "Maastricht", "place_lat": "50.849811", "place_lon": "5.705876", "duration_min": "495.0", "duration_max": "505.0", "duration_median": "500.0", "duration_count": "2"}, {"place_id": "poland_1", "place_name": "Krakow", "place_lat": "50.069934", "place_lon": "19.940546", "duration_min": "670.0", "duration_max": "770.0", "duration_median": "755.0", "duration_count": "4"}, {"place_id": "poland_2", "place_name": "Warsaw", "place_lat": "52.224729", "place_lon": "21.001417", "duration_min": "770.0", "duration_max": "770.0", "duration_median": "770.0", "duration_count": "4"}, {"place_id": "poland_3", "place_name": "Wroclaw", "place_lat": "51.098075", "place_lon": "17.037084", "duration_min": "490.0", "duration_max": "625.0", "duration_median": "510.0", "duration_count": "9"}, {"place_id": "poland_4", "place_name": "Gdansk", "place_lat": "54.365843", "place_lon": "18.64396", "duration_min": "875.0", "duration_max": "875.0", "duration_median": "875.0", "duration_count": "1"}, {"place_id": "romania_3", "place_name": "Sibiu", "place_lat": "45.799977", "place_lon": "24.161575", "duration_min": "1120.0", "duration_max": "1120.0", "duration_median": "1120.0", "duration_count": "1"}, {"place_id": "slovenia_1", "place_name": "Ljubljana", "place_lat": "46.058687", "place_lon": "14.51294", "duration_min": "505.0", "duration_max": "541.0", "duration_median": "523.0", "duration_count": "2"}, {"place_id": "switzerland_2", "place_name": "Bern", "place_lat": "46.948834", "place_lon": "7.439131", "duration_min": "425.0", "duration_max": "425.0", "duration_median": "425.0", "duration_count": "1"}, {"place_id": "switzerland_3", "place_name": "Geneva", "place_lat": "46.210209", "place_lon": "6.142455", "duration_min": "570.0", "duration_max": "570.0", "duration_median": "570.0", "duration_count": "1"}, {"place_id": "switzerland_6", "place_name": "Zurich", "place_lat": "47.378968", "place_lon": "8.540534", "duration_min": "365.0", "duration_max": "475.0", "duration_median": "455.0", "duration_count": "9"}]}