{"place_id": "Germany_8", "place_name": "Heidelberg", "place_lat": "49.403582", "place_lon": "8.67548", "place_brief_desc": "One of the most romantic cities in Germany, thanks to its picturesque setting on the Neckar river.", "place_longer_desc": "The city of Heidelberg is one of the most romantic cities in Germany, thanks to its picturesque setting on the Neckar river and its historic castle. You can stroll along the Old Bridge, visit the Heidelberg Castle ruins and gardens, admire the Old Town Hall and the Church of the Holy Spirit, and soak up the academic atmosphere at Heidelberg University, Germany's oldest university.", "place_image": "./static/images/heidelberg.png", "place_tags": "history", "place_links": "./static/places/heidelberg.html", "place_country": "Germany", "hops": [{"place_id": "Germany_1", "place_name": "Berlin", "place_lat": "52.520501", "place_lon": "13.386988", "duration_min": "299.0", "duration_max": "482.0", "duration_median": "352.0", "duration_count": "33"}, {"place_id": "Germany_2", "place_name": "Dresden", "place_lat": "51.040221", "place_lon": "13.731409", "duration_min": "525.0", "duration_max": "711.0", "duration_median": "613.0", "duration_count": "56"}, {"place_id": "Germany_3", "place_name": "Nuremberg", "place_lat": "49.450748", "place_lon": "11.077955", "duration_min": "170.0", "duration_max": "200.0", "duration_median": "180.0", "duration_count": "4"}, {"place_id": "Germany_4", "place_name": "Munich", "place_lat": "48.140364", "place_lon": "11.558744", "duration_min": "170.0", "duration_max": "360.0", "duration_median": "189.5", "duration_count": "86"}, {"place_id": "Germany_5", "place_name": "Cologne", "place_lat": "50.941312", "place_lon": "6.967206", "duration_min": "140.0", "duration_max": "195.0", "duration_median": "168.0", "duration_count": "135"}, {"place_id": "Germany_6", "place_name": "Freiburg", "place_lat": "47.997974", "place_lon": "7.841344", "duration_min": "107.0", "duration_max": "235.0", "duration_median": "107.0", "duration_count": "36"}, {"place_id": "Germany_7", "place_name": "Hamburg", "place_lat": "53.55711", "place_lon": "9.997434", "duration_min": "343.0", "duration_max": "630.0", "duration_median": "406.0", "duration_count": "154"}, {"place_id": "austria_2", "place_name": "Salzburg", "place_lat": "47.813848", "place_lon": "13.045514", "duration_min": "286.0", "duration_max": "289.0", "duration_median": "286.0", "duration_count": "24"}, {"place_id": "belgium_4", "place_name": "Antwerp", "place_lat": "51.215807", "place_lon": "4.421165", "duration_min": "485.0", "duration_max": "495.0", "duration_median": "490.0", "duration_count": "2"}, {"place_id": "czechia_1", "place_name": "Prague", "place_lat": "50.081926", "place_lon": "14.451481", "duration_min": "415.0", "duration_max": "430.0", "duration_median": "425.0", "duration_count": "3"}, {"place_id": "france_123", "place_name": "Montpellier", "place_lat": "43.6047800", "place_lon": "3.88116800", "duration_min": "815.0", "duration_max": "815.0", "duration_median": "815.0", "duration_count": "1"}, {"place_id": "france_145", "place_name": "Perpignan", "place_lat": "42.6960790", "place_lon": "2.87962200", "duration_min": "930.0", "duration_max": "930.0", "duration_median": "930.0", "duration_count": "1"}, {"place_id": "france_162", "place_name": "Strasbourg", "place_lat": "48.585339", "place_lon": "7.734067", "duration_min": "120.0", "duration_max": "160.0", "duration_median": "125.0", "duration_count": "3"}, {"place_id": "france_19", "place_name": "Paris", "place_lat": "48.8404960", "place_lon": "2.36707900", "duration_min": "400.0", "duration_max": "450.0", "duration_median": "425.0", "duration_count": "2"}, {"place_id": "france_93", "place_name": "Lyon", "place_lat": "45.7605960", "place_lon": "4.85940900", "duration_min": "665.0", "duration_max": "665.0", "duration_median": "665.0", "duration_count": "1"}, {"place_id": "italy_1", "place_name": "Venice", "place_lat": "45.444427", "place_lon": "12.315491", "duration_min": "770.0", "duration_max": "770.0", "duration_median": "770.0", "duration_count": "1"}, {"place_id": "netherlands_2", "place_name": "Rotterdam", "place_lat": "51.924804", "place_lon": "4.468771", "duration_min": "615.0", "duration_max": "615.0", "duration_median": "615.0", "duration_count": "1"}, {"place_id": "netherlands_3", "place_name": "Utrecht", "place_lat": "52.089397", "place_lon": "5.109864", "duration_min": "395.0", "duration_max": "395.0", "duration_median": "395.0", "duration_count": "1"}, {"place_id": "netherlands_4", "place_name": "Den Haag", "place_lat": "52.080408", "place_lon": "4.325169", "duration_min": "645.0", "duration_max": "645.0", "duration_median": "645.0", "duration_count": "1"}, {"place_id": "poland_3", "place_name": "Wroclaw", "place_lat": "51.098075", "place_lon": "17.037084", "duration_min": "765.0", "duration_max": "835.0", "duration_median": "765.0", "duration_count": "3"}, {"place_id": "slovakia_1", "place_name": "Bratislava", "place_lat": "48.154135", "place_lon": "17.097852", "duration_min": "795.0", "duration_max": "810.0", "duration_median": "802.5", "duration_count": "2"}, {"place_id": "switzerland_2", "place_name": "Bern", "place_lat": "46.948834", "place_lon": "7.439131", "duration_min": "325.0", "duration_max": "325.0", "duration_median": "325.0", "duration_count": "1"}, {"place_id": "switzerland_3", "place_name": "Geneva", "place_lat": "46.210209", "place_lon": "6.142455", "duration_min": "515.0", "duration_max": "515.0", "duration_median": "515.0", "duration_count": "1"}, {"place_id": "switzerland_4", "place_name": "Lucerne", "place_lat": "47.050179", "place_lon": "8.310186", "duration_min": "415.0", "duration_max": "415.0", "duration_median": "415.0", "duration_count": "1"}, {"place_id": "switzerland_6", "place_name": "Zurich", "place_lat": "47.378968", "place_lon": "8.540534", "duration_min": "290.0", "duration_max": "370.0", "duration_median": "315.0", "duration_count": "7"}]}