{"place_id": "lithuania_2", "place_name": "Kaunas", "place_lat": "54.886291", "place_lon": "23.931766", "place_brief_desc": "Lithuania's second-largest city and a cultural hub, known for its Art Nouveau architecture, Pa\u017eaislis Monastery, and \u017dalgiris Arena.", "place_longer_desc": "Kaunas is a vibrant city with a lot to offer visitors. The city is home to many Art Nouveau buildings, as well as the Pa\u017eaislis Monastery, a beautiful baroque monastery located on an island in the Nemunas River. Kaunas is also home to the \u017dalgiris Arena, one of the largest indoor arenas in Europe.", "place_image": "./static/images/kaunas.png", "place_tags": "history", "place_links": "./static/places/kaunas.html", "place_country": "Lithuania", "hops": [{"place_id": "estonia_1", "place_name": "Tallinn", "place_lat": "59.437296", "place_lon": "24.744777", "duration_min": "515.0", "duration_max": "515.0", "duration_median": "515.0", "duration_count": "1"}, {"place_id": "lithuania_1", "place_name": "Vilnius", "place_lat": "54.670236", "place_lon": "25.282908", "duration_min": "80.0", "duration_max": "100.0", "duration_median": "71", "duration_count": "7"}, {"place_id": "poland_2", "place_name": "Warsaw", "place_lat": "52.224729", "place_lon": "21.001417", "duration_min": "350.0", "duration_max": "415.0", "duration_median": "382.5", "duration_count": "2"}, {"place_id": "poland_6", "place_name": "Poznan", "place_lat": "52.410249", "place_lon": "16.905366", "duration_min": "650.0", "duration_max": "650.0", "duration_median": "650.0", "duration_count": "1"}]}