{"place_id": "netherlands_4", "place_name": "Den Haag", "place_lat": "52.080408", "place_lon": "4.325169", "place_brief_desc": "The seat of the Dutch government and the home of the royal family,", "place_longer_desc": "The seat of the Dutch government and the home of the royal family, The Hague is a city of elegance and sophistication. It has many impressive buildings, such as the Binnenhof and the Peace Palace, as well as some of the finest art museums in the country, such as the Mauritshuis and the Gemeentemuseum. You can travel from Amsterdam to The Hague by train in about an hour.", "place_image": "./static/images/den haag.png", "place_tags": "history", "place_links": "./static/places/den haag.html", "place_country": "Netherlands", "hops": [{"place_id": "Germany_10", "place_name": "Lubeck", "place_lat": "53.86767", "place_lon": "10.669737", "duration_min": "540.0", "duration_max": "540.0", "duration_median": "540.0", "duration_count": "2"}, {"place_id": "Germany_2", "place_name": "Dresden", "place_lat": "51.040221", "place_lon": "13.731409", "duration_min": "770.0", "duration_max": "770.0", "duration_median": "770.0", "duration_count": "2"}, {"place_id": "Germany_3", "place_name": "Nuremberg", "place_lat": "49.450748", "place_lon": "11.077955", "duration_min": "680.0", "duration_max": "775.0", "duration_median": "727.5", "duration_count": "2"}, {"place_id": "Germany_4", "place_name": "Munich", "place_lat": "48.140364", "place_lon": "11.558744", "duration_min": "825.0", "duration_max": "850.0", "duration_median": "850.0", "duration_count": "3"}, {"place_id": "Germany_7", "place_name": "Hamburg", "place_lat": "53.55711", "place_lon": "9.997434", "duration_min": "405.0", "duration_max": "485.0", "duration_median": "465.0", "duration_count": "4"}, {"place_id": "Germany_8", "place_name": "Heidelberg", "place_lat": "49.403582", "place_lon": "8.67548", "duration_min": "675.0", "duration_max": "675.0", "duration_median": "675.0", "duration_count": "1"}, {"place_id": "Germany_9", "place_name": "Aachen", "place_lat": "50.767641", "place_lon": "6.09119", "duration_min": "245.0", "duration_max": "320.0", "duration_median": "290.0", "duration_count": "5"}, {"place_id": "belgium_3", "place_name": "Ghent", "place_lat": "51.035627", "place_lon": "3.710612", "duration_min": "175.0", "duration_max": "215.0", "duration_median": "195.0", "duration_count": "2"}, {"place_id": "belgium_4", "place_name": "Antwerp", "place_lat": "51.215807", "place_lon": "4.421165", "duration_min": "145.0", "duration_max": "145.0", "duration_median": "145.0", "duration_count": "2"}, {"place_id": "croatia_1", "place_name": "Zagreb", "place_lat": "45.807411", "place_lon": "15.990291", "duration_min": "1405.0", "duration_max": "1405.0", "duration_median": "1405.0", "duration_count": "1"}, {"place_id": "czechia_1", "place_name": "Prague", "place_lat": "50.081926", "place_lon": "14.451481", "duration_min": "1010.0", "duration_max": "1010.0", "duration_median": "1010.0", "duration_count": "1"}, {"place_id": "denmark_1", "place_name": "Copenhagen", "place_lat": "55.688237", "place_lon": "12.578426", "duration_min": "825.0", "duration_max": "825.0", "duration_median": "825.0", "duration_count": "1"}, {"place_id": "denmark_3", "place_name": "Odense", "place_lat": "55.401778", "place_lon": "10.386002", "duration_min": "680.0", "duration_max": "680.0", "duration_median": "680.0", "duration_count": "1"}, {"place_id": "france_155", "place_name": "Lille", "place_lat": "50.64501", "place_lon": "3.082257", "duration_min": "280.0", "duration_max": "280.0", "duration_median": "280.0", "duration_count": "1"}, {"place_id": "netherlands_2", "place_name": "Rotterdam", "place_lat": "51.924804", "place_lon": "4.468771", "duration_min": "25.0", "duration_max": "35.0", "duration_median": "30.0", "duration_count": "22"}, {"place_id": "netherlands_3", "place_name": "Utrecht", "place_lat": "52.089397", "place_lon": "5.109864", "duration_min": "85.0", "duration_max": "85.0", "duration_median": "85.0", "duration_count": "1"}, {"place_id": "netherlands_9", "place_name": "Groningen", "place_lat": "53.210684", "place_lon": "6.564274", "duration_min": "195.0", "duration_max": "260.0", "duration_median": "195.0", "duration_count": "3"}, {"place_id": "poland_1", "place_name": "Krakow", "place_lat": "50.069934", "place_lon": "19.940546", "duration_min": "1455.0", "duration_max": "1455.0", "duration_median": "1455.0", "duration_count": "1"}, {"place_id": "poland_2", "place_name": "Warsaw", "place_lat": "52.224729", "place_lon": "21.001417", "duration_min": "1125.0", "duration_max": "1125.0", "duration_median": "1125.0", "duration_count": "1"}, {"place_id": "poland_3", "place_name": "Wroclaw", "place_lat": "51.098075", "place_lon": "17.037084", "duration_min": "1050.0", "duration_max": "1050.0", "duration_median": "1050.0", "duration_count": "1"}, {"place_id": "poland_4", "place_name": "Gdansk", "place_lat": "54.365843", "place_lon": "18.64396", "duration_min": "1240.0", "duration_max": "1240.0", "duration_median": "1240.0", "duration_count": "1"}, {"place_id": "poland_6", "place_name": "Poznan", "place_lat": "52.410249", "place_lon": "16.905366", "duration_min": "885.0", "duration_max": "885.0", "duration_median": "885.0", "duration_count": "1"}, {"place_id": "romania_3", "place_name": "Sibiu", "place_lat": "45.799977", "place_lon": "24.161575", "duration_min": "1775.0", "duration_max": "1845.0", "duration_median": "1810.0", "duration_count": "2"}, {"place_id": "slovenia_1", "place_name": "Ljubljana", "place_lat": "46.058687", "place_lon": "14.51294", "duration_min": "1231.0", "duration_max": "1231.0", "duration_median": "1231.0", "duration_count": "1"}]}