{"place_id": "netherlands_8", "place_name": "Maastricht", "place_lat": "50.849811", "place_lon": "5.705876", "place_brief_desc": "Maastricht is one of the oldest and most charming cities in the Netherlands.", "place_longer_desc": "Maastricht is one of the oldest and most charming cities in the Netherlands. It is located in the south of the country, near the borders with Belgium and Germany. It has a unique culture and cuisine that reflects its diverse influences. It also has a stunning old town with Roman ruins, medieval churches, and elegant squares. You can travel from Amsterdam to Maastricht by train in about 2 hours.", "place_image": "./static/images/maastricht.png", "place_tags": "history", "place_links": "./static/places/maastricht.html", "place_country": "Netherlands", "hops": [{"place_id": "Germany_2", "place_name": "Dresden", "place_lat": "51.040221", "place_lon": "13.731409", "duration_min": "625.0", "duration_max": "625.0", "duration_median": "625.0", "duration_count": "2"}, {"place_id": "Germany_3", "place_name": "Nuremberg", "place_lat": "49.450748", "place_lon": "11.077955", "duration_min": "475.0", "duration_max": "495.0", "duration_median": "485.0", "duration_count": "2"}, {"place_id": "Germany_4", "place_name": "Munich", "place_lat": "48.140364", "place_lon": "11.558744", "duration_min": "600.0", "duration_max": "600.0", "duration_median": "600.0", "duration_count": "1"}, {"place_id": "Germany_9", "place_name": "Aachen", "place_lat": "50.767641", "place_lon": "6.09119", "duration_min": "30.0", "duration_max": "70.0", "duration_median": "55.0", "duration_count": "1704"}, {"place_id": "belgium_1", "place_name": "Brussels", "place_lat": "50.835375", "place_lon": "4.335695", "duration_min": "95.0", "duration_max": "160.0", "duration_median": "150.0", "duration_count": "3"}, {"place_id": "belgium_12", "place_name": "Hasselt", "place_lat": "50.930876", "place_lon": "5.327062", "duration_min": "45.0", "duration_max": "45.0", "duration_median": "45.0", "duration_count": "3"}, {"place_id": "belgium_2", "place_name": "Bruges", "place_lat": "51.196939", "place_lon": "3.217078", "duration_min": "265.0", "duration_max": "270.0", "duration_median": "267.5", "duration_count": "2"}, {"place_id": "belgium_3", "place_name": "Ghent", "place_lat": "51.035627", "place_lon": "3.710612", "duration_min": "215.0", "duration_max": "225.0", "duration_median": "220.0", "duration_count": "2"}, {"place_id": "belgium_4", "place_name": "Antwerp", "place_lat": "51.215807", "place_lon": "4.421165", "duration_min": "185.0", "duration_max": "185.0", "duration_median": "185.0", "duration_count": "1"}, {"place_id": "belgium_5", "place_name": "Leuven", "place_lat": "50.881543", "place_lon": "4.716146", "duration_min": "100.0", "duration_max": "100.0", "duration_median": "100.0", "duration_count": "2"}, {"place_id": "croatia_1", "place_name": "Zagreb", "place_lat": "45.807411", "place_lon": "15.990291", "duration_min": "1195.0", "duration_max": "1195.0", "duration_median": "1195.0", "duration_count": "1"}, {"place_id": "czechia_1", "place_name": "Prague", "place_lat": "50.081926", "place_lon": "14.451481", "duration_min": "705.0", "duration_max": "735.0", "duration_median": "720.0", "duration_count": "2"}, {"place_id": "france_155", "place_name": "Lille", "place_lat": "50.64501", "place_lon": "3.082257", "duration_min": "215.0", "duration_max": "240.0", "duration_median": "235.0", "duration_count": "14"}, {"place_id": "france_19", "place_name": "Paris", "place_lat": "48.8404960", "place_lon": "2.36707900", "duration_min": "380.0", "duration_max": "520.0", "duration_median": "450.0", "duration_count": "2"}, {"place_id": "poland_2", "place_name": "Warsaw", "place_lat": "52.224729", "place_lon": "21.001417", "duration_min": "1190.0", "duration_max": "1190.0", "duration_median": "1190.0", "duration_count": "2"}, {"place_id": "poland_3", "place_name": "Wroclaw", "place_lat": "51.098075", "place_lon": "17.037084", "duration_min": "900.0", "duration_max": "925.0", "duration_median": "912.5", "duration_count": "4"}]}