{"place_id": "netherlands_3", "place_name": "Utrecht", "place_lat": "52.089397", "place_lon": "5.109864", "place_brief_desc": "Utrecht is a charming city that combines medieval charm with contemporary flair.", "place_longer_desc": "Utrecht is a charming city that combines medieval charm with contemporary flair. It has a beautiful old town with a Gothic cathedral, a canal network, and cosy cafes. It is also a centre of education and culture, with many museums, galleries, and events. You can get to Utrecht by train from Amsterdam in about 30 minutes.", "place_image": "./static/images/utrecht.png", "place_tags": "history", "place_links": "./static/places/utrecht.html", "place_country": "Netherlands", "hops": [{"place_id": "Germany_2", "place_name": "Dresden", "place_lat": "51.040221", "place_lon": "13.731409", "duration_min": "760.0", "duration_max": "760.0", "duration_median": "760.0", "duration_count": "4"}, {"place_id": "Germany_3", "place_name": "Nuremberg", "place_lat": "49.450748", "place_lon": "11.077955", "duration_min": "453.0", "duration_max": "499.0", "duration_median": "462.0", "duration_count": "109"}, {"place_id": "Germany_4", "place_name": "Munich", "place_lat": "48.140364", "place_lon": "11.558744", "duration_min": "646.0", "duration_max": "696.0", "duration_median": "665.0", "duration_count": "57"}, {"place_id": "Germany_5", "place_name": "Cologne", "place_lat": "50.941312", "place_lon": "6.967206", "duration_min": "125.0", "duration_max": "157.0", "duration_median": "129.0", "duration_count": "127"}, {"place_id": "Germany_6", "place_name": "Freiburg", "place_lat": "47.997974", "place_lon": "7.841344", "duration_min": "505.0", "duration_max": "505.0", "duration_median": "505.0", "duration_count": "10"}, {"place_id": "Germany_8", "place_name": "Heidelberg", "place_lat": "49.403582", "place_lon": "8.67548", "duration_min": "385.0", "duration_max": "385.0", "duration_median": "385.0", "duration_count": "1"}, {"place_id": "czechia_1", "place_name": "Prague", "place_lat": "50.081926", "place_lon": "14.451481", "duration_min": "880.0", "duration_max": "880.0", "duration_median": "880.0", "duration_count": "4"}, {"place_id": "netherlands_1", "place_name": "Amsterdam", "place_lat": "52.379191", "place_lon": "4.899427", "duration_min": "24.0", "duration_max": "38.0", "duration_median": "27.0", "duration_count": "252"}, {"place_id": "netherlands_2", "place_name": "Rotterdam", "place_lat": "51.924804", "place_lon": "4.468771", "duration_min": "50.0", "duration_max": "50.0", "duration_median": "50.0", "duration_count": "1"}, {"place_id": "netherlands_4", "place_name": "Den Haag", "place_lat": "52.080408", "place_lon": "4.325169", "duration_min": "85.0", "duration_max": "85.0", "duration_median": "85.0", "duration_count": "1"}, {"place_id": "poland_2", "place_name": "Warsaw", "place_lat": "52.224729", "place_lon": "21.001417", "duration_min": "1130.0", "duration_max": "1130.0", "duration_median": "1130.0", "duration_count": "1"}, {"place_id": "poland_6", "place_name": "Poznan", "place_lat": "52.410249", "place_lon": "16.905366", "duration_min": "845.0", "duration_max": "845.0", "duration_median": "845.0", "duration_count": "1"}]}