{"place_id": "poland_2", "place_name": "Warsaw", "place_lat": "52.224729", "place_lon": "21.001417", "place_brief_desc": "Poland's capital and largest city, known for its Royal Castle, Palace of Culture and Science, and \u0141azienki Park.", "place_longer_desc": "Warsaw is a vibrant city with a lot to offer visitors. The Royal Castle is a must-see for anyone interested in Polish history. Visitors can also visit the Palace of Culture and Science, a towering Art Deco building, and \u0141azienki Park, a beautiful park with gardens, lakes, and palaces.", "place_image": "./static/images/warsaw.png", "place_tags": "history", "place_links": "./static/places/warsaw.html", "place_country": "Poland", "hops": [{"place_id": "Germany_2", "place_name": "Dresden", "place_lat": "51.040221", "place_lon": "13.731409", "duration_min": "495.0", "duration_max": "570.0", "duration_median": "520.0", "duration_count": "12"}, {"place_id": "Germany_3", "place_name": "Nuremberg", "place_lat": "49.450748", "place_lon": "11.077955", "duration_min": "760.0", "duration_max": "760.0", "duration_median": "760.0", "duration_count": "4"}, {"place_id": "Germany_4", "place_name": "Munich", "place_lat": "48.140364", "place_lon": "11.558744", "duration_min": "910.0", "duration_max": "925.0", "duration_median": "910.0", "duration_count": "6"}, {"place_id": "Germany_7", "place_name": "Hamburg", "place_lat": "53.55711", "place_lon": "9.997434", "duration_min": "670.0", "duration_max": "720.0", "duration_median": "695.0", "duration_count": "2"}, {"place_id": "belgium_3", "place_name": "Ghent", "place_lat": "51.035627", "place_lon": "3.710612", "duration_min": "1350.0", "duration_max": "1350.0", "duration_median": "1350.0", "duration_count": "1"}, {"place_id": "estonia_1", "place_name": "Tallinn", "place_lat": "59.437296", "place_lon": "24.744777", "duration_min": "875.0", "duration_max": "1100.0", "duration_median": "550", "duration_count": "2"}, {"place_id": "france_155", "place_name": "Lille", "place_lat": "50.64501", "place_lon": "3.082257", "duration_min": "1415.0", "duration_max": "1415.0", "duration_median": "1415.0", "duration_count": "1"}, {"place_id": "france_162", "place_name": "Strasbourg", "place_lat": "48.585339", "place_lon": "7.734067", "duration_min": "1110.0", "duration_max": "1110.0", "duration_median": "1110.0", "duration_count": "1"}, {"place_id": "france_19", "place_name": "Paris", "place_lat": "48.8404960", "place_lon": "2.36707900", "duration_min": "1400.0", "duration_max": "1475.0", "duration_median": "1400.0", "duration_count": "3"}, {"place_id": "france_93", "place_name": "Lyon", "place_lat": "45.7605960", "place_lon": "4.85940900", "duration_min": "1560.0", "duration_max": "1560.0", "duration_median": "1560.0", "duration_count": "1"}, {"place_id": "lithuania_1", "place_name": "Vilnius", "place_lat": "54.670236", "place_lon": "25.282908", "duration_min": "510.0", "duration_max": "555.0", "duration_median": "274", "duration_count": "4"}, {"place_id": "lithuania_2", "place_name": "Kaunas", "place_lat": "54.886291", "place_lon": "23.931766", "duration_min": "350.0", "duration_max": "420.0", "duration_median": "385.0", "duration_count": "2"}, {"place_id": "netherlands_2", "place_name": "Rotterdam", "place_lat": "51.924804", "place_lon": "4.468771", "duration_min": "1165.0", "duration_max": "1165.0", "duration_median": "1165.0", "duration_count": "1"}, {"place_id": "netherlands_3", "place_name": "Utrecht", "place_lat": "52.089397", "place_lon": "5.109864", "duration_min": "1120.0", "duration_max": "1120.0", "duration_median": "1120.0", "duration_count": "1"}, {"place_id": "netherlands_4", "place_name": "Den Haag", "place_lat": "52.080408", "place_lon": "4.325169", "duration_min": "1130.0", "duration_max": "1130.0", "duration_median": "1130.0", "duration_count": "1"}, {"place_id": "netherlands_8", "place_name": "Maastricht", "place_lat": "50.849811", "place_lon": "5.705876", "duration_min": "1175.0", "duration_max": "1175.0", "duration_median": "1175.0", "duration_count": "2"}, {"place_id": "poland_3", "place_name": "Wroclaw", "place_lat": "51.098075", "place_lon": "17.037084", "duration_min": "235.0", "duration_max": "325.0", "duration_median": "265.0", "duration_count": "24"}, {"place_id": "poland_6", "place_name": "Poznan", "place_lat": "52.410249", "place_lon": "16.905366", "duration_min": "215.0", "duration_max": "270.0", "duration_median": "215.0", "duration_count": "7"}, {"place_id": "switzerland_6", "place_name": "Zurich", "place_lat": "47.378968", "place_lon": "8.540534", "duration_min": "1225.0", "duration_max": "1225.0", "duration_median": "1225.0", "duration_count": "2"}, {"place_id": "czechia_1", "place_name": "Prague", "place_lat": "50.081926", "place_lon": "14.451481", "duration_min": "665.0", "duration_max": "665.0", "duration_median": "665.0", "duration_count": "1"}, {"place_id": "czechia_5", "place_name": "Brno", "place_lat": "49.190537", "place_lon": "16.612776", "duration_min": "495.0", "duration_max": "495.0", "duration_median": "495.0", "duration_count": "1"}, {"place_id": "czechia_7", "place_name": "Olomouc", "place_lat": "49.593128", "place_lon": "17.277932", "duration_min": "420.0", "duration_max": "420.0", "duration_median": "420.0", "duration_count": "1"}]}