{"place_id": "poland_3", "place_name": "Wroclaw", "place_lat": "51.098075", "place_lon": "17.037084", "place_brief_desc": "Poland's fourth-largest city, known for its Rynek G\u0142\u00f3wny market square, Centennial Hall, and Cathedral of St. John the Baptist.", "place_longer_desc": "Wroc\u0142aw is a charming city with a lot to offer visitors. The Rynek G\u0142\u00f3wny market square is one of the largest market squares in Europe and is home to many well-preserved medieval buildings. Visitors can also visit the Centennial Hall, a UNESCO World Heritage Site, and the Cathedral of St. John the Baptist, a beautiful Gothic cathedral.", "place_image": "./static/images/wroclaw.png", "place_tags": "history", "place_links": "./static/places/wroclaw.html", "place_country": "Poland", "hops": [{"place_id": "Germany_10", "place_name": "Lubeck", "place_lat": "53.86767", "place_lon": "10.669737", "duration_min": "490.0", "duration_max": "490.0", "duration_median": "490.0", "duration_count": "1"}, {"place_id": "Germany_2", "place_name": "Dresden", "place_lat": "51.040221", "place_lon": "13.731409", "duration_min": "215.0", "duration_max": "280.0", "duration_median": "235.0", "duration_count": "30"}, {"place_id": "Germany_3", "place_name": "Nuremberg", "place_lat": "49.450748", "place_lon": "11.077955", "duration_min": "485.0", "duration_max": "620.0", "duration_median": "505.0", "duration_count": "9"}, {"place_id": "Germany_4", "place_name": "Munich", "place_lat": "48.140364", "place_lon": "11.558744", "duration_min": "635.0", "duration_max": "685.0", "duration_median": "655.0", "duration_count": "12"}, {"place_id": "Germany_7", "place_name": "Hamburg", "place_lat": "53.55711", "place_lon": "9.997434", "duration_min": "495.0", "duration_max": "500.0", "duration_median": "497.5", "duration_count": "2"}, {"place_id": "Germany_8", "place_name": "Heidelberg", "place_lat": "49.403582", "place_lon": "8.67548", "duration_min": "770.0", "duration_max": "815.0", "duration_median": "770.0", "duration_count": "3"}, {"place_id": "austria_3", "place_name": "Graz", "place_lat": "47.072301", "place_lon": "15.416437", "duration_min": "651.0", "duration_max": "654.0", "duration_median": "654.0", "duration_count": "14"}, {"place_id": "belgium_2", "place_name": "Bruges", "place_lat": "51.196939", "place_lon": "3.217078", "duration_min": "1140.0", "duration_max": "1140.0", "duration_median": "1140.0", "duration_count": "1"}, {"place_id": "belgium_3", "place_name": "Ghent", "place_lat": "51.035627", "place_lon": "3.710612", "duration_min": "1090.0", "duration_max": "1090.0", "duration_median": "1090.0", "duration_count": "1"}, {"place_id": "czechia_1", "place_name": "Prague", "place_lat": "50.081926", "place_lon": "14.451481", "duration_min": "270.0", "duration_max": "270.0", "duration_median": "270.0", "duration_count": "1"}, {"place_id": "czechia_5", "place_name": "Brno", "place_lat": "49.190537", "place_lon": "16.612776", "duration_min": "285.0", "duration_max": "285.0", "duration_median": "285.0", "duration_count": "1"}, {"place_id": "czechia_7", "place_name": "Olomouc", "place_lat": "49.593128", "place_lon": "17.277932", "duration_min": "215.0", "duration_max": "215.0", "duration_median": "215.0", "duration_count": "1"}, {"place_id": "denmark_1", "place_name": "Copenhagen", "place_lat": "55.688237", "place_lon": "12.578426", "duration_min": "790.0", "duration_max": "790.0", "duration_median": "790.0", "duration_count": "1"}, {"place_id": "denmark_5", "place_name": "Aarhus", "place_lat": "56.150076", "place_lon": "10.204995", "duration_min": "820.0", "duration_max": "820.0", "duration_median": "820.0", "duration_count": "1"}, {"place_id": "france_19", "place_name": "Paris", "place_lat": "48.8404960", "place_lon": "2.36707900", "duration_min": "1090.0", "duration_max": "1110.0", "duration_median": "1100.0", "duration_count": "4"}, {"place_id": "netherlands_2", "place_name": "Rotterdam", "place_lat": "51.924804", "place_lon": "4.468771", "duration_min": "1010.0", "duration_max": "1010.0", "duration_median": "1010.0", "duration_count": "1"}, {"place_id": "netherlands_4", "place_name": "Den Haag", "place_lat": "52.080408", "place_lon": "4.325169", "duration_min": "1045.0", "duration_max": "1045.0", "duration_median": "1045.0", "duration_count": "1"}, {"place_id": "netherlands_8", "place_name": "Maastricht", "place_lat": "50.849811", "place_lon": "5.705876", "duration_min": "885.0", "duration_max": "910.0", "duration_median": "897.5", "duration_count": "4"}, {"place_id": "poland_1", "place_name": "Krakow", "place_lat": "50.069934", "place_lon": "19.940546", "duration_min": "220.0", "duration_max": "250.0", "duration_median": "222.5", "duration_count": "10"}, {"place_id": "poland_2", "place_name": "Warsaw", "place_lat": "52.224729", "place_lon": "21.001417", "duration_min": "232.0", "duration_max": "325.0", "duration_median": "270.0", "duration_count": "24"}, {"place_id": "poland_6", "place_name": "Poznan", "place_lat": "52.410249", "place_lon": "16.905366", "duration_min": "170.0", "duration_max": "170.0", "duration_median": "170.0", "duration_count": "1"}, {"place_id": "slovakia_1", "place_name": "Bratislava", "place_lat": "48.154135", "place_lon": "17.097852", "duration_min": "490.0", "duration_max": "490.0", "duration_median": "490.0", "duration_count": "1"}, {"place_id": "slovakia_2", "place_name": "Kosice", "place_lat": "48.722918", "place_lon": "21.268721", "duration_min": "650.0", "duration_max": "650.0", "duration_median": "650.0", "duration_count": "1"}, {"place_id": "sweden_3", "place_name": "Malmo", "place_lat": "55.609231", "place_lon": "13.00126", "duration_min": "875.0", "duration_max": "875.0", "duration_median": "875.0", "duration_count": "1"}, {"place_id": "switzerland_6", "place_name": "Zurich", "place_lat": "47.378968", "place_lon": "8.540534", "duration_min": "950.0", "duration_max": "970.0", "duration_median": "960.0", "duration_count": "4"}]}