{"place_id": "slovenia_1", "place_name": "Ljubljana", "place_lat": "46.058687", "place_lon": "14.51294", "place_brief_desc": "Slovenia's capital and largest city, known for its medieval Old Town, Ljubljana Castle, and Dragon Bridge.", "place_longer_desc": "Ljubljana is a charming city with a lot to offer visitors. The Old Town is home to many well-preserved medieval buildings, including Ljubljana Castle, a castle that dates back to the 12th century. Visitors can also visit the Dragon Bridge, a famous bridge decorated with dragon statues. Ljubljana is also a great place to enjoy Slovenian cuisine and culture.", "place_image": "./static/images/ljubljana.png", "place_tags": "history", "place_links": "./static/places/ljubljana.html", "place_country": "Slovenia", "hops": [{"place_id": "Germany_2", "place_name": "Dresden", "place_lat": "51.040221", "place_lon": "13.731409", "duration_min": "720.0", "duration_max": "745.0", "duration_median": "732.5", "duration_count": "4"}, {"place_id": "Germany_3", "place_name": "Nuremberg", "place_lat": "49.450748", "place_lon": "11.077955", "duration_min": "500.0", "duration_max": "535.0", "duration_median": "517.5", "duration_count": "2"}, {"place_id": "Germany_4", "place_name": "Munich", "place_lat": "48.140364", "place_lon": "11.558744", "duration_min": "325.0", "duration_max": "400.0", "duration_median": "355.0", "duration_count": "12"}, {"place_id": "Germany_6", "place_name": "Freiburg", "place_lat": "47.997974", "place_lon": "7.841344", "duration_min": "730.0", "duration_max": "730.0", "duration_median": "730.0", "duration_count": "1"}, {"place_id": "bulgaria_1", "place_name": "Sofia", "place_lat": "42.712209", "place_lon": "23.321039", "duration_min": "910.0", "duration_max": "910.0", "duration_median": "910.0", "duration_count": "1"}, {"place_id": "bulgaria_2", "place_name": "Plovdiv", "place_lat": "42.134068", "place_lon": "24.740247", "duration_min": "1075.0", "duration_max": "1075.0", "duration_median": "1075.0", "duration_count": "1"}, {"place_id": "croatia_1", "place_name": "Zagreb", "place_lat": "45.807411", "place_lon": "15.990291", "duration_min": "145.0", "duration_max": "170.0", "duration_median": "145.0", "duration_count": "10"}, {"place_id": "croatia_2", "place_name": "Split", "place_lat": "43.504887", "place_lon": "16.44279", "duration_min": "521.0", "duration_max": "595.0", "duration_median": "558.0", "duration_count": "2"}, {"place_id": "czechia_1", "place_name": "Prague", "place_lat": "50.081926", "place_lon": "14.451481", "duration_min": "585.0", "duration_max": "585.0", "duration_median": "585.0", "duration_count": "2"}, {"place_id": "czechia_10", "place_name": "Ceske Budejovice", "place_lat": "48.974616", "place_lon": "14.48875", "duration_min": "445.0", "duration_max": "445.0", "duration_median": "445.0", "duration_count": "2"}, {"place_id": "france_162", "place_name": "Strasbourg", "place_lat": "48.585339", "place_lon": "7.734067", "duration_min": "700.0", "duration_max": "700.0", "duration_median": "700.0", "duration_count": "1"}, {"place_id": "france_19", "place_name": "Paris", "place_lat": "48.8404960", "place_lon": "2.36707900", "duration_min": "1065.0", "duration_max": "1065.0", "duration_median": "1065.0", "duration_count": "1"}, {"place_id": "netherlands_2", "place_name": "Rotterdam", "place_lat": "51.924804", "place_lon": "4.468771", "duration_min": "1195.0", "duration_max": "1195.0", "duration_median": "1195.0", "duration_count": "1"}, {"place_id": "netherlands_4", "place_name": "Den Haag", "place_lat": "52.080408", "place_lon": "4.325169", "duration_min": "1230.0", "duration_max": "1230.0", "duration_median": "1230.0", "duration_count": "1"}, {"place_id": "slovenia_2", "place_name": "Bled", "place_lat": "46.368302", "place_lon": "14.082303", "duration_min": "58.0", "duration_max": "58.0", "duration_median": "58.0", "duration_count": "3"}]}