{"place_id": "slovenia_2", "place_name": "Bled", "place_lat": "46.368302", "place_lon": "14.082303", "place_brief_desc": "A town in northwestern Slovenia, known for its Lake Bled, Bled Island, and Bled Castle.", "place_longer_desc": "Bled is a beautiful town located on Lake Bled, a picturesque lake with a small island in the middle. Visitors can take a boat trip to the island and visit the Bled Island Church, a charming church located on the island. They can also visit Bled Castle, a castle that dates back to the 11th century. Bled is also a great place to try the famous Bled cake, a custard cream cake topped with whipped cream.", "place_image": "./static/images/bled.png", "place_tags": "history", "place_links": "./static/places/bled.html", "place_country": "Slovenia", "hops": [{"place_id": "Germany_2", "place_name": "Dresden", "place_lat": "51.040221", "place_lon": "13.731409", "duration_min": "661.0", "duration_max": "686.0", "duration_median": "673.5", "duration_count": "4"}, {"place_id": "Germany_4", "place_name": "Munich", "place_lat": "48.140364", "place_lon": "11.558744", "duration_min": "340.0", "duration_max": "340.0", "duration_median": "340.0", "duration_count": "1"}, {"place_id": "croatia_2", "place_name": "Split", "place_lat": "43.504887", "place_lon": "16.44279", "duration_min": "585.0", "duration_max": "585.0", "duration_median": "585.0", "duration_count": "1"}, {"place_id": "czechia_1", "place_name": "Prague", "place_lat": "50.081926", "place_lon": "14.451481", "duration_min": "526.0", "duration_max": "526.0", "duration_median": "526.0", "duration_count": "2"}, {"place_id": "czechia_10", "place_name": "Ceske Budejovice", "place_lat": "48.974616", "place_lon": "14.48875", "duration_min": "386.0", "duration_max": "386.0", "duration_median": "386.0", "duration_count": "2"}, {"place_id": "slovenia_1", "place_name": "Ljubljana", "place_lat": "46.058687", "place_lon": "14.51294", "duration_min": "58.0", "duration_max": "58.0", "duration_median": "58.0", "duration_count": "3"}]}