{"place_id": "spain_805", "place_name": "Llanca", "place_lat": "42.3665949", "place_lon": "3.14898700", "place_brief_desc": "holiday resort", "place_longer_desc": "../static/places/llanca.html", "place_image": "../static/images/llanca.png", "place_tags": "history", "place_links": "https://www.lonelyplanet.com/search?q=llanca", "place_country": "Spain", "hops": {"france_151": {"to_place_id": "france_151", "to_place_name": "Cerbere", "to_lat": "42.441661", "to_lon": "3.163187", "journeys": [900, 900, 900], "duration_median": 900, "duration_min": 900, "duration_max": 900}, "spain_1": {"to_place_id": "spain_1", "to_place_name": "Barcelona", "to_lat": "41.378911", "to_lon": "2.140368", "journeys": [8760, 8760, 8760], "duration_median": 8760, "duration_min": 8760, "duration_max": 8760}, "spain_104": {"to_place_id": "spain_104", "to_place_name": "Figueres", "to_lat": "42.264951", "to_lon": "2.969272", "journeys": [840, 840, 840], "duration_median": 840, "duration_min": 840, "duration_max": 840}, "spain_105": {"to_place_id": "spain_105", "to_place_name": "Girona", "to_lat": "41.979517", "to_lon": "2.816482", "journeys": [3240, 3240, 3240], "duration_median": 3240, "duration_min": 3240, "duration_max": 3240}, "spain_806": {"to_place_id": "spain_806", "to_place_name": "Portbou", "to_lat": "42.424725", "to_lon": "3.157848", "journeys": [600, 480, 600], "duration_median": 600, "duration_min": 480, "duration_max": 600}}}