{"place_id": "spain_20", "place_name": "Madrid", "place_lat": "40.4720993", "place_lon": "-3.6824687", "place_brief_desc": "Madrid has accumulated a wealth of art and architecture that should tickle even the most jaded of travellers.", "place_longer_desc": "Madrid, capital of Spain and former centre of a vast new-world empire has accumulated a wealth of art and architecture that should tickle even the most jaded of travellers.", "place_image": "./static/images/madrid.png", "place_tags": "history", "place_links": "./static/places/madrid.html", "place_country": "Spain", "hops": [{"place_id": "france_85", "place_name": "Hendaye", "place_lat": "43.3531650", "place_lon": "-1.7820950", "duration_min": "322.0", "duration_max": "350.0", "duration_median": "347.0", "duration_count": "12"}, {"place_id": "spain_1", "place_name": "Barcelona", "place_lat": "41.37922", "place_lon": "2.140624", "duration_min": "562.0", "duration_max": "570.0", "duration_median": "566.0", "duration_count": "6"}, {"place_id": "spain_139", "place_name": "Tolosa", "place_lat": "43.131936", "place_lon": "-2.085247", "duration_min": "270.0", "duration_max": "279.0", "duration_median": "279.0", "duration_count": "8"}, {"place_id": "spain_19", "place_name": "Tarragona", "place_lat": "41.1116240", "place_lon": "1.25321400", "duration_min": "475.0", "duration_max": "475.0", "duration_median": "475.0", "duration_count": "3"}, {"place_id": "spain_44", "place_name": "San Sebastian", "place_lat": "43.317669", "place_lon": "-1.976704", "duration_min": "292.0", "duration_max": "302.0", "duration_median": "294.0", "duration_count": "12"}, {"place_id": "spain_55", "place_name": "Zaragoza", "place_lat": "41.658649", "place_lon": "-0.911615", "duration_min": "243.0", "duration_max": "251.0", "duration_median": "250.0", "duration_count": "14"}]}