{"place_id": "spain_805", "place_name": "Llanca", "place_lat": "42.3665949", "place_lon": "3.14898700", "place_brief_desc": "Popular string of beaches and port with historic bunkers.", "place_longer_desc": "Popular string of beaches and port with historic bunkers.", "place_image": "./static/images/llanca.png", "place_tags": "history", "place_links": "./static/places/llanca.html", "place_country": "Spain", "hops": [{"place_id": "spain_1", "place_name": "Barcelona", "place_lat": "41.37922", "place_lon": "2.140624", "duration_min": "122.0", "duration_max": "146.0", "duration_median": "136.0", "duration_count": "106"}, {"place_id": "spain_104", "place_name": "Figueres", "place_lat": "42.2647710", "place_lon": "2.94354700", "duration_min": "13.0", "duration_max": "14.0", "duration_median": "14.0", "duration_count": "53"}, {"place_id": "spain_105", "place_name": "Girona", "place_lat": "41.9793030", "place_lon": "2.81700600", "duration_min": "45.0", "duration_max": "54.0", "duration_median": "48.0", "duration_count": "53"}, {"place_id": "spain_806", "place_name": "Portbou", "place_lat": "42.4244940", "place_lon": "3.15785800", "duration_min": "6.0", "duration_max": "15.0", "duration_median": "8.0", "duration_count": "142"}]}