{"place_id": "switzerland_2", "place_name": "Bern", "place_lat": "46.948834", "place_lon": "7.439131", "place_brief_desc": "The capital city of Switzerland is a UNESCO World Heritage site, with a medieval Old Town that features 6km (3.7 miles) of covered arcades, colourful fountains, and historic buildings. You can visit the Einstein-Haus, where the genius developed his theory of relativity, the Kunsthaus, which has an outstanding fine arts collection, and the Zentrum Paul Klee, a modern museum dedicated to the Swiss painter. Bern is also surrounded by wooded hills and the turquoise Aare river, which you can swim in during summer.", "place_longer_desc": "./static/places/bern.html", "place_image": "./static/images/bern.png", "place_tags": "history", "place_links": "https://www.lonelyplanet.com/search?q=Bern", "place_country": "Switzerland", "hops": {"Germany_5": {"place_id": "Germany_5", "place_name": "Cologne", "place_lat": "50.941312", "place_lon": "6.967206", "journeys": [23880, 23880, 21660], "duration_median": 23880, "duration_min": 21660, "duration_max": 23880}, "Germany_6": {"place_id": "Germany_6", "place_name": "Freiburg", "place_lat": "47.997974", "place_lon": "7.841344", "journeys": [8280, 6600, 8940], "duration_median": 8280, "duration_min": 6600, "duration_max": 8940}, "Germany_7": {"place_id": "Germany_7", "place_name": "Hamburg", "place_lat": "53.55711", "place_lon": "9.997434", "journeys": [32400, 30840, 38400, 32400, 30840, 38400], "duration_median": 32400.0, "duration_min": 30840, "duration_max": 38400}, "switzerland_3": {"place_id": "switzerland_3", "place_name": "Geneva", "place_lat": "46.210209", "place_lon": "6.142455", "journeys": [7140, 7020, 7260], "duration_median": 7140, "duration_min": 7020, "duration_max": 7260}, "switzerland_4": {"place_id": "switzerland_4", "place_name": "Lucerne", "place_lat": "47.050179", "place_lon": "8.310186", "journeys": [4620, 5220, 4620], "duration_median": 4620, "duration_min": 4620, "duration_max": 5220}, "switzerland_6": {"place_id": "switzerland_6", "place_name": "Zurich", "place_lat": "47.378968", "place_lon": "8.540534", "journeys": [4740, 4800, 4620, 4740, 4800, 4620], "duration_median": 4740.0, "duration_min": 4620, "duration_max": 4800}}}