{"place_id": "switzerland_2", "place_name": "Bern", "place_lat": "46.948834", "place_lon": "7.439131", "place_brief_desc": "The capital city of Switzerland and a UNESCO World Heritage site.", "place_longer_desc": "The capital city of Switzerland is a UNESCO World Heritage site, with a medieval Old Town that features 6km (3.7 miles) of covered arcades, colourful fountains, and historic buildings. You can visit the Einstein-Haus, where the genius developed his theory of relativity, the Kunsthaus, which has an outstanding fine arts collection, and the Zentrum Paul Klee, a modern museum dedicated to the Swiss painter. Bern is also surrounded by wooded hills and the turquoise Aare river, which you can swim in during summer.", "place_image": "./static/images/bern.png", "place_tags": "history", "place_links": "./static/places/bern.html", "place_country": "Switzerland", "hops": [{"place_id": "Germany_3", "place_name": "Nuremberg", "place_lat": "49.450748", "place_lon": "11.077955", "duration_min": "415.0", "duration_max": "415.0", "duration_median": "415.0", "duration_count": "1"}, {"place_id": "Germany_4", "place_name": "Munich", "place_lat": "48.140364", "place_lon": "11.558744", "duration_min": "420.0", "duration_max": "425.0", "duration_median": "422.5", "duration_count": "2"}, {"place_id": "Germany_6", "place_name": "Freiburg", "place_lat": "47.997974", "place_lon": "7.841344", "duration_min": "145.0", "duration_max": "160.0", "duration_median": "160.0", "duration_count": "3"}, {"place_id": "austria_5", "place_name": "Bregenz", "place_lat": "47.503001", "place_lon": "9.739623", "duration_min": "225.0", "duration_max": "230.0", "duration_median": "227.5", "duration_count": "2"}, {"place_id": "czechia_1", "place_name": "Prague", "place_lat": "50.081926", "place_lon": "14.451481", "duration_min": "640.0", "duration_max": "640.0", "duration_median": "640.0", "duration_count": "1"}, {"place_id": "france_123", "place_name": "Montpellier", "place_lat": "43.6047800", "place_lon": "3.88116800", "duration_min": "585.0", "duration_max": "585.0", "duration_median": "585.0", "duration_count": "1"}, {"place_id": "france_127", "place_name": "Narbonne", "place_lat": "43.1906640", "place_lon": "3.00556200", "duration_min": "695.0", "duration_max": "695.0", "duration_median": "695.0", "duration_count": "1"}, {"place_id": "france_162", "place_name": "Strasbourg", "place_lat": "48.585339", "place_lon": "7.734067", "duration_min": "175.0", "duration_max": "175.0", "duration_median": "175.0", "duration_count": "1"}, {"place_id": "france_93", "place_name": "Lyon", "place_lat": "45.7605960", "place_lon": "4.85940900", "duration_min": "295.0", "duration_max": "335.0", "duration_median": "310.0", "duration_count": "4"}, {"place_id": "italy_7", "place_name": "Milan", "place_lat": "45.462477", "place_lon": "9.207597", "duration_min": "186.0", "duration_max": "186.0", "duration_median": "186.0", "duration_count": "5"}, {"place_id": "italy_8", "place_name": "Turin", "place_lat": "45.067428", "place_lon": "7.672976", "duration_min": "295.0", "duration_max": "295.0", "duration_median": "295.0", "duration_count": "1"}, {"place_id": "switzerland_3", "place_name": "Geneva", "place_lat": "46.210209", "place_lon": "6.142455", "duration_min": "140.0", "duration_max": "185.0", "duration_median": "150.0", "duration_count": "5"}, {"place_id": "switzerland_6", "place_name": "Zurich", "place_lat": "47.378968", "place_lon": "8.540534", "duration_min": "95.0", "duration_max": "95.0", "duration_median": "95.0", "duration_count": "2"}]}