{"place_id": "switzerland_4", "place_name": "Lucerne", "place_lat": "47.050179", "place_lon": "8.310186", "place_brief_desc": "Charming city in central Switzerland is situated on the shores of Lake Lucerne, with a backdrop of snow-capped mountains.", "place_longer_desc": "This charming city in central Switzerland is situated on the shores of Lake Lucerne, with a backdrop of snow-capped mountains. You can stroll along the Chapel Bridge, a wooden bridge with painted panels that dates back to the 14th century, visit the Lion Monument, a carved stone lion that commemorates the Swiss soldiers who died during the French Revolution, and explore the Old Town, which has many colourful buildings and squares. You can also take a boat ride on the lake or a cable car up to Mount Pilatus or Mount Rigi for panoramic views.", "place_image": "./static/images/lucerne.png", "place_tags": "history", "place_links": "./static/places/lucerne.html", "place_country": "Switzerland", "hops": [{"place_id": "Germany_6", "place_name": "Freiburg", "place_lat": "47.997974", "place_lon": "7.841344", "duration_min": "190.0", "duration_max": "255.0", "duration_median": "255.0", "duration_count": "4"}, {"place_id": "Germany_7", "place_name": "Hamburg", "place_lat": "53.55711", "place_lon": "9.997434", "duration_min": "925.0", "duration_max": "925.0", "duration_median": "925.0", "duration_count": "1"}, {"place_id": "Germany_8", "place_name": "Heidelberg", "place_lat": "49.403582", "place_lon": "8.67548", "duration_min": "415.0", "duration_max": "415.0", "duration_median": "415.0", "duration_count": "1"}, {"place_id": "france_162", "place_name": "Strasbourg", "place_lat": "48.585339", "place_lon": "7.734067", "duration_min": "185.0", "duration_max": "335.0", "duration_median": "302.5", "duration_count": "4"}, {"place_id": "italy_1", "place_name": "Venice", "place_lat": "45.444427", "place_lon": "12.315491", "duration_min": "450.0", "duration_max": "450.0", "duration_median": "450.0", "duration_count": "1"}, {"place_id": "switzerland_6", "place_name": "Zurich", "place_lat": "47.378968", "place_lon": "8.540534", "duration_min": "45.0", "duration_max": "75.0", "duration_median": "65.0", "duration_count": "4"}]}