,place_id,place_id_x,duration_min,duration_max,duration_median,place_id,place_name,stop_id,stop_name,stop_lat,stop_lon,place_brief_desc,place_longer_desc,place_image,place_tags,place_links
0,france_1,france_19,183.0,198.0,190.5,france_1,Futuroscope,StopPoint:OCEOUIGO-87324095,Futuroscope,46.669918,0.377209,"French theme park based upon multimedia, cinematographic, and audiovisual techniques.","French theme park based upon multimedia, cinematographic, and audiovisual techniques. It has several 3D cinemas and a few 4D cinemas along with other attractions and shows, some of which are the only examples in the world",../static/images/futuroscope.jpg,museum|science|kids,../static/places/futuroscope.html
1,france_1,france_24,127.0,137.0,132.0,france_1,Futuroscope,StopPoint:OCEOUIGO-87324095,Futuroscope,46.669918,0.377209,"French theme park based upon multimedia, cinematographic, and audiovisual techniques.","French theme park based upon multimedia, cinematographic, and audiovisual techniques. It has several 3D cinemas and a few 4D cinemas along with other attractions and shows, some of which are the only examples in the world",../static/images/futuroscope.jpg,museum|science|kids,../static/places/futuroscope.html
2,france_2,france_19,40.0,57.0,56.5,france_2,Versailles,StopPoint:OCEOUIGO-87393009,Versailles Chantiers,48.795649,2.135924,Home of the palace built by King Louis XIV,The Palace of Versailles is a former royal residence built by King Louis XIV,../static/images/versailles.jpg,museum|history|kids| culture,../static/places/versailles.html
3,france_2,france_3,13.0,19.0,17.0,france_2,Versailles,StopPoint:OCEOUIGO-87393009,Versailles Chantiers,48.795649,2.135924,Home of the palace built by King Louis XIV,The Palace of Versailles is a former royal residence built by King Louis XIV,../static/images/versailles.jpg,museum|history|kids| culture,../static/places/versailles.html
4,france_2,france_4,36.0,59.0,43.0,france_2,Versailles,StopPoint:OCEOUIGO-87393009,Versailles Chantiers,48.795649,2.135924,Home of the palace built by King Louis XIV,The Palace of Versailles is a former royal residence built by King Louis XIV,../static/images/versailles.jpg,museum|history|kids| culture,../static/places/versailles.html
5,france_2,france_5,98.0,141.0,105.0,france_2,Versailles,StopPoint:OCEOUIGO-87393009,Versailles Chantiers,48.795649,2.135924,Home of the palace built by King Louis XIV,The Palace of Versailles is a former royal residence built by King Louis XIV,../static/images/versailles.jpg,museum|history|kids| culture,../static/places/versailles.html
6,france_2,france_6,194.0,238.0,227.0,france_2,Versailles,StopPoint:OCEOUIGO-87393009,Versailles Chantiers,48.795649,2.135924,Home of the palace built by King Louis XIV,The Palace of Versailles is a former royal residence built by King Louis XIV,../static/images/versailles.jpg,museum|history|kids| culture,../static/places/versailles.html
7,france_2,france_7,156.0,195.0,184.5,france_2,Versailles,StopPoint:OCEOUIGO-87393009,Versailles Chantiers,48.795649,2.135924,Home of the palace built by King Louis XIV,The Palace of Versailles is a former royal residence built by King Louis XIV,../static/images/versailles.jpg,museum|history|kids| culture,../static/places/versailles.html
8,france_4,france_19,83.0,99.0,95.0,france_4,Chartres,StopPoint:OCEOUIGO-87394007,Chartres,48.448628,1.481202,Chartres famed for its massive Cathédrale Notre-Dame,"Chartres, a city in north-central France southwest of Paris, is famed for its massive Cathédrale Notre-Dame. The Gothic cathedral, completed in 1220, features 2 towering spires, flying buttresses, Romanesque sculptures, pavement labyrinth and elaborate rose windows. The interior's blue-tinted stained glass is distinctive, and the nearby Centre International du Vitrail has workshops and exhibits on stained-glass art",../static/images/chartres.png,city break| culture| history,../static/places/chartres.html
9,france_4,france_2,36.0,48.0,37.5,france_4,Chartres,StopPoint:OCEOUIGO-87394007,Chartres,48.448628,1.481202,Chartres famed for its massive Cathédrale Notre-Dame,"Chartres, a city in north-central France southwest of Paris, is famed for its massive Cathédrale Notre-Dame. The Gothic cathedral, completed in 1220, features 2 towering spires, flying buttresses, Romanesque sculptures, pavement labyrinth and elaborate rose windows. The interior's blue-tinted stained glass is distinctive, and the nearby Centre International du Vitrail has workshops and exhibits on stained-glass art",../static/images/chartres.png,city break| culture| history,../static/places/chartres.html
10,france_4,france_3,56.0,63.0,57.5,france_4,Chartres,StopPoint:OCEOUIGO-87394007,Chartres,48.448628,1.481202,Chartres famed for its massive Cathédrale Notre-Dame,"Chartres, a city in north-central France southwest of Paris, is famed for its massive Cathédrale Notre-Dame. The Gothic cathedral, completed in 1220, features 2 towering spires, flying buttresses, Romanesque sculptures, pavement labyrinth and elaborate rose windows. The interior's blue-tinted stained glass is distinctive, and the nearby Centre International du Vitrail has workshops and exhibits on stained-glass art",../static/images/chartres.png,city break| culture| history,../static/places/chartres.html
11,france_4,france_5,59.0,76.0,59.0,france_4,Chartres,StopPoint:OCEOUIGO-87394007,Chartres,48.448628,1.481202,Chartres famed for its massive Cathédrale Notre-Dame,"Chartres, a city in north-central France southwest of Paris, is famed for its massive Cathédrale Notre-Dame. The Gothic cathedral, completed in 1220, features 2 towering spires, flying buttresses, Romanesque sculptures, pavement labyrinth and elaborate rose windows. The interior's blue-tinted stained glass is distinctive, and the nearby Centre International du Vitrail has workshops and exhibits on stained-glass art",../static/images/chartres.png,city break| culture| history,../static/places/chartres.html
12,france_4,france_6,150.0,182.0,165.0,france_4,Chartres,StopPoint:OCEOUIGO-87394007,Chartres,48.448628,1.481202,Chartres famed for its massive Cathédrale Notre-Dame,"Chartres, a city in north-central France southwest of Paris, is famed for its massive Cathédrale Notre-Dame. The Gothic cathedral, completed in 1220, features 2 towering spires, flying buttresses, Romanesque sculptures, pavement labyrinth and elaborate rose windows. The interior's blue-tinted stained glass is distinctive, and the nearby Centre International du Vitrail has workshops and exhibits on stained-glass art",../static/images/chartres.png,city break| culture| history,../static/places/chartres.html
13,france_4,france_7,112.0,139.0,122.5,france_4,Chartres,StopPoint:OCEOUIGO-87394007,Chartres,48.448628,1.481202,Chartres famed for its massive Cathédrale Notre-Dame,"Chartres, a city in north-central France southwest of Paris, is famed for its massive Cathédrale Notre-Dame. The Gothic cathedral, completed in 1220, features 2 towering spires, flying buttresses, Romanesque sculptures, pavement labyrinth and elaborate rose windows. The interior's blue-tinted stained glass is distinctive, and the nearby Centre International du Vitrail has workshops and exhibits on stained-glass art",../static/images/chartres.png,city break| culture| history,../static/places/chartres.html
14,france_6,france_19,231.0,267.0,245.0,france_6,Rennes,StopPoint:OCEOUIGO-87471003,Rennes,48.103071,-1.672131,"Rennes is the chief city of Brittany in northwest France. It's mostly modern and industrial, but has many grand 18th and 19th century buildings.","Rennes is the chief city of Brittany in northwest France. It's mostly modern and industrial, but has many grand 18th and 19th century buildings, and survivors of earlier times. It's also well-endowed with cultural attractions. In 2020 the city population was 222,485, with about 150,000 more living in the wider metropolis.",../static/images/rennes.png,city break,../static/places/rennes.html
15,france_6,france_2,184.0,208.0,186.0,france_6,Rennes,StopPoint:OCEOUIGO-87471003,Rennes,48.103071,-1.672131,"Rennes is the chief city of Brittany in northwest France. It's mostly modern and industrial, but has many grand 18th and 19th century buildings.","Rennes is the chief city of Brittany in northwest France. It's mostly modern and industrial, but has many grand 18th and 19th century buildings, and survivors of earlier times. It's also well-endowed with cultural attractions. In 2020 the city population was 222,485, with about 150,000 more living in the wider metropolis.",../static/images/rennes.png,city break,../static/places/rennes.html
16,france_6,france_3,205.0,229.0,207.0,france_6,Rennes,StopPoint:OCEOUIGO-87471003,Rennes,48.103071,-1.672131,"Rennes is the chief city of Brittany in northwest France. It's mostly modern and industrial, but has many grand 18th and 19th century buildings.","Rennes is the chief city of Brittany in northwest France. It's mostly modern and industrial, but has many grand 18th and 19th century buildings, and survivors of earlier times. It's also well-endowed with cultural attractions. In 2020 the city population was 222,485, with about 150,000 more living in the wider metropolis.",../static/images/rennes.png,city break,../static/places/rennes.html
17,france_6,france_4,144.0,169.0,145.0,france_6,Rennes,StopPoint:OCEOUIGO-87471003,Rennes,48.103071,-1.672131,"Rennes is the chief city of Brittany in northwest France. It's mostly modern and industrial, but has many grand 18th and 19th century buildings.","Rennes is the chief city of Brittany in northwest France. It's mostly modern and industrial, but has many grand 18th and 19th century buildings, and survivors of earlier times. It's also well-endowed with cultural attractions. In 2020 the city population was 222,485, with about 150,000 more living in the wider metropolis.",../static/images/rennes.png,city break,../static/places/rennes.html
18,france_6,france_5,82.0,99.0,83.0,france_6,Rennes,StopPoint:OCEOUIGO-87471003,Rennes,48.103071,-1.672131,"Rennes is the chief city of Brittany in northwest France. It's mostly modern and industrial, but has many grand 18th and 19th century buildings.","Rennes is the chief city of Brittany in northwest France. It's mostly modern and industrial, but has many grand 18th and 19th century buildings, and survivors of earlier times. It's also well-endowed with cultural attractions. In 2020 the city population was 222,485, with about 150,000 more living in the wider metropolis.",../static/images/rennes.png,city break,../static/places/rennes.html
19,france_6,france_7,37.0,38.0,37.0,france_6,Rennes,StopPoint:OCEOUIGO-87471003,Rennes,48.103071,-1.672131,"Rennes is the chief city of Brittany in northwest France. It's mostly modern and industrial, but has many grand 18th and 19th century buildings.","Rennes is the chief city of Brittany in northwest France. It's mostly modern and industrial, but has many grand 18th and 19th century buildings, and survivors of earlier times. It's also well-endowed with cultural attractions. In 2020 the city population was 222,485, with about 150,000 more living in the wider metropolis.",../static/images/rennes.png,city break,../static/places/rennes.html
20,france_10,france_15,48.0,50.0,50.0,france_10,La Rochelle,StopPoint:OCEINTERCITES-87485003,La Rochelle,46.152703,-1.145288,"La Rochelle, capital of Charente-Maritime and one of the most livable cities in France, is a pretty good place to go and get nautical.","La Rochelle, capital of Charente-Maritime and one of the most livable cities in France, is a pretty good place to go and get nautical.",../static/images/la-rochelle.png,,../static/places/la-rochelle.html
21,france_10,france_24,142.0,144.0,142.0,france_10,La Rochelle,StopPoint:OCEINTERCITES-87485003,La Rochelle,46.152703,-1.145288,"La Rochelle, capital of Charente-Maritime and one of the most livable cities in France, is a pretty good place to go and get nautical.","La Rochelle, capital of Charente-Maritime and one of the most livable cities in France, is a pretty good place to go and get nautical.",../static/images/la-rochelle.png,,../static/places/la-rochelle.html
22,france_15,france_10,47.0,49.0,49.0,france_15,Saintes,StopPoint:OCEINTERCITES-87491001,Saintes,45.748886,-0.617356,Saintes,"Saintes is a city on the Charente river in Charente-Maritime, in southwestern France. It was the capital of the historical Saintogne County, many landmarks from its glorious past have been preserved, and as such it has been classified as a Ville d'art et d'histoire (""City of art and history"").",../static/images/la-rochelle.png,history|city break,../static/places/saintes.html
23,france_15,france_24,90.0,93.0,91.0,france_15,Saintes,StopPoint:OCEINTERCITES-87491001,Saintes,45.748886,-0.617356,Saintes,"Saintes is a city on the Charente river in Charente-Maritime, in southwestern France. It was the capital of the historical Saintogne County, many landmarks from its glorious past have been preserved, and as such it has been classified as a Ville d'art et d'histoire (""City of art and history"").",../static/images/la-rochelle.png,history|city break,../static/places/saintes.html
24,france_19,france_1,165.0,178.0,171.5,france_19,Paris,StopPoint:OCEOUIGO-87547000,Paris Austerlitz,48.840496,2.367079,Paris,"We’ll always have Paris' - Casablanca \nAh Paris, where do you start...",../static/images/paris.png,history|kids|city break,../static/places/paris.html
25,france_19,france_105,579.0,619.0,589.0,france_19,Paris,StopPoint:OCEOUIGO-87547000,Paris Austerlitz,48.840496,2.367079,Paris,"We’ll always have Paris' - Casablanca \nAh Paris, where do you start...",../static/images/paris.png,history|kids|city break,../static/places/paris.html
26,france_19,france_123,539.0,609.0,539.0,france_19,Paris,StopPoint:OCEOUIGO-87547000,Paris Austerlitz,48.840496,2.367079,Paris,"We’ll always have Paris' - Casablanca \nAh Paris, where do you start...",../static/images/paris.png,history|kids|city break,../static/places/paris.html
27,france_19,france_124,560.0,633.0,560.0,france_19,Paris,StopPoint:OCEOUIGO-87547000,Paris Austerlitz,48.840496,2.367079,Paris,"We’ll always have Paris' - Casablanca \nAh Paris, where do you start...",../static/images/paris.png,history|kids|city break,../static/places/paris.html
28,france_19,france_125,512.0,570.0,512.0,france_19,Paris,StopPoint:OCEOUIGO-87547000,Paris Austerlitz,48.840496,2.367079,Paris,"We’ll always have Paris' - Casablanca \nAh Paris, where do you start...",../static/images/paris.png,history|kids|city break,../static/places/paris.html
29,france_19,france_127,590.0,678.0,604.0,france_19,Paris,StopPoint:OCEOUIGO-87547000,Paris Austerlitz,48.840496,2.367079,Paris,"We’ll always have Paris' - Casablanca \nAh Paris, where do you start...",../static/images/paris.png,history|kids|city break,../static/places/paris.html
30,france_19,france_145,654.0,727.0,672.0,france_19,Paris,StopPoint:OCEOUIGO-87547000,Paris Austerlitz,48.840496,2.367079,Paris,"We’ll always have Paris' - Casablanca \nAh Paris, where do you start...",../static/images/paris.png,history|kids|city break,../static/places/paris.html
31,france_19,france_148,681.0,754.0,702.0,france_19,Paris,StopPoint:OCEOUIGO-87547000,Paris Austerlitz,48.840496,2.367079,Paris,"We’ll always have Paris' - Casablanca \nAh Paris, where do you start...",../static/images/paris.png,history|kids|city break,../static/places/paris.html
32,france_19,france_151,701.0,774.0,722.0,france_19,Paris,StopPoint:OCEOUIGO-87547000,Paris Austerlitz,48.840496,2.367079,Paris,"We’ll always have Paris' - Casablanca \nAh Paris, where do you start...",../static/images/paris.png,history|kids|city break,../static/places/paris.html
33,france_19,france_2,37.0,66.0,59.0,france_19,Paris,StopPoint:OCEOUIGO-87547000,Paris Austerlitz,48.840496,2.367079,Paris,"We’ll always have Paris' - Casablanca \nAh Paris, where do you start...",../static/images/paris.png,history|kids|city break,../static/places/paris.html
34,france_19,france_24,295.0,318.0,306.5,france_19,Paris,StopPoint:OCEOUIGO-87547000,Paris Austerlitz,48.840496,2.367079,Paris,"We’ll always have Paris' - Casablanca \nAh Paris, where do you start...",../static/images/paris.png,history|kids|city break,../static/places/paris.html
35,france_19,france_28,190.0,246.0,205.5,france_19,Paris,StopPoint:OCEOUIGO-87547000,Paris Austerlitz,48.840496,2.367079,Paris,"We’ll always have Paris' - Casablanca \nAh Paris, where do you start...",../static/images/paris.png,history|kids|city break,../static/places/paris.html
36,france_19,france_3,21.0,43.0,34.0,france_19,Paris,StopPoint:OCEOUIGO-87547000,Paris Austerlitz,48.840496,2.367079,Paris,"We’ll always have Paris' - Casablanca \nAh Paris, where do you start...",../static/images/paris.png,history|kids|city break,../static/places/paris.html
37,france_19,france_38,407.0,530.0,423.5,france_19,Paris,StopPoint:OCEOUIGO-87547000,Paris Austerlitz,48.840496,2.367079,Paris,"We’ll always have Paris' - Casablanca \nAh Paris, where do you start...",../static/images/paris.png,history|kids|city break,../static/places/paris.html
38,france_19,france_4,94.0,120.0,106.0,france_19,Paris,StopPoint:OCEOUIGO-87547000,Paris Austerlitz,48.840496,2.367079,Paris,"We’ll always have Paris' - Casablanca \nAh Paris, where do you start...",../static/images/paris.png,history|kids|city break,../static/places/paris.html
39,france_19,france_45,704.0,756.0,733.0,france_19,Paris,StopPoint:OCEOUIGO-87547000,Paris Austerlitz,48.840496,2.367079,Paris,"We’ll always have Paris' - Casablanca \nAh Paris, where do you start...",../static/images/paris.png,history|kids|city break,../static/places/paris.html
40,france_19,france_5,158.0,197.0,170.0,france_19,Paris,StopPoint:OCEOUIGO-87547000,Paris Austerlitz,48.840496,2.367079,Paris,"We’ll always have Paris' - Casablanca \nAh Paris, where do you start...",../static/images/paris.png,history|kids|city break,../static/places/paris.html
41,france_19,france_6,247.0,293.0,284.5,france_19,Paris,StopPoint:OCEOUIGO-87547000,Paris Austerlitz,48.840496,2.367079,Paris,"We’ll always have Paris' - Casablanca \nAh Paris, where do you start...",../static/images/paris.png,history|kids|city break,../static/places/paris.html
42,france_19,france_7,209.0,250.0,242.0,france_19,Paris,StopPoint:OCEOUIGO-87547000,Paris Austerlitz,48.840496,2.367079,Paris,"We’ll always have Paris' - Casablanca \nAh Paris, where do you start...",../static/images/paris.png,history|kids|city break,../static/places/paris.html
43,france_19,france_72,555.0,600.0,563.0,france_19,Paris,StopPoint:OCEOUIGO-87547000,Paris Austerlitz,48.840496,2.367079,Paris,"We’ll always have Paris' - Casablanca \nAh Paris, where do you start...",../static/images/paris.png,history|kids|city break,../static/places/paris.html
44,france_19,france_80,631.0,657.0,641.0,france_19,Paris,StopPoint:OCEOUIGO-87547000,Paris Austerlitz,48.840496,2.367079,Paris,"We’ll always have Paris' - Casablanca \nAh Paris, where do you start...",../static/images/paris.png,history|kids|city break,../static/places/paris.html
45,france_19,france_93,288.0,340.0,303.0,france_19,Paris,StopPoint:OCEOUIGO-87547000,Paris Austerlitz,48.840496,2.367079,Paris,"We’ll always have Paris' - Casablanca \nAh Paris, where do you start...",../static/images/paris.png,history|kids|city break,../static/places/paris.html
46,france_19,france_97,170.0,220.0,176.0,france_19,Paris,StopPoint:OCEOUIGO-87547000,Paris Austerlitz,48.840496,2.367079,Paris,"We’ll always have Paris' - Casablanca \nAh Paris, where do you start...",../static/images/paris.png,history|kids|city break,../static/places/paris.html
47,france_24,france_1,134.0,137.0,135.5,france_24,Bordeaux,StopPoint:OCEOUIGO-87581009,Bordeaux Saint-Jean,44.825823,-0.556012,Bordeaux,"Bordeaux, resting on the banks of the Garonne is the global capital of wine and it would be rude not to get straight to the point and pay a visit to La Cité du Vin where you can learn about how the giggle-juice is made and maybe do some tasting?",../static/images/bordeaux.png,history|kids|city break,../static/places/bordeaux.html
48,france_24,france_10,144.0,154.0,146.5,france_24,Bordeaux,StopPoint:OCEOUIGO-87581009,Bordeaux Saint-Jean,44.825823,-0.556012,Bordeaux,"Bordeaux, resting on the banks of the Garonne is the global capital of wine and it would be rude not to get straight to the point and pay a visit to La Cité du Vin where you can learn about how the giggle-juice is made and maybe do some tasting?",../static/images/bordeaux.png,history|kids|city break,../static/places/bordeaux.html
49,france_24,france_105,364.0,376.0,369.0,france_24,Bordeaux,StopPoint:OCEOUIGO-87581009,Bordeaux Saint-Jean,44.825823,-0.556012,Bordeaux,"Bordeaux, resting on the banks of the Garonne is the global capital of wine and it would be rude not to get straight to the point and pay a visit to La Cité du Vin where you can learn about how the giggle-juice is made and maybe do some tasting?",../static/images/bordeaux.png,history|kids|city break,../static/places/bordeaux.html
50,france_24,france_106,321.0,325.0,324.0,france_24,Bordeaux,StopPoint:OCEOUIGO-87581009,Bordeaux Saint-Jean,44.825823,-0.556012,Bordeaux,"Bordeaux, resting on the banks of the Garonne is the global capital of wine and it would be rude not to get straight to the point and pay a visit to La Cité du Vin where you can learn about how the giggle-juice is made and maybe do some tasting?",../static/images/bordeaux.png,history|kids|city break,../static/places/bordeaux.html
51,france_24,france_123,265.0,282.0,267.0,france_24,Bordeaux,StopPoint:OCEOUIGO-87581009,Bordeaux Saint-Jean,44.825823,-0.556012,Bordeaux,"Bordeaux, resting on the banks of the Garonne is the global capital of wine and it would be rude not to get straight to the point and pay a visit to La Cité du Vin where you can learn about how the giggle-juice is made and maybe do some tasting?",../static/images/bordeaux.png,history|kids|city break,../static/places/bordeaux.html
52,france_24,france_124,249.0,253.0,251.5,france_24,Bordeaux,StopPoint:OCEOUIGO-87581009,Bordeaux Saint-Jean,44.825823,-0.556012,Bordeaux,"Bordeaux, resting on the banks of the Garonne is the global capital of wine and it would be rude not to get straight to the point and pay a visit to La Cité du Vin where you can learn about how the giggle-juice is made and maybe do some tasting?",../static/images/bordeaux.png,history|kids|city break,../static/places/bordeaux.html
53,france_24,france_125,293.0,310.0,295.0,france_24,Bordeaux,StopPoint:OCEOUIGO-87581009,Bordeaux Saint-Jean,44.825823,-0.556012,Bordeaux,"Bordeaux, resting on the banks of the Garonne is the global capital of wine and it would be rude not to get straight to the point and pay a visit to La Cité du Vin where you can learn about how the giggle-juice is made and maybe do some tasting?",../static/images/bordeaux.png,history|kids|city break,../static/places/bordeaux.html
54,france_24,france_127,207.0,223.0,210.0,france_24,Bordeaux,StopPoint:OCEOUIGO-87581009,Bordeaux Saint-Jean,44.825823,-0.556012,Bordeaux,"Bordeaux, resting on the banks of the Garonne is the global capital of wine and it would be rude not to get straight to the point and pay a visit to La Cité du Vin where you can learn about how the giggle-juice is made and maybe do some tasting?",../static/images/bordeaux.png,history|kids|city break,../static/places/bordeaux.html
55,france_24,france_15,93.0,103.0,96.0,france_24,Bordeaux,StopPoint:OCEOUIGO-87581009,Bordeaux Saint-Jean,44.825823,-0.556012,Bordeaux,"Bordeaux, resting on the banks of the Garonne is the global capital of wine and it would be rude not to get straight to the point and pay a visit to La Cité du Vin where you can learn about how the giggle-juice is made and maybe do some tasting?",../static/images/bordeaux.png,history|kids|city break,../static/places/bordeaux.html
56,france_24,france_19,319.0,338.0,328.5,france_24,Bordeaux,StopPoint:OCEOUIGO-87581009,Bordeaux Saint-Jean,44.825823,-0.556012,Bordeaux,"Bordeaux, resting on the banks of the Garonne is the global capital of wine and it would be rude not to get straight to the point and pay a visit to La Cité du Vin where you can learn about how the giggle-juice is made and maybe do some tasting?",../static/images/bordeaux.png,history|kids|city break,../static/places/bordeaux.html
57,france_24,france_38,128.0,139.0,129.0,france_24,Bordeaux,StopPoint:OCEOUIGO-87581009,Bordeaux Saint-Jean,44.825823,-0.556012,Bordeaux,"Bordeaux, resting on the banks of the Garonne is the global capital of wine and it would be rude not to get straight to the point and pay a visit to La Cité du Vin where you can learn about how the giggle-juice is made and maybe do some tasting?",../static/images/bordeaux.png,history|kids|city break,../static/places/bordeaux.html
58,france_24,france_72,176.0,190.0,179.0,france_24,Bordeaux,StopPoint:OCEOUIGO-87581009,Bordeaux Saint-Jean,44.825823,-0.556012,Bordeaux,"Bordeaux, resting on the banks of the Garonne is the global capital of wine and it would be rude not to get straight to the point and pay a visit to La Cité du Vin where you can learn about how the giggle-juice is made and maybe do some tasting?",../static/images/bordeaux.png,history|kids|city break,../static/places/bordeaux.html
59,france_28,france_19,191.0,242.0,200.0,france_28,Limoges,StopPoint:OCEINTERCITES-87592006,Limoges Bénédictins,45.837218,1.269008,Limoges,"Limoges is a city in southwest-central France. It’s known for its decorated porcelain, much of which is on display at the Musée National Adrien Dubouché. In the historic center, medieval timber-frame houses line Rue de la Boucherie. Set in the former Episcopal Palace, the Musée des Beaux-Arts showcases the history of the city's medieval enamel. The Gothic Cathédrale St-Étienne de Limoges took 6 centuries to complete",../static/images/limoges.png,history|art,../static/places/limoges.html
60,france_28,france_38,201.0,223.0,209.0,france_28,Limoges,StopPoint:OCEINTERCITES-87592006,Limoges Bénédictins,45.837218,1.269008,Limoges,"Limoges is a city in southwest-central France. It’s known for its decorated porcelain, much of which is on display at the Musée National Adrien Dubouché. In the historic center, medieval timber-frame houses line Rue de la Boucherie. Set in the former Episcopal Palace, the Musée des Beaux-Arts showcases the history of the city's medieval enamel. The Gothic Cathédrale St-Étienne de Limoges took 6 centuries to complete",../static/images/limoges.png,history|art,../static/places/limoges.html
61,france_38,france_105,228.0,242.0,234.0,france_38,Toulouse,StopPoint:OCEINTERCITES de nuit-87611004,Toulouse Matabiau,43.611437,1.454237,Toulouse,"Toulouse, known as 'La Ville Rose', is the proud capital of the Occitan region of France which has had a distinctly independent culture and language - hence its bilingual street signs. Wandering around the city with its rose-coloured bricks, it does feel markedly different from the yellow limestone which dominates so many parts of France.",../static/images/toulouse.png,history|food,../static/places/toulouse.html
62,france_38,france_106,186.0,196.0,187.0,france_38,Toulouse,StopPoint:OCEINTERCITES de nuit-87611004,Toulouse Matabiau,43.611437,1.454237,Toulouse,"Toulouse, known as 'La Ville Rose', is the proud capital of the Occitan region of France which has had a distinctly independent culture and language - hence its bilingual street signs. Wandering around the city with its rose-coloured bricks, it does feel markedly different from the yellow limestone which dominates so many parts of France.",../static/images/toulouse.png,history|food,../static/places/toulouse.html
63,france_38,france_123,131.0,139.0,132.0,france_38,Toulouse,StopPoint:OCEINTERCITES de nuit-87611004,Toulouse Matabiau,43.611437,1.454237,Toulouse,"Toulouse, known as 'La Ville Rose', is the proud capital of the Occitan region of France which has had a distinctly independent culture and language - hence its bilingual street signs. Wandering around the city with its rose-coloured bricks, it does feel markedly different from the yellow limestone which dominates so many parts of France.",../static/images/toulouse.png,history|food,../static/places/toulouse.html
64,france_38,france_124,114.0,123.0,115.0,france_38,Toulouse,StopPoint:OCEINTERCITES de nuit-87611004,Toulouse Matabiau,43.611437,1.454237,Toulouse,"Toulouse, known as 'La Ville Rose', is the proud capital of the Occitan region of France which has had a distinctly independent culture and language - hence its bilingual street signs. Wandering around the city with its rose-coloured bricks, it does feel markedly different from the yellow limestone which dominates so many parts of France.",../static/images/toulouse.png,history|food,../static/places/toulouse.html
65,france_38,france_125,159.0,167.0,160.0,france_38,Toulouse,StopPoint:OCEINTERCITES de nuit-87611004,Toulouse Matabiau,43.611437,1.454237,Toulouse,"Toulouse, known as 'La Ville Rose', is the proud capital of the Occitan region of France which has had a distinctly independent culture and language - hence its bilingual street signs. Wandering around the city with its rose-coloured bricks, it does feel markedly different from the yellow limestone which dominates so many parts of France.",../static/images/toulouse.png,history|food,../static/places/toulouse.html
66,france_38,france_127,73.0,83.0,76.0,france_38,Toulouse,StopPoint:OCEINTERCITES de nuit-87611004,Toulouse Matabiau,43.611437,1.454237,Toulouse,"Toulouse, known as 'La Ville Rose', is the proud capital of the Occitan region of France which has had a distinctly independent culture and language - hence its bilingual street signs. Wandering around the city with its rose-coloured bricks, it does feel markedly different from the yellow limestone which dominates so many parts of France.",../static/images/toulouse.png,history|food,../static/places/toulouse.html
67,france_38,france_19,402.0,563.0,418.0,france_38,Toulouse,StopPoint:OCEINTERCITES de nuit-87611004,Toulouse Matabiau,43.611437,1.454237,Toulouse,"Toulouse, known as 'La Ville Rose', is the proud capital of the Occitan region of France which has had a distinctly independent culture and language - hence its bilingual street signs. Wandering around the city with its rose-coloured bricks, it does feel markedly different from the yellow limestone which dominates so many parts of France.",../static/images/toulouse.png,history|food,../static/places/toulouse.html
68,france_38,france_24,128.0,139.0,129.0,france_38,Toulouse,StopPoint:OCEINTERCITES de nuit-87611004,Toulouse Matabiau,43.611437,1.454237,Toulouse,"Toulouse, known as 'La Ville Rose', is the proud capital of the Occitan region of France which has had a distinctly independent culture and language - hence its bilingual street signs. Wandering around the city with its rose-coloured bricks, it does feel markedly different from the yellow limestone which dominates so many parts of France.",../static/images/toulouse.png,history|food,../static/places/toulouse.html
69,france_38,france_28,201.0,223.0,209.0,france_38,Toulouse,StopPoint:OCEINTERCITES de nuit-87611004,Toulouse Matabiau,43.611437,1.454237,Toulouse,"Toulouse, known as 'La Ville Rose', is the proud capital of the Occitan region of France which has had a distinctly independent culture and language - hence its bilingual street signs. Wandering around the city with its rose-coloured bricks, it does feel markedly different from the yellow limestone which dominates so many parts of France.",../static/images/toulouse.png,history|food,../static/places/toulouse.html
70,france_38,france_72,42.0,52.0,44.0,france_38,Toulouse,StopPoint:OCEINTERCITES de nuit-87611004,Toulouse Matabiau,43.611437,1.454237,Toulouse,"Toulouse, known as 'La Ville Rose', is the proud capital of the Occitan region of France which has had a distinctly independent culture and language - hence its bilingual street signs. Wandering around the city with its rose-coloured bricks, it does feel markedly different from the yellow limestone which dominates so many parts of France.",../static/images/toulouse.png,history|food,../static/places/toulouse.html
71,france_38,france_80,107.0,119.0,108.0,france_38,Toulouse,StopPoint:OCEINTERCITES de nuit-87611004,Toulouse Matabiau,43.611437,1.454237,Toulouse,"Toulouse, known as 'La Ville Rose', is the proud capital of the Occitan region of France which has had a distinctly independent culture and language - hence its bilingual street signs. Wandering around the city with its rose-coloured bricks, it does feel markedly different from the yellow limestone which dominates so many parts of France.",../static/images/toulouse.png,history|food,../static/places/toulouse.html
72,france_38,france_83,203.0,248.0,210.0,france_38,Toulouse,StopPoint:OCEINTERCITES de nuit-87611004,Toulouse Matabiau,43.611437,1.454237,Toulouse,"Toulouse, known as 'La Ville Rose', is the proud capital of the Occitan region of France which has had a distinctly independent culture and language - hence its bilingual street signs. Wandering around the city with its rose-coloured bricks, it does feel markedly different from the yellow limestone which dominates so many parts of France.",../static/images/toulouse.png,history|food,../static/places/toulouse.html
73,france_38,france_85,246.0,271.0,257.5,france_38,Toulouse,StopPoint:OCEINTERCITES de nuit-87611004,Toulouse Matabiau,43.611437,1.454237,Toulouse,"Toulouse, known as 'La Ville Rose', is the proud capital of the Occitan region of France which has had a distinctly independent culture and language - hence its bilingual street signs. Wandering around the city with its rose-coloured bricks, it does feel markedly different from the yellow limestone which dominates so many parts of France.",../static/images/toulouse.png,history|food,../static/places/toulouse.html
74,france_45,france_19,665.0,747.0,721.0,france_45,Latour-de-Carol - Enveitg,StopPoint:OCEINTERCITES de nuit-87611483,Latour-de-Carol - Enveitg,42.458954,1.904509,Latour-de-Carol - Enveitg,Gateway to Spain - Puigcerda in Spain is just a walk away.,../static/images/latour-de-carol.png,walking,../static/places/latour-de-carol.html
75,france_72,france_105,182.0,191.0,188.0,france_72,Carcassonne,StopPoint:OCEINTERCITES de nuit-87615286,Carcassonne,43.218165,2.35243,Carcassonne,"Carcassonne, one of the best preserved medieval cities in the world, has something of a fairytale feel thanks to the restoration work of Eugène Viollet-le-Duc.",../static/images/carcassonne.png,history|kids,../static/places/carcassonne.html
76,france_72,france_106,140.0,145.0,142.0,france_72,Carcassonne,StopPoint:OCEINTERCITES de nuit-87615286,Carcassonne,43.218165,2.35243,Carcassonne,"Carcassonne, one of the best preserved medieval cities in the world, has something of a fairytale feel thanks to the restoration work of Eugène Viollet-le-Duc.",../static/images/carcassonne.png,history|kids,../static/places/carcassonne.html
77,france_72,france_123,85.0,89.0,87.0,france_72,Carcassonne,StopPoint:OCEINTERCITES de nuit-87615286,Carcassonne,43.218165,2.35243,Carcassonne,"Carcassonne, one of the best preserved medieval cities in the world, has something of a fairytale feel thanks to the restoration work of Eugène Viollet-le-Duc.",../static/images/carcassonne.png,history|kids,../static/places/carcassonne.html
78,france_72,france_124,68.0,72.0,70.0,france_72,Carcassonne,StopPoint:OCEINTERCITES de nuit-87615286,Carcassonne,43.218165,2.35243,Carcassonne,"Carcassonne, one of the best preserved medieval cities in the world, has something of a fairytale feel thanks to the restoration work of Eugène Viollet-le-Duc.",../static/images/carcassonne.png,history|kids,../static/places/carcassonne.html
79,france_72,france_125,113.0,118.0,115.5,france_72,Carcassonne,StopPoint:OCEINTERCITES de nuit-87615286,Carcassonne,43.218165,2.35243,Carcassonne,"Carcassonne, one of the best preserved medieval cities in the world, has something of a fairytale feel thanks to the restoration work of Eugène Viollet-le-Duc.",../static/images/carcassonne.png,history|kids,../static/places/carcassonne.html
80,france_72,france_127,28.0,34.0,30.0,france_72,Carcassonne,StopPoint:OCEINTERCITES de nuit-87615286,Carcassonne,43.218165,2.35243,Carcassonne,"Carcassonne, one of the best preserved medieval cities in the world, has something of a fairytale feel thanks to the restoration work of Eugène Viollet-le-Duc.",../static/images/carcassonne.png,history|kids,../static/places/carcassonne.html
81,france_72,france_145,113.0,115.0,115.0,france_72,Carcassonne,StopPoint:OCEINTERCITES de nuit-87615286,Carcassonne,43.218165,2.35243,Carcassonne,"Carcassonne, one of the best preserved medieval cities in the world, has something of a fairytale feel thanks to the restoration work of Eugène Viollet-le-Duc.",../static/images/carcassonne.png,history|kids,../static/places/carcassonne.html
82,france_72,france_148,144.0,145.0,145.0,france_72,Carcassonne,StopPoint:OCEINTERCITES de nuit-87615286,Carcassonne,43.218165,2.35243,Carcassonne,"Carcassonne, one of the best preserved medieval cities in the world, has something of a fairytale feel thanks to the restoration work of Eugène Viollet-le-Duc.",../static/images/carcassonne.png,history|kids,../static/places/carcassonne.html
83,france_72,france_151,164.0,165.0,165.0,france_72,Carcassonne,StopPoint:OCEINTERCITES de nuit-87615286,Carcassonne,43.218165,2.35243,Carcassonne,"Carcassonne, one of the best preserved medieval cities in the world, has something of a fairytale feel thanks to the restoration work of Eugène Viollet-le-Duc.",../static/images/carcassonne.png,history|kids,../static/places/carcassonne.html
84,france_72,france_19,581.0,609.0,595.0,france_72,Carcassonne,StopPoint:OCEINTERCITES de nuit-87615286,Carcassonne,43.218165,2.35243,Carcassonne,"Carcassonne, one of the best preserved medieval cities in the world, has something of a fairytale feel thanks to the restoration work of Eugène Viollet-le-Duc.",../static/images/carcassonne.png,history|kids,../static/places/carcassonne.html
85,france_72,france_24,179.0,196.0,179.0,france_72,Carcassonne,StopPoint:OCEINTERCITES de nuit-87615286,Carcassonne,43.218165,2.35243,Carcassonne,"Carcassonne, one of the best preserved medieval cities in the world, has something of a fairytale feel thanks to the restoration work of Eugène Viollet-le-Duc.",../static/images/carcassonne.png,history|kids,../static/places/carcassonne.html
86,france_72,france_38,41.0,48.0,43.0,france_72,Carcassonne,StopPoint:OCEINTERCITES de nuit-87615286,Carcassonne,43.218165,2.35243,Carcassonne,"Carcassonne, one of the best preserved medieval cities in the world, has something of a fairytale feel thanks to the restoration work of Eugène Viollet-le-Duc.",../static/images/carcassonne.png,history|kids,../static/places/carcassonne.html
87,france_80,france_19,583.0,612.0,598.5,france_80,Lourdes,StopPoint:OCEINTERCITES de nuit-87671339,Lourdes,43.1006,-0.041812,Lourdes,"As a small town in the foothills of the Pyrenees, Lourdes used to be a bit of a backwater. But all of that changed in 1858 when 14-year-old Bernadette Soubirous visited a cave and met the Lady of the Immaculate Conception who told her about the healing properties of the water.",../static/images/lourdes.png,history|walking,../static/places/lourdes.html
88,france_80,france_38,107.0,124.0,109.0,france_80,Lourdes,StopPoint:OCEINTERCITES de nuit-87671339,Lourdes,43.1006,-0.041812,Lourdes,"As a small town in the foothills of the Pyrenees, Lourdes used to be a bit of a backwater. But all of that changed in 1858 when 14-year-old Bernadette Soubirous visited a cave and met the Lady of the Immaculate Conception who told her about the healing properties of the water.",../static/images/lourdes.png,history|walking,../static/places/lourdes.html
89,france_80,france_83,92.0,134.0,96.0,france_80,Lourdes,StopPoint:OCEINTERCITES de nuit-87671339,Lourdes,43.1006,-0.041812,Lourdes,"As a small town in the foothills of the Pyrenees, Lourdes used to be a bit of a backwater. But all of that changed in 1858 when 14-year-old Bernadette Soubirous visited a cave and met the Lady of the Immaculate Conception who told her about the healing properties of the water.",../static/images/lourdes.png,history|walking,../static/places/lourdes.html
90,france_80,france_85,136.0,160.0,147.0,france_80,Lourdes,StopPoint:OCEINTERCITES de nuit-87671339,Lourdes,43.1006,-0.041812,Lourdes,"As a small town in the foothills of the Pyrenees, Lourdes used to be a bit of a backwater. But all of that changed in 1858 when 14-year-old Bernadette Soubirous visited a cave and met the Lady of the Immaculate Conception who told her about the healing properties of the water.",../static/images/lourdes.png,history|walking,../static/places/lourdes.html
91,france_83,france_38,206.0,244.0,212.0,france_83,Bayonne,StopPoint:OCEINTERCITES-87673004,Bayonne,43.497018,-1.470194,Bayonne,"If you've spent a few days getting body-beautiful down in San Sebastian or nearby Biarritz, why not go and undo all that good work with a trip to Bayonne!",../static/images/bayonne.png,history|food,../static/places/bayonne.html
92,france_83,france_80,93.0,128.0,100.0,france_83,Bayonne,StopPoint:OCEINTERCITES-87673004,Bayonne,43.497018,-1.470194,Bayonne,"If you've spent a few days getting body-beautiful down in San Sebastian or nearby Biarritz, why not go and undo all that good work with a trip to Bayonne!",../static/images/bayonne.png,history|food,../static/places/bayonne.html
93,france_83,france_85,32.0,33.0,33.0,france_83,Bayonne,StopPoint:OCEINTERCITES-87673004,Bayonne,43.497018,-1.470194,Bayonne,"If you've spent a few days getting body-beautiful down in San Sebastian or nearby Biarritz, why not go and undo all that good work with a trip to Bayonne!",../static/images/bayonne.png,history|food,../static/places/bayonne.html
94,france_85,france_38,257.0,282.0,266.0,france_85,Hendaye,StopPoint:OCEINTERCITES-87677005,Hendaye,43.353165,-1.782095,Hendaye,Hendaye is a popular surfing destination renowned for its soft beach break waves suitable for beginners. Trains leave from here to Spain - or just walk across the border...,../static/images/hendaye.png,,../static/places/hendaye.html
95,france_85,france_80,145.0,168.0,152.5,france_85,Hendaye,StopPoint:OCEINTERCITES-87677005,Hendaye,43.353165,-1.782095,Hendaye,Hendaye is a popular surfing destination renowned for its soft beach break waves suitable for beginners. Trains leave from here to Spain - or just walk across the border...,../static/images/hendaye.png,,../static/places/hendaye.html
96,france_85,france_83,35.0,44.0,36.0,france_85,Hendaye,StopPoint:OCEINTERCITES-87677005,Hendaye,43.353165,-1.782095,Hendaye,Hendaye is a popular surfing destination renowned for its soft beach break waves suitable for beginners. Trains leave from here to Spain - or just walk across the border...,../static/images/hendaye.png,,../static/places/hendaye.html
97,france_93,france_19,272.0,352.0,302.0,france_93,Lyon,StopPoint:OCEOUIGO-87723197,Lyon Part Dieu,45.760596,4.859409,Lyon,"Lyon, France’s third largest city and reputed gastronomic capital of the world, sits at the junction of the Rhône and Saône rivers. Founded by the Romans, Lyon flourished in the late Middle Ages and has been a major centre for industry, commerce and banking for the last 500 years. The legacy of this wealth is on show through the fine set of buildings.",../static/images/lyon.png,history|food|city break,../static/places/lyon.html
98,france_93,france_93,8.0,9.0,8.0,france_93,Lyon,StopPoint:OCEOUIGO-87723197,Lyon Part Dieu,45.760596,4.859409,Lyon,"Lyon, France’s third largest city and reputed gastronomic capital of the world, sits at the junction of the Rhône and Saône rivers. Founded by the Romans, Lyon flourished in the late Middle Ages and has been a major centre for industry, commerce and banking for the last 500 years. The legacy of this wealth is on show through the fine set of buildings.",../static/images/lyon.png,history|food|city break,../static/places/lyon.html
99,france_97,france_19,172.0,230.0,179.0,france_97,Vichy,StopPoint:OCEINTERCITES-87732008,Vichy,46.126882,3.430707,Vichy,"Vichy is a town in Auvergne. It's known for two things: its spas (Vichy is one of eleven world heritage-listed European spa towns), and as the headquarters of the pro-Nazi Vichy regime during the Second World War.",../static/images/vichy.png,history|spa,../static/places/vichy.html
100,france_105,france_106,45.0,46.0,45.0,france_105,Marseille,StopPoint:OCEINTERCITES-87751008,Marseille Saint-Charles,43.30303,5.380555,Marseille,"Marseille (Provençal: Marselha) is the second most populated city of France (and third urban area) the biggest Mediterranean port and the economic center of the Provence-Alpes-Côte d'Azur region. In 2013 the city (with its region) was the European Capital of Culture, a large series of cultural events took place, and several new infrastructures were inaugurated.",../static/images/marseille.png,history|sea|city break,../static/places/marseille.html
101,france_105,france_123,90.0,99.0,96.0,france_105,Marseille,StopPoint:OCEINTERCITES-87751008,Marseille Saint-Charles,43.30303,5.380555,Marseille,"Marseille (Provençal: Marselha) is the second most populated city of France (and third urban area) the biggest Mediterranean port and the economic center of the Provence-Alpes-Côte d'Azur region. In 2013 the city (with its region) was the European Capital of Culture, a large series of cultural events took place, and several new infrastructures were inaugurated.",../static/images/marseille.png,history|sea|city break,../static/places/marseille.html
102,france_105,france_124,117.0,121.0,121.0,france_105,Marseille,StopPoint:OCEINTERCITES-87751008,Marseille Saint-Charles,43.30303,5.380555,Marseille,"Marseille (Provençal: Marselha) is the second most populated city of France (and third urban area) the biggest Mediterranean port and the economic center of the Provence-Alpes-Côte d'Azur region. In 2013 the city (with its region) was the European Capital of Culture, a large series of cultural events took place, and several new infrastructures were inaugurated.",../static/images/marseille.png,history|sea|city break,../static/places/marseille.html
103,france_105,france_125,63.0,72.0,69.0,france_105,Marseille,StopPoint:OCEINTERCITES-87751008,Marseille Saint-Charles,43.30303,5.380555,Marseille,"Marseille (Provençal: Marselha) is the second most populated city of France (and third urban area) the biggest Mediterranean port and the economic center of the Provence-Alpes-Côte d'Azur region. In 2013 the city (with its region) was the European Capital of Culture, a large series of cultural events took place, and several new infrastructures were inaugurated.",../static/images/marseille.png,history|sea|city break,../static/places/marseille.html
104,france_105,france_127,149.0,157.0,153.0,france_105,Marseille,StopPoint:OCEINTERCITES-87751008,Marseille Saint-Charles,43.30303,5.380555,Marseille,"Marseille (Provençal: Marselha) is the second most populated city of France (and third urban area) the biggest Mediterranean port and the economic center of the Provence-Alpes-Côte d'Azur region. In 2013 the city (with its region) was the European Capital of Culture, a large series of cultural events took place, and several new infrastructures were inaugurated.",../static/images/marseille.png,history|sea|city break,../static/places/marseille.html
105,france_105,france_19,535.0,647.0,604.0,france_105,Marseille,StopPoint:OCEINTERCITES-87751008,Marseille Saint-Charles,43.30303,5.380555,Marseille,"Marseille (Provençal: Marselha) is the second most populated city of France (and third urban area) the biggest Mediterranean port and the economic center of the Provence-Alpes-Côte d'Azur region. In 2013 the city (with its region) was the European Capital of Culture, a large series of cultural events took place, and several new infrastructures were inaugurated.",../static/images/marseille.png,history|sea|city break,../static/places/marseille.html
106,france_105,france_24,363.0,387.0,368.0,france_105,Marseille,StopPoint:OCEINTERCITES-87751008,Marseille Saint-Charles,43.30303,5.380555,Marseille,"Marseille (Provençal: Marselha) is the second most populated city of France (and third urban area) the biggest Mediterranean port and the economic center of the Provence-Alpes-Côte d'Azur region. In 2013 the city (with its region) was the European Capital of Culture, a large series of cultural events took place, and several new infrastructures were inaugurated.",../static/images/marseille.png,history|sea|city break,../static/places/marseille.html
107,france_105,france_38,226.0,238.0,231.0,france_105,Marseille,StopPoint:OCEINTERCITES-87751008,Marseille Saint-Charles,43.30303,5.380555,Marseille,"Marseille (Provençal: Marselha) is the second most populated city of France (and third urban area) the biggest Mediterranean port and the economic center of the Provence-Alpes-Côte d'Azur region. In 2013 the city (with its region) was the European Capital of Culture, a large series of cultural events took place, and several new infrastructures were inaugurated.",../static/images/marseille.png,history|sea|city break,../static/places/marseille.html
108,france_105,france_72,181.0,190.0,185.0,france_105,Marseille,StopPoint:OCEINTERCITES-87751008,Marseille Saint-Charles,43.30303,5.380555,Marseille,"Marseille (Provençal: Marselha) is the second most populated city of France (and third urban area) the biggest Mediterranean port and the economic center of the Provence-Alpes-Côte d'Azur region. In 2013 the city (with its region) was the European Capital of Culture, a large series of cultural events took place, and several new infrastructures were inaugurated.",../static/images/marseille.png,history|sea|city break,../static/places/marseille.html
109,france_106,france_105,43.0,48.0,47.0,france_106,Arles,StopPoint:OCEINTERCITES-87753657,Arles,43.685359,4.632109,Arles,"Arles, spiritual capital of Provence, is located where the mighty Rhône meets the Camargue and was founded by the veterans of Julius Caesar's crack Sixth legion. And while it has world class Roman buildings (that are still in active use today), it's probably more famous for being the place where Vincent Van Gogh came in search of light - the art world hasn't been the same since.",../static/images/arles.png,history|art,../static/places/arles.html
110,france_106,france_123,48.0,52.0,52.0,france_106,Arles,StopPoint:OCEINTERCITES-87753657,Arles,43.685359,4.632109,Arles,"Arles, spiritual capital of Provence, is located where the mighty Rhône meets the Camargue and was founded by the veterans of Julius Caesar's crack Sixth legion. And while it has world class Roman buildings (that are still in active use today), it's probably more famous for being the place where Vincent Van Gogh came in search of light - the art world hasn't been the same since.",../static/images/arles.png,history|art,../static/places/arles.html
111,france_106,france_124,69.0,74.0,74.0,france_106,Arles,StopPoint:OCEINTERCITES-87753657,Arles,43.685359,4.632109,Arles,"Arles, spiritual capital of Provence, is located where the mighty Rhône meets the Camargue and was founded by the veterans of Julius Caesar's crack Sixth legion. And while it has world class Roman buildings (that are still in active use today), it's probably more famous for being the place where Vincent Van Gogh came in search of light - the art world hasn't been the same since.",../static/images/arles.png,history|art,../static/places/arles.html
112,france_106,france_125,21.0,25.0,25.0,france_106,Arles,StopPoint:OCEINTERCITES-87753657,Arles,43.685359,4.632109,Arles,"Arles, spiritual capital of Provence, is located where the mighty Rhône meets the Camargue and was founded by the veterans of Julius Caesar's crack Sixth legion. And while it has world class Roman buildings (that are still in active use today), it's probably more famous for being the place where Vincent Van Gogh came in search of light - the art world hasn't been the same since.",../static/images/arles.png,history|art,../static/places/arles.html
113,france_106,france_127,104.0,109.0,107.0,france_106,Arles,StopPoint:OCEINTERCITES-87753657,Arles,43.685359,4.632109,Arles,"Arles, spiritual capital of Provence, is located where the mighty Rhône meets the Camargue and was founded by the veterans of Julius Caesar's crack Sixth legion. And while it has world class Roman buildings (that are still in active use today), it's probably more famous for being the place where Vincent Van Gogh came in search of light - the art world hasn't been the same since.",../static/images/arles.png,history|art,../static/places/arles.html
114,france_106,france_24,320.0,339.0,322.0,france_106,Arles,StopPoint:OCEINTERCITES-87753657,Arles,43.685359,4.632109,Arles,"Arles, spiritual capital of Provence, is located where the mighty Rhône meets the Camargue and was founded by the veterans of Julius Caesar's crack Sixth legion. And while it has world class Roman buildings (that are still in active use today), it's probably more famous for being the place where Vincent Van Gogh came in search of light - the art world hasn't been the same since.",../static/images/arles.png,history|art,../static/places/arles.html
115,france_106,france_38,183.0,188.0,185.0,france_106,Arles,StopPoint:OCEINTERCITES-87753657,Arles,43.685359,4.632109,Arles,"Arles, spiritual capital of Provence, is located where the mighty Rhône meets the Camargue and was founded by the veterans of Julius Caesar's crack Sixth legion. And while it has world class Roman buildings (that are still in active use today), it's probably more famous for being the place where Vincent Van Gogh came in search of light - the art world hasn't been the same since.",../static/images/arles.png,history|art,../static/places/arles.html
116,france_106,france_72,137.0,141.0,139.0,france_106,Arles,StopPoint:OCEINTERCITES-87753657,Arles,43.685359,4.632109,Arles,"Arles, spiritual capital of Provence, is located where the mighty Rhône meets the Camargue and was founded by the veterans of Julius Caesar's crack Sixth legion. And while it has world class Roman buildings (that are still in active use today), it's probably more famous for being the place where Vincent Van Gogh came in search of light - the art world hasn't been the same since.",../static/images/arles.png,history|art,../static/places/arles.html
117,france_123,france_105,90.0,101.0,98.0,france_123,Montpellier,StopPoint:OCEINTERCITES de nuit-87773002,Montpellier Saint-Roch,43.60478,3.881168,Montpellier,"Montpellier is the principal city in the Languedoc-Roussillon region in southwest France. It's been the one of the fastest growing cities in France since the 1990s. As a result, it has very modern districts on the outskirts that are in stark contrast to the old winding roads of the city centre. The town is home to a lot of students due to the presence of the University of Montpellier which has the oldest medical school in Europe, and, as such, Montpellier has a very young feel to it.",../static/images/montpellier.png,history,../static/places/montpellier.html
118,france_123,france_106,50.0,54.0,52.0,france_123,Montpellier,StopPoint:OCEINTERCITES de nuit-87773002,Montpellier Saint-Roch,43.60478,3.881168,Montpellier,"Montpellier is the principal city in the Languedoc-Roussillon region in southwest France. It's been the one of the fastest growing cities in France since the 1990s. As a result, it has very modern districts on the outskirts that are in stark contrast to the old winding roads of the city centre. The town is home to a lot of students due to the presence of the University of Montpellier which has the oldest medical school in Europe, and, as such, Montpellier has a very young feel to it.",../static/images/montpellier.png,history,../static/places/montpellier.html
119,france_123,france_124,15.0,19.0,18.0,france_123,Montpellier,StopPoint:OCEINTERCITES de nuit-87773002,Montpellier Saint-Roch,43.60478,3.881168,Montpellier,"Montpellier is the principal city in the Languedoc-Roussillon region in southwest France. It's been the one of the fastest growing cities in France since the 1990s. As a result, it has very modern districts on the outskirts that are in stark contrast to the old winding roads of the city centre. The town is home to a lot of students due to the presence of the University of Montpellier which has the oldest medical school in Europe, and, as such, Montpellier has a very young feel to it.",../static/images/montpellier.png,history,../static/places/montpellier.html
120,france_123,france_125,24.0,38.0,24.0,france_123,Montpellier,StopPoint:OCEINTERCITES de nuit-87773002,Montpellier Saint-Roch,43.60478,3.881168,Montpellier,"Montpellier is the principal city in the Languedoc-Roussillon region in southwest France. It's been the one of the fastest growing cities in France since the 1990s. As a result, it has very modern districts on the outskirts that are in stark contrast to the old winding roads of the city centre. The town is home to a lot of students due to the presence of the University of Montpellier which has the oldest medical school in Europe, and, as such, Montpellier has a very young feel to it.",../static/images/montpellier.png,history,../static/places/montpellier.html
121,france_123,france_127,51.0,63.0,53.0,france_123,Montpellier,StopPoint:OCEINTERCITES de nuit-87773002,Montpellier Saint-Roch,43.60478,3.881168,Montpellier,"Montpellier is the principal city in the Languedoc-Roussillon region in southwest France. It's been the one of the fastest growing cities in France since the 1990s. As a result, it has very modern districts on the outskirts that are in stark contrast to the old winding roads of the city centre. The town is home to a lot of students due to the presence of the University of Montpellier which has the oldest medical school in Europe, and, as such, Montpellier has a very young feel to it.",../static/images/montpellier.png,history,../static/places/montpellier.html
122,france_123,france_145,112.0,112.0,112.0,france_123,Montpellier,StopPoint:OCEINTERCITES de nuit-87773002,Montpellier Saint-Roch,43.60478,3.881168,Montpellier,"Montpellier is the principal city in the Languedoc-Roussillon region in southwest France. It's been the one of the fastest growing cities in France since the 1990s. As a result, it has very modern districts on the outskirts that are in stark contrast to the old winding roads of the city centre. The town is home to a lot of students due to the presence of the University of Montpellier which has the oldest medical school in Europe, and, as such, Montpellier has a very young feel to it.",../static/images/montpellier.png,history,../static/places/montpellier.html
123,france_123,france_148,139.0,139.0,139.0,france_123,Montpellier,StopPoint:OCEINTERCITES de nuit-87773002,Montpellier Saint-Roch,43.60478,3.881168,Montpellier,"Montpellier is the principal city in the Languedoc-Roussillon region in southwest France. It's been the one of the fastest growing cities in France since the 1990s. As a result, it has very modern districts on the outskirts that are in stark contrast to the old winding roads of the city centre. The town is home to a lot of students due to the presence of the University of Montpellier which has the oldest medical school in Europe, and, as such, Montpellier has a very young feel to it.",../static/images/montpellier.png,history,../static/places/montpellier.html
124,france_123,france_151,159.0,159.0,159.0,france_123,Montpellier,StopPoint:OCEINTERCITES de nuit-87773002,Montpellier Saint-Roch,43.60478,3.881168,Montpellier,"Montpellier is the principal city in the Languedoc-Roussillon region in southwest France. It's been the one of the fastest growing cities in France since the 1990s. As a result, it has very modern districts on the outskirts that are in stark contrast to the old winding roads of the city centre. The town is home to a lot of students due to the presence of the University of Montpellier which has the oldest medical school in Europe, and, as such, Montpellier has a very young feel to it.",../static/images/montpellier.png,history,../static/places/montpellier.html
125,france_123,france_19,554.0,674.0,674.0,france_123,Montpellier,StopPoint:OCEINTERCITES de nuit-87773002,Montpellier Saint-Roch,43.60478,3.881168,Montpellier,"Montpellier is the principal city in the Languedoc-Roussillon region in southwest France. It's been the one of the fastest growing cities in France since the 1990s. As a result, it has very modern districts on the outskirts that are in stark contrast to the old winding roads of the city centre. The town is home to a lot of students due to the presence of the University of Montpellier which has the oldest medical school in Europe, and, as such, Montpellier has a very young feel to it.",../static/images/montpellier.png,history,../static/places/montpellier.html
126,france_123,france_24,264.0,287.0,268.0,france_123,Montpellier,StopPoint:OCEINTERCITES de nuit-87773002,Montpellier Saint-Roch,43.60478,3.881168,Montpellier,"Montpellier is the principal city in the Languedoc-Roussillon region in southwest France. It's been the one of the fastest growing cities in France since the 1990s. As a result, it has very modern districts on the outskirts that are in stark contrast to the old winding roads of the city centre. The town is home to a lot of students due to the presence of the University of Montpellier which has the oldest medical school in Europe, and, as such, Montpellier has a very young feel to it.",../static/images/montpellier.png,history,../static/places/montpellier.html
127,france_123,france_38,126.0,143.0,132.0,france_123,Montpellier,StopPoint:OCEINTERCITES de nuit-87773002,Montpellier Saint-Roch,43.60478,3.881168,Montpellier,"Montpellier is the principal city in the Languedoc-Roussillon region in southwest France. It's been the one of the fastest growing cities in France since the 1990s. As a result, it has very modern districts on the outskirts that are in stark contrast to the old winding roads of the city centre. The town is home to a lot of students due to the presence of the University of Montpellier which has the oldest medical school in Europe, and, as such, Montpellier has a very young feel to it.",../static/images/montpellier.png,history,../static/places/montpellier.html
128,france_123,france_72,82.0,95.0,85.0,france_123,Montpellier,StopPoint:OCEINTERCITES de nuit-87773002,Montpellier Saint-Roch,43.60478,3.881168,Montpellier,"Montpellier is the principal city in the Languedoc-Roussillon region in southwest France. It's been the one of the fastest growing cities in France since the 1990s. As a result, it has very modern districts on the outskirts that are in stark contrast to the old winding roads of the city centre. The town is home to a lot of students due to the presence of the University of Montpellier which has the oldest medical school in Europe, and, as such, Montpellier has a very young feel to it.",../static/images/montpellier.png,history,../static/places/montpellier.html
129,france_124,france_105,116.0,120.0,119.0,france_124,Sète,StopPoint:OCEINTERCITES de nuit-87773200,Sète,43.412808,3.69641,Sète,"Located between a lagoon and the Med and connecting the Canal du Midi to the sea, this southern French working port is a great place to get seafood and sea views. Throughout the summer you can also catch some water-jousting where old-style lifeboats (barque de sauvetage) with multiple oarsmen and one jouster charge at each other and try to unseat their opponent.",../static/images/sete.png,history|art|sea,../static/places/sete.html
130,france_124,france_106,70.0,72.0,70.0,france_124,Sète,StopPoint:OCEINTERCITES de nuit-87773200,Sète,43.412808,3.69641,Sète,"Located between a lagoon and the Med and connecting the Canal du Midi to the sea, this southern French working port is a great place to get seafood and sea views. Throughout the summer you can also catch some water-jousting where old-style lifeboats (barque de sauvetage) with multiple oarsmen and one jouster charge at each other and try to unseat their opponent.",../static/images/sete.png,history|art|sea,../static/places/sete.html
131,france_124,france_123,14.0,18.0,16.0,france_124,Sète,StopPoint:OCEINTERCITES de nuit-87773200,Sète,43.412808,3.69641,Sète,"Located between a lagoon and the Med and connecting the Canal du Midi to the sea, this southern French working port is a great place to get seafood and sea views. Throughout the summer you can also catch some water-jousting where old-style lifeboats (barque de sauvetage) with multiple oarsmen and one jouster charge at each other and try to unseat their opponent.",../static/images/sete.png,history|art|sea,../static/places/sete.html
132,france_124,france_125,42.0,59.0,44.0,france_124,Sète,StopPoint:OCEINTERCITES de nuit-87773200,Sète,43.412808,3.69641,Sète,"Located between a lagoon and the Med and connecting the Canal du Midi to the sea, this southern French working port is a great place to get seafood and sea views. Throughout the summer you can also catch some water-jousting where old-style lifeboats (barque de sauvetage) with multiple oarsmen and one jouster charge at each other and try to unseat their opponent.",../static/images/sete.png,history|art|sea,../static/places/sete.html
133,france_124,france_127,33.0,43.0,33.0,france_124,Sète,StopPoint:OCEINTERCITES de nuit-87773200,Sète,43.412808,3.69641,Sète,"Located between a lagoon and the Med and connecting the Canal du Midi to the sea, this southern French working port is a great place to get seafood and sea views. Throughout the summer you can also catch some water-jousting where old-style lifeboats (barque de sauvetage) with multiple oarsmen and one jouster charge at each other and try to unseat their opponent.",../static/images/sete.png,history|art|sea,../static/places/sete.html
134,france_124,france_145,92.0,92.0,92.0,france_124,Sète,StopPoint:OCEINTERCITES de nuit-87773200,Sète,43.412808,3.69641,Sète,"Located between a lagoon and the Med and connecting the Canal du Midi to the sea, this southern French working port is a great place to get seafood and sea views. Throughout the summer you can also catch some water-jousting where old-style lifeboats (barque de sauvetage) with multiple oarsmen and one jouster charge at each other and try to unseat their opponent.",../static/images/sete.png,history|art|sea,../static/places/sete.html
135,france_124,france_148,119.0,119.0,119.0,france_124,Sète,StopPoint:OCEINTERCITES de nuit-87773200,Sète,43.412808,3.69641,Sète,"Located between a lagoon and the Med and connecting the Canal du Midi to the sea, this southern French working port is a great place to get seafood and sea views. Throughout the summer you can also catch some water-jousting where old-style lifeboats (barque de sauvetage) with multiple oarsmen and one jouster charge at each other and try to unseat their opponent.",../static/images/sete.png,history|art|sea,../static/places/sete.html
136,france_124,france_151,139.0,139.0,139.0,france_124,Sète,StopPoint:OCEINTERCITES de nuit-87773200,Sète,43.412808,3.69641,Sète,"Located between a lagoon and the Med and connecting the Canal du Midi to the sea, this southern French working port is a great place to get seafood and sea views. Throughout the summer you can also catch some water-jousting where old-style lifeboats (barque de sauvetage) with multiple oarsmen and one jouster charge at each other and try to unseat their opponent.",../static/images/sete.png,history|art|sea,../static/places/sete.html
137,france_124,france_19,575.0,695.0,695.0,france_124,Sète,StopPoint:OCEINTERCITES de nuit-87773200,Sète,43.412808,3.69641,Sète,"Located between a lagoon and the Med and connecting the Canal du Midi to the sea, this southern French working port is a great place to get seafood and sea views. Throughout the summer you can also catch some water-jousting where old-style lifeboats (barque de sauvetage) with multiple oarsmen and one jouster charge at each other and try to unseat their opponent.",../static/images/sete.png,history|art|sea,../static/places/sete.html
138,france_124,france_24,246.0,267.0,246.0,france_124,Sète,StopPoint:OCEINTERCITES de nuit-87773200,Sète,43.412808,3.69641,Sète,"Located between a lagoon and the Med and connecting the Canal du Midi to the sea, this southern French working port is a great place to get seafood and sea views. Throughout the summer you can also catch some water-jousting where old-style lifeboats (barque de sauvetage) with multiple oarsmen and one jouster charge at each other and try to unseat their opponent.",../static/images/sete.png,history|art|sea,../static/places/sete.html
139,france_124,france_38,109.0,122.0,109.0,france_124,Sète,StopPoint:OCEINTERCITES de nuit-87773200,Sète,43.412808,3.69641,Sète,"Located between a lagoon and the Med and connecting the Canal du Midi to the sea, this southern French working port is a great place to get seafood and sea views. Throughout the summer you can also catch some water-jousting where old-style lifeboats (barque de sauvetage) with multiple oarsmen and one jouster charge at each other and try to unseat their opponent.",../static/images/sete.png,history|art|sea,../static/places/sete.html
140,france_124,france_72,65.0,78.0,65.0,france_124,Sète,StopPoint:OCEINTERCITES de nuit-87773200,Sète,43.412808,3.69641,Sète,"Located between a lagoon and the Med and connecting the Canal du Midi to the sea, this southern French working port is a great place to get seafood and sea views. Throughout the summer you can also catch some water-jousting where old-style lifeboats (barque de sauvetage) with multiple oarsmen and one jouster charge at each other and try to unseat their opponent.",../static/images/sete.png,history|art|sea,../static/places/sete.html
141,france_125,france_105,63.0,73.0,71.0,france_125,Nîmes,StopPoint:OCEINTERCITES de nuit-87775007,Nîmes Centre,43.832387,4.366081,Nîmes,"Known as the most Roman city outside of Italy, Nîmes has one of the best preserved arenas and Roman temples in the world. It's also the birthplace of denim ('de Nîmes'), so you could think of coming to Nîmes as a pilgrimage for your jeans! The city is full of activity and has events and festivals throughout the year, including an annual international music festival held in the Roman arena and local craft and produce markets.",../static/images/nimes.png,history|food,../static/places/nimes.html
142,france_125,france_106,23.0,26.0,24.0,france_125,Nîmes,StopPoint:OCEINTERCITES de nuit-87775007,Nîmes Centre,43.832387,4.366081,Nîmes,"Known as the most Roman city outside of Italy, Nîmes has one of the best preserved arenas and Roman temples in the world. It's also the birthplace of denim ('de Nîmes'), so you could think of coming to Nîmes as a pilgrimage for your jeans! The city is full of activity and has events and festivals throughout the year, including an annual international music festival held in the Roman arena and local craft and produce markets.",../static/images/nimes.png,history|food,../static/places/nimes.html
143,france_125,france_123,24.0,32.0,24.0,france_125,Nîmes,StopPoint:OCEINTERCITES de nuit-87775007,Nîmes Centre,43.832387,4.366081,Nîmes,"Known as the most Roman city outside of Italy, Nîmes has one of the best preserved arenas and Roman temples in the world. It's also the birthplace of denim ('de Nîmes'), so you could think of coming to Nîmes as a pilgrimage for your jeans! The city is full of activity and has events and festivals throughout the year, including an annual international music festival held in the Roman arena and local craft and produce markets.",../static/images/nimes.png,history|food,../static/places/nimes.html
144,france_125,france_124,43.0,56.0,46.0,france_125,Nîmes,StopPoint:OCEINTERCITES de nuit-87775007,Nîmes Centre,43.832387,4.366081,Nîmes,"Known as the most Roman city outside of Italy, Nîmes has one of the best preserved arenas and Roman temples in the world. It's also the birthplace of denim ('de Nîmes'), so you could think of coming to Nîmes as a pilgrimage for your jeans! The city is full of activity and has events and festivals throughout the year, including an annual international music festival held in the Roman arena and local craft and produce markets.",../static/images/nimes.png,history|food,../static/places/nimes.html
145,france_125,france_127,79.0,101.0,82.0,france_125,Nîmes,StopPoint:OCEINTERCITES de nuit-87775007,Nîmes Centre,43.832387,4.366081,Nîmes,"Known as the most Roman city outside of Italy, Nîmes has one of the best preserved arenas and Roman temples in the world. It's also the birthplace of denim ('de Nîmes'), so you could think of coming to Nîmes as a pilgrimage for your jeans! The city is full of activity and has events and festivals throughout the year, including an annual international music festival held in the Roman arena and local craft and produce markets.",../static/images/nimes.png,history|food,../static/places/nimes.html
146,france_125,france_145,139.0,150.0,139.0,france_125,Nîmes,StopPoint:OCEINTERCITES de nuit-87775007,Nîmes Centre,43.832387,4.366081,Nîmes,"Known as the most Roman city outside of Italy, Nîmes has one of the best preserved arenas and Roman temples in the world. It's also the birthplace of denim ('de Nîmes'), so you could think of coming to Nîmes as a pilgrimage for your jeans! The city is full of activity and has events and festivals throughout the year, including an annual international music festival held in the Roman arena and local craft and produce markets.",../static/images/nimes.png,history|food,../static/places/nimes.html
147,france_125,france_148,166.0,177.0,166.0,france_125,Nîmes,StopPoint:OCEINTERCITES de nuit-87775007,Nîmes Centre,43.832387,4.366081,Nîmes,"Known as the most Roman city outside of Italy, Nîmes has one of the best preserved arenas and Roman temples in the world. It's also the birthplace of denim ('de Nîmes'), so you could think of coming to Nîmes as a pilgrimage for your jeans! The city is full of activity and has events and festivals throughout the year, including an annual international music festival held in the Roman arena and local craft and produce markets.",../static/images/nimes.png,history|food,../static/places/nimes.html
148,france_125,france_151,186.0,197.0,186.0,france_125,Nîmes,StopPoint:OCEINTERCITES de nuit-87775007,Nîmes Centre,43.832387,4.366081,Nîmes,"Known as the most Roman city outside of Italy, Nîmes has one of the best preserved arenas and Roman temples in the world. It's also the birthplace of denim ('de Nîmes'), so you could think of coming to Nîmes as a pilgrimage for your jeans! The city is full of activity and has events and festivals throughout the year, including an annual international music festival held in the Roman arena and local craft and produce markets.",../static/images/nimes.png,history|food,../static/places/nimes.html
149,france_125,france_19,515.0,633.0,633.0,france_125,Nîmes,StopPoint:OCEINTERCITES de nuit-87775007,Nîmes Centre,43.832387,4.366081,Nîmes,"Known as the most Roman city outside of Italy, Nîmes has one of the best preserved arenas and Roman temples in the world. It's also the birthplace of denim ('de Nîmes'), so you could think of coming to Nîmes as a pilgrimage for your jeans! The city is full of activity and has events and festivals throughout the year, including an annual international music festival held in the Roman arena and local craft and produce markets.",../static/images/nimes.png,history|food,../static/places/nimes.html
150,france_125,france_24,292.0,315.0,296.0,france_125,Nîmes,StopPoint:OCEINTERCITES de nuit-87775007,Nîmes Centre,43.832387,4.366081,Nîmes,"Known as the most Roman city outside of Italy, Nîmes has one of the best preserved arenas and Roman temples in the world. It's also the birthplace of denim ('de Nîmes'), so you could think of coming to Nîmes as a pilgrimage for your jeans! The city is full of activity and has events and festivals throughout the year, including an annual international music festival held in the Roman arena and local craft and produce markets.",../static/images/nimes.png,history|food,../static/places/nimes.html
151,france_125,france_38,154.0,171.0,160.0,france_125,Nîmes,StopPoint:OCEINTERCITES de nuit-87775007,Nîmes Centre,43.832387,4.366081,Nîmes,"Known as the most Roman city outside of Italy, Nîmes has one of the best preserved arenas and Roman temples in the world. It's also the birthplace of denim ('de Nîmes'), so you could think of coming to Nîmes as a pilgrimage for your jeans! The city is full of activity and has events and festivals throughout the year, including an annual international music festival held in the Roman arena and local craft and produce markets.",../static/images/nimes.png,history|food,../static/places/nimes.html
152,france_125,france_72,110.0,123.0,113.0,france_125,Nîmes,StopPoint:OCEINTERCITES de nuit-87775007,Nîmes Centre,43.832387,4.366081,Nîmes,"Known as the most Roman city outside of Italy, Nîmes has one of the best preserved arenas and Roman temples in the world. It's also the birthplace of denim ('de Nîmes'), so you could think of coming to Nîmes as a pilgrimage for your jeans! The city is full of activity and has events and festivals throughout the year, including an annual international music festival held in the Roman arena and local craft and produce markets.",../static/images/nimes.png,history|food,../static/places/nimes.html
153,france_127,france_105,149.0,159.0,156.0,france_127,Narbonne,StopPoint:OCEINTERCITES de nuit-87781104,Narbonne,43.190664,3.005562,Narbonne,Narbonne has been an ideal place to stop off when going places since Roman times as it was where the via Aquitania from the Atlantic via Bordeaux and Toulouse met the via Domitia reaching into Spain. It’s still a great place to change trains when doing the same thing.,../static/images/narbonne.png,history,../static/places/narbonne.html
154,france_127,france_106,107.0,112.0,110.0,france_127,Narbonne,StopPoint:OCEINTERCITES de nuit-87781104,Narbonne,43.190664,3.005562,Narbonne,Narbonne has been an ideal place to stop off when going places since Roman times as it was where the via Aquitania from the Atlantic via Bordeaux and Toulouse met the via Domitia reaching into Spain. It’s still a great place to change trains when doing the same thing.,../static/images/narbonne.png,history,../static/places/narbonne.html
155,france_127,france_123,53.0,69.0,55.0,france_127,Narbonne,StopPoint:OCEINTERCITES de nuit-87781104,Narbonne,43.190664,3.005562,Narbonne,Narbonne has been an ideal place to stop off when going places since Roman times as it was where the via Aquitania from the Atlantic via Bordeaux and Toulouse met the via Domitia reaching into Spain. It’s still a great place to change trains when doing the same thing.,../static/images/narbonne.png,history,../static/places/narbonne.html
156,france_127,france_124,35.0,48.0,39.0,france_127,Narbonne,StopPoint:OCEINTERCITES de nuit-87781104,Narbonne,43.190664,3.005562,Narbonne,Narbonne has been an ideal place to stop off when going places since Roman times as it was where the via Aquitania from the Atlantic via Bordeaux and Toulouse met the via Domitia reaching into Spain. It’s still a great place to change trains when doing the same thing.,../static/images/narbonne.png,history,../static/places/narbonne.html
157,france_127,france_125,81.0,108.0,83.0,france_127,Narbonne,StopPoint:OCEINTERCITES de nuit-87781104,Narbonne,43.190664,3.005562,Narbonne,Narbonne has been an ideal place to stop off when going places since Roman times as it was where the via Aquitania from the Atlantic via Bordeaux and Toulouse met the via Domitia reaching into Spain. It’s still a great place to change trains when doing the same thing.,../static/images/narbonne.png,history,../static/places/narbonne.html
158,france_127,france_145,46.0,54.0,53.0,france_127,Narbonne,StopPoint:OCEINTERCITES de nuit-87781104,Narbonne,43.190664,3.005562,Narbonne,Narbonne has been an ideal place to stop off when going places since Roman times as it was where the via Aquitania from the Atlantic via Bordeaux and Toulouse met the via Domitia reaching into Spain. It’s still a great place to change trains when doing the same thing.,../static/images/narbonne.png,history,../static/places/narbonne.html
159,france_127,france_148,73.0,84.0,84.0,france_127,Narbonne,StopPoint:OCEINTERCITES de nuit-87781104,Narbonne,43.190664,3.005562,Narbonne,Narbonne has been an ideal place to stop off when going places since Roman times as it was where the via Aquitania from the Atlantic via Bordeaux and Toulouse met the via Domitia reaching into Spain. It’s still a great place to change trains when doing the same thing.,../static/images/narbonne.png,history,../static/places/narbonne.html
160,france_127,france_151,93.0,104.0,103.0,france_127,Narbonne,StopPoint:OCEINTERCITES de nuit-87781104,Narbonne,43.190664,3.005562,Narbonne,Narbonne has been an ideal place to stop off when going places since Roman times as it was where the via Aquitania from the Atlantic via Bordeaux and Toulouse met the via Domitia reaching into Spain. It’s still a great place to change trains when doing the same thing.,../static/images/narbonne.png,history,../static/places/narbonne.html
161,france_127,france_19,626.0,743.0,660.0,france_127,Narbonne,StopPoint:OCEINTERCITES de nuit-87781104,Narbonne,43.190664,3.005562,Narbonne,Narbonne has been an ideal place to stop off when going places since Roman times as it was where the via Aquitania from the Atlantic via Bordeaux and Toulouse met the via Domitia reaching into Spain. It’s still a great place to change trains when doing the same thing.,../static/images/narbonne.png,history,../static/places/narbonne.html
162,france_127,france_24,209.0,228.0,211.0,france_127,Narbonne,StopPoint:OCEINTERCITES de nuit-87781104,Narbonne,43.190664,3.005562,Narbonne,Narbonne has been an ideal place to stop off when going places since Roman times as it was where the via Aquitania from the Atlantic via Bordeaux and Toulouse met the via Domitia reaching into Spain. It’s still a great place to change trains when doing the same thing.,../static/images/narbonne.png,history,../static/places/narbonne.html
163,france_127,france_38,72.0,79.0,73.5,france_127,Narbonne,StopPoint:OCEINTERCITES de nuit-87781104,Narbonne,43.190664,3.005562,Narbonne,Narbonne has been an ideal place to stop off when going places since Roman times as it was where the via Aquitania from the Atlantic via Bordeaux and Toulouse met the via Domitia reaching into Spain. It’s still a great place to change trains when doing the same thing.,../static/images/narbonne.png,history,../static/places/narbonne.html
164,france_127,france_72,28.0,40.0,29.0,france_127,Narbonne,StopPoint:OCEINTERCITES de nuit-87781104,Narbonne,43.190664,3.005562,Narbonne,Narbonne has been an ideal place to stop off when going places since Roman times as it was where the via Aquitania from the Atlantic via Bordeaux and Toulouse met the via Domitia reaching into Spain. It’s still a great place to change trains when doing the same thing.,../static/images/narbonne.png,history,../static/places/narbonne.html
165,france_145,france_123,102.0,119.0,105.0,france_145,Perpignan,StopPoint:OCEINTERCITES de nuit-87784009,Perpignan,42.696079,2.879622,Perpignan,"Perpignan is home to about 120,000 people, and has two rivers flowing through it; with the Têt to the north, and the Basse through the centre. Once the continental capital of the Kingdom of Majorca, Perpignan has been an economical and educational centre for centuries, and this is evident in its architecture.",../static/images/perpignan.png,history|skiing,../static/places/perpignan.html
166,france_145,france_124,81.0,98.0,84.0,france_145,Perpignan,StopPoint:OCEINTERCITES de nuit-87784009,Perpignan,42.696079,2.879622,Perpignan,"Perpignan is home to about 120,000 people, and has two rivers flowing through it; with the Têt to the north, and the Basse through the centre. Once the continental capital of the Kingdom of Majorca, Perpignan has been an economical and educational centre for centuries, and this is evident in its architecture.",../static/images/perpignan.png,history|skiing,../static/places/perpignan.html
167,france_145,france_125,143.0,158.0,146.0,france_145,Perpignan,StopPoint:OCEINTERCITES de nuit-87784009,Perpignan,42.696079,2.879622,Perpignan,"Perpignan is home to about 120,000 people, and has two rivers flowing through it; with the Têt to the north, and the Basse through the centre. Once the continental capital of the Kingdom of Majorca, Perpignan has been an economical and educational centre for centuries, and this is evident in its architecture.",../static/images/perpignan.png,history|skiing,../static/places/perpignan.html
168,france_145,france_127,34.0,49.0,47.0,france_145,Perpignan,StopPoint:OCEINTERCITES de nuit-87784009,Perpignan,42.696079,2.879622,Perpignan,"Perpignan is home to about 120,000 people, and has two rivers flowing through it; with the Têt to the north, and the Basse through the centre. Once the continental capital of the Kingdom of Majorca, Perpignan has been an economical and educational centre for centuries, and this is evident in its architecture.",../static/images/perpignan.png,history|skiing,../static/places/perpignan.html
169,france_145,france_148,24.0,27.0,26.0,france_145,Perpignan,StopPoint:OCEINTERCITES de nuit-87784009,Perpignan,42.696079,2.879622,Perpignan,"Perpignan is home to about 120,000 people, and has two rivers flowing through it; with the Têt to the north, and the Basse through the centre. Once the continental capital of the Kingdom of Majorca, Perpignan has been an economical and educational centre for centuries, and this is evident in its architecture.",../static/images/perpignan.png,history|skiing,../static/places/perpignan.html
170,france_145,france_151,44.0,47.0,46.0,france_145,Perpignan,StopPoint:OCEINTERCITES de nuit-87784009,Perpignan,42.696079,2.879622,Perpignan,"Perpignan is home to about 120,000 people, and has two rivers flowing through it; with the Têt to the north, and the Basse through the centre. Once the continental capital of the Kingdom of Majorca, Perpignan has been an economical and educational centre for centuries, and this is evident in its architecture.",../static/images/perpignan.png,history|skiing,../static/places/perpignan.html
171,france_145,france_19,676.0,782.0,739.0,france_145,Perpignan,StopPoint:OCEINTERCITES de nuit-87784009,Perpignan,42.696079,2.879622,Perpignan,"Perpignan is home to about 120,000 people, and has two rivers flowing through it; with the Têt to the north, and the Basse through the centre. Once the continental capital of the Kingdom of Majorca, Perpignan has been an economical and educational centre for centuries, and this is evident in its architecture.",../static/images/perpignan.png,history|skiing,../static/places/perpignan.html
172,france_145,france_72,119.0,121.0,119.0,france_145,Perpignan,StopPoint:OCEINTERCITES de nuit-87784009,Perpignan,42.696079,2.879622,Perpignan,"Perpignan is home to about 120,000 people, and has two rivers flowing through it; with the Têt to the north, and the Basse through the centre. Once the continental capital of the Kingdom of Majorca, Perpignan has been an economical and educational centre for centuries, and this is evident in its architecture.",../static/images/perpignan.png,history|skiing,../static/places/perpignan.html
173,france_148,france_123,127.0,148.0,130.0,france_148,Collioure,StopPoint:OCEINTERCITES de nuit-87784256,Collioure,42.52692,3.078248,Collioure,Collioure is an ancient fishing village 27 km from Spain. The Mediterranean laps on its beaches and you can spy the last summits of the Pyrenees.,../static/images/collioure.png,history|sea,../static/places/collioure.html
174,france_148,france_124,106.0,127.0,109.0,france_148,Collioure,StopPoint:OCEINTERCITES de nuit-87784256,Collioure,42.52692,3.078248,Collioure,Collioure is an ancient fishing village 27 km from Spain. The Mediterranean laps on its beaches and you can spy the last summits of the Pyrenees.,../static/images/collioure.png,history|sea,../static/places/collioure.html
175,france_148,france_125,168.0,187.0,171.0,france_148,Collioure,StopPoint:OCEINTERCITES de nuit-87784256,Collioure,42.52692,3.078248,Collioure,Collioure is an ancient fishing village 27 km from Spain. The Mediterranean laps on its beaches and you can spy the last summits of the Pyrenees.,../static/images/collioure.png,history|sea,../static/places/collioure.html
176,france_148,france_127,59.0,75.0,74.0,france_148,Collioure,StopPoint:OCEINTERCITES de nuit-87784256,Collioure,42.52692,3.078248,Collioure,Collioure is an ancient fishing village 27 km from Spain. The Mediterranean laps on its beaches and you can spy the last summits of the Pyrenees.,../static/images/collioure.png,history|sea,../static/places/collioure.html
177,france_148,france_145,22.0,26.0,24.0,france_148,Collioure,StopPoint:OCEINTERCITES de nuit-87784256,Collioure,42.52692,3.078248,Collioure,Collioure is an ancient fishing village 27 km from Spain. The Mediterranean laps on its beaches and you can spy the last summits of the Pyrenees.,../static/images/collioure.png,history|sea,../static/places/collioure.html
178,france_148,france_151,17.0,18.0,18.0,france_148,Collioure,StopPoint:OCEINTERCITES de nuit-87784256,Collioure,42.52692,3.078248,Collioure,Collioure is an ancient fishing village 27 km from Spain. The Mediterranean laps on its beaches and you can spy the last summits of the Pyrenees.,../static/images/collioure.png,history|sea,../static/places/collioure.html
179,france_148,france_19,704.0,807.0,766.0,france_148,Collioure,StopPoint:OCEINTERCITES de nuit-87784256,Collioure,42.52692,3.078248,Collioure,Collioure is an ancient fishing village 27 km from Spain. The Mediterranean laps on its beaches and you can spy the last summits of the Pyrenees.,../static/images/collioure.png,history|sea,../static/places/collioure.html
180,france_148,france_72,146.0,147.0,146.0,france_148,Collioure,StopPoint:OCEINTERCITES de nuit-87784256,Collioure,42.52692,3.078248,Collioure,Collioure is an ancient fishing village 27 km from Spain. The Mediterranean laps on its beaches and you can spy the last summits of the Pyrenees.,../static/images/collioure.png,history|sea,../static/places/collioure.html
181,france_151,france_123,147.0,168.0,149.0,france_151,Cerbère,StopPoint:OCEINTERCITES de nuit-87785006,Cerbère,42.442771,3.165528,Cerbère,"Gateway to Spain  - just wander over the hill! It's a journey made by made during times of strife, but these days it's all for pleasure",../static/images/cerbere.png,history|sea,../static/places/cerbere.html
182,france_151,france_124,126.0,147.0,128.0,france_151,Cerbère,StopPoint:OCEINTERCITES de nuit-87785006,Cerbère,42.442771,3.165528,Cerbère,"Gateway to Spain  - just wander over the hill! It's a journey made by made during times of strife, but these days it's all for pleasure",../static/images/cerbere.png,history|sea,../static/places/cerbere.html
183,france_151,france_125,188.0,207.0,190.0,france_151,Cerbère,StopPoint:OCEINTERCITES de nuit-87785006,Cerbère,42.442771,3.165528,Cerbère,"Gateway to Spain  - just wander over the hill! It's a journey made by made during times of strife, but these days it's all for pleasure",../static/images/cerbere.png,history|sea,../static/places/cerbere.html
184,france_151,france_127,79.0,98.0,96.0,france_151,Cerbère,StopPoint:OCEINTERCITES de nuit-87785006,Cerbère,42.442771,3.165528,Cerbère,"Gateway to Spain  - just wander over the hill! It's a journey made by made during times of strife, but these days it's all for pleasure",../static/images/cerbere.png,history|sea,../static/places/cerbere.html
185,france_151,france_145,41.0,46.0,46.0,france_151,Cerbère,StopPoint:OCEINTERCITES de nuit-87785006,Cerbère,42.442771,3.165528,Cerbère,"Gateway to Spain  - just wander over the hill! It's a journey made by made during times of strife, but these days it's all for pleasure",../static/images/cerbere.png,history|sea,../static/places/cerbere.html
186,france_151,france_148,17.0,21.0,20.0,france_151,Cerbère,StopPoint:OCEINTERCITES de nuit-87785006,Cerbère,42.442771,3.165528,Cerbère,"Gateway to Spain  - just wander over the hill! It's a journey made by made during times of strife, but these days it's all for pleasure",../static/images/cerbere.png,history|sea,../static/places/cerbere.html
187,france_151,france_19,725.0,826.0,788.0,france_151,Cerbère,StopPoint:OCEINTERCITES de nuit-87785006,Cerbère,42.442771,3.165528,Cerbère,"Gateway to Spain  - just wander over the hill! It's a journey made by made during times of strife, but these days it's all for pleasure",../static/images/cerbere.png,history|sea,../static/places/cerbere.html
188,france_151,france_72,168.0,170.0,168.0,france_151,Cerbère,StopPoint:OCEINTERCITES de nuit-87785006,Cerbère,42.442771,3.165528,Cerbère,"Gateway to Spain  - just wander over the hill! It's a journey made by made during times of strife, but these days it's all for pleasure",../static/images/cerbere.png,history|sea,../static/places/cerbere.html
