,place_id,place_id_x,duration,place_id,place_name,stop_id,stop_name,stop_lat,stop_lon,place_brief_desc,place_longer_desc,place_image,place_tags,place_links
0,1,19,190.5,1,Futuroscope,StopPoint:OCEOUIGO-87324095,Futuroscope,46.669918,0.377209,Science/tech theme park,"French theme park based upon multimedia, cinematographic, and audiovisual techniques. It has several 3D cinemas and a few 4D cinemas along with other attractions and shows, some of which are the only examples in the world",https://www.futuroscope.com/uploads/media/cache/slider_desktop/upload/image/1280x680_ENG_MI-SAISON.jpg,museum|science|kids,https://www.futuroscope.com/en/
1,1,24,132.0,1,Futuroscope,StopPoint:OCEOUIGO-87324095,Futuroscope,46.669918,0.377209,Science/tech theme park,"French theme park based upon multimedia, cinematographic, and audiovisual techniques. It has several 3D cinemas and a few 4D cinemas along with other attractions and shows, some of which are the only examples in the world",https://www.futuroscope.com/uploads/media/cache/slider_desktop/upload/image/1280x680_ENG_MI-SAISON.jpg,museum|science|kids,https://www.futuroscope.com/en/
2,2,3,16.7,2,Versailles,StopPoint:OCEOUIGO-87393009,Versailles Chantiers,48.795649,2.135924,Royal palace,The Palace of Versailles is a former royal residence built by King Louis XIV,https://upload.wikimedia.org/wikipedia/commons/thumb/7/74/Ch%C3%A2teau_de_Versailles_%28Orangerie%29.jpg/1280px-Ch%C3%A2teau_de_Versailles_%28Orangerie%29.jpg,museum|history|kids| culture,https://en.chateauversailles.fr/
3,2,4,46.35294117647059,2,Versailles,StopPoint:OCEOUIGO-87393009,Versailles Chantiers,48.795649,2.135924,Royal palace,The Palace of Versailles is a former royal residence built by King Louis XIV,https://upload.wikimedia.org/wikipedia/commons/thumb/7/74/Ch%C3%A2teau_de_Versailles_%28Orangerie%29.jpg/1280px-Ch%C3%A2teau_de_Versailles_%28Orangerie%29.jpg,museum|history|kids| culture,https://en.chateauversailles.fr/
4,2,5,113.3529411764706,2,Versailles,StopPoint:OCEOUIGO-87393009,Versailles Chantiers,48.795649,2.135924,Royal palace,The Palace of Versailles is a former royal residence built by King Louis XIV,https://upload.wikimedia.org/wikipedia/commons/thumb/7/74/Ch%C3%A2teau_de_Versailles_%28Orangerie%29.jpg/1280px-Ch%C3%A2teau_de_Versailles_%28Orangerie%29.jpg,museum|history|kids| culture,https://en.chateauversailles.fr/
5,2,6,222.0,2,Versailles,StopPoint:OCEOUIGO-87393009,Versailles Chantiers,48.795649,2.135924,Royal palace,The Palace of Versailles is a former royal residence built by King Louis XIV,https://upload.wikimedia.org/wikipedia/commons/thumb/7/74/Ch%C3%A2teau_de_Versailles_%28Orangerie%29.jpg/1280px-Ch%C3%A2teau_de_Versailles_%28Orangerie%29.jpg,museum|history|kids| culture,https://en.chateauversailles.fr/
6,2,7,180.83333333333334,2,Versailles,StopPoint:OCEOUIGO-87393009,Versailles Chantiers,48.795649,2.135924,Royal palace,The Palace of Versailles is a former royal residence built by King Louis XIV,https://upload.wikimedia.org/wikipedia/commons/thumb/7/74/Ch%C3%A2teau_de_Versailles_%28Orangerie%29.jpg/1280px-Ch%C3%A2teau_de_Versailles_%28Orangerie%29.jpg,museum|history|kids| culture,https://en.chateauversailles.fr/
7,2,19,52.1,2,Versailles,StopPoint:OCEOUIGO-87393009,Versailles Chantiers,48.795649,2.135924,Royal palace,The Palace of Versailles is a former royal residence built by King Louis XIV,https://upload.wikimedia.org/wikipedia/commons/thumb/7/74/Ch%C3%A2teau_de_Versailles_%28Orangerie%29.jpg/1280px-Ch%C3%A2teau_de_Versailles_%28Orangerie%29.jpg,museum|history|kids| culture,https://en.chateauversailles.fr/
8,4,2,39.4,4,Chartres,StopPoint:OCEOUIGO-87394007,Chartres,48.448628,1.481202,Chartres famed for its massive Cathédrale Notre-Dame,"Chartres, a city in north-central France southwest of Paris, is famed for its massive Cathédrale Notre-Dame. The Gothic cathedral, completed in 1220, features 2 towering spires, flying buttresses, Romanesque sculptures, pavement labyrinth and elaborate rose windows. The interior's blue-tinted stained glass is distinctive, and the nearby Centre International du Vitrail has workshops and exhibits on stained-glass art",https://upload.wikimedia.org/wikipedia/commons/6/6a/Chartres_-_Clo%C3%AEtre_Notre-Dame_-_Cath%C3%A9drale_Notre-Dame_de_Chartres_1193-1250_-_North_porch_of_Cath%C3%A9drale_Notre-Dame_de_Chartres_-_Left_bay_of_north_porch_of_Cath%C3%A9drale_Notre-Dame_de_Chartres_01.jpg,city break| culture| history,https://www.chartres-tourisme.com/en
9,4,3,58.4,4,Chartres,StopPoint:OCEOUIGO-87394007,Chartres,48.448628,1.481202,Chartres famed for its massive Cathédrale Notre-Dame,"Chartres, a city in north-central France southwest of Paris, is famed for its massive Cathédrale Notre-Dame. The Gothic cathedral, completed in 1220, features 2 towering spires, flying buttresses, Romanesque sculptures, pavement labyrinth and elaborate rose windows. The interior's blue-tinted stained glass is distinctive, and the nearby Centre International du Vitrail has workshops and exhibits on stained-glass art",https://upload.wikimedia.org/wikipedia/commons/6/6a/Chartres_-_Clo%C3%AEtre_Notre-Dame_-_Cath%C3%A9drale_Notre-Dame_de_Chartres_1193-1250_-_North_porch_of_Cath%C3%A9drale_Notre-Dame_de_Chartres_-_Left_bay_of_north_porch_of_Cath%C3%A9drale_Notre-Dame_de_Chartres_01.jpg,city break| culture| history,https://www.chartres-tourisme.com/en
10,4,5,63.705882352941174,4,Chartres,StopPoint:OCEOUIGO-87394007,Chartres,48.448628,1.481202,Chartres famed for its massive Cathédrale Notre-Dame,"Chartres, a city in north-central France southwest of Paris, is famed for its massive Cathédrale Notre-Dame. The Gothic cathedral, completed in 1220, features 2 towering spires, flying buttresses, Romanesque sculptures, pavement labyrinth and elaborate rose windows. The interior's blue-tinted stained glass is distinctive, and the nearby Centre International du Vitrail has workshops and exhibits on stained-glass art",https://upload.wikimedia.org/wikipedia/commons/6/6a/Chartres_-_Clo%C3%AEtre_Notre-Dame_-_Cath%C3%A9drale_Notre-Dame_de_Chartres_1193-1250_-_North_porch_of_Cath%C3%A9drale_Notre-Dame_de_Chartres_-_Left_bay_of_north_porch_of_Cath%C3%A9drale_Notre-Dame_de_Chartres_01.jpg,city break| culture| history,https://www.chartres-tourisme.com/en
11,4,6,165.66666666666666,4,Chartres,StopPoint:OCEOUIGO-87394007,Chartres,48.448628,1.481202,Chartres famed for its massive Cathédrale Notre-Dame,"Chartres, a city in north-central France southwest of Paris, is famed for its massive Cathédrale Notre-Dame. The Gothic cathedral, completed in 1220, features 2 towering spires, flying buttresses, Romanesque sculptures, pavement labyrinth and elaborate rose windows. The interior's blue-tinted stained glass is distinctive, and the nearby Centre International du Vitrail has workshops and exhibits on stained-glass art",https://upload.wikimedia.org/wikipedia/commons/6/6a/Chartres_-_Clo%C3%AEtre_Notre-Dame_-_Cath%C3%A9drale_Notre-Dame_de_Chartres_1193-1250_-_North_porch_of_Cath%C3%A9drale_Notre-Dame_de_Chartres_-_Left_bay_of_north_porch_of_Cath%C3%A9drale_Notre-Dame_de_Chartres_01.jpg,city break| culture| history,https://www.chartres-tourisme.com/en
12,4,7,124.5,4,Chartres,StopPoint:OCEOUIGO-87394007,Chartres,48.448628,1.481202,Chartres famed for its massive Cathédrale Notre-Dame,"Chartres, a city in north-central France southwest of Paris, is famed for its massive Cathédrale Notre-Dame. The Gothic cathedral, completed in 1220, features 2 towering spires, flying buttresses, Romanesque sculptures, pavement labyrinth and elaborate rose windows. The interior's blue-tinted stained glass is distinctive, and the nearby Centre International du Vitrail has workshops and exhibits on stained-glass art",https://upload.wikimedia.org/wikipedia/commons/6/6a/Chartres_-_Clo%C3%AEtre_Notre-Dame_-_Cath%C3%A9drale_Notre-Dame_de_Chartres_1193-1250_-_North_porch_of_Cath%C3%A9drale_Notre-Dame_de_Chartres_-_Left_bay_of_north_porch_of_Cath%C3%A9drale_Notre-Dame_de_Chartres_01.jpg,city break| culture| history,https://www.chartres-tourisme.com/en
13,4,19,93.8,4,Chartres,StopPoint:OCEOUIGO-87394007,Chartres,48.448628,1.481202,Chartres famed for its massive Cathédrale Notre-Dame,"Chartres, a city in north-central France southwest of Paris, is famed for its massive Cathédrale Notre-Dame. The Gothic cathedral, completed in 1220, features 2 towering spires, flying buttresses, Romanesque sculptures, pavement labyrinth and elaborate rose windows. The interior's blue-tinted stained glass is distinctive, and the nearby Centre International du Vitrail has workshops and exhibits on stained-glass art",https://upload.wikimedia.org/wikipedia/commons/6/6a/Chartres_-_Clo%C3%AEtre_Notre-Dame_-_Cath%C3%A9drale_Notre-Dame_de_Chartres_1193-1250_-_North_porch_of_Cath%C3%A9drale_Notre-Dame_de_Chartres_-_Left_bay_of_north_porch_of_Cath%C3%A9drale_Notre-Dame_de_Chartres_01.jpg,city break| culture| history,https://www.chartres-tourisme.com/en
14,6,2,194.0,6,Rennes,StopPoint:OCEOUIGO-87471003,Rennes,48.103071,-1.672131,Rennes,"Rennes is the chief city of Brittany in northwest France. It's mostly modern and industrial, but has many grand 18th and 19th century buildings, and survivors of earlier times. It's also well-endowed with cultural attractions. In 2020 the city population was 222,485, with about 150,000 more living in the wider metropolis.",https://upload.wikimedia.org/wikipedia/commons/8/8f/Renne_banner.jpg,city break,https://en.wikivoyage.org/wiki/Rennes
15,6,3,214.0,6,Rennes,StopPoint:OCEOUIGO-87471003,Rennes,48.103071,-1.672131,Rennes,"Rennes is the chief city of Brittany in northwest France. It's mostly modern and industrial, but has many grand 18th and 19th century buildings, and survivors of earlier times. It's also well-endowed with cultural attractions. In 2020 the city population was 222,485, with about 150,000 more living in the wider metropolis.",https://upload.wikimedia.org/wikipedia/commons/8/8f/Renne_banner.jpg,city break,https://en.wikivoyage.org/wiki/Rennes
16,6,4,153.0,6,Rennes,StopPoint:OCEOUIGO-87471003,Rennes,48.103071,-1.672131,Rennes,"Rennes is the chief city of Brittany in northwest France. It's mostly modern and industrial, but has many grand 18th and 19th century buildings, and survivors of earlier times. It's also well-endowed with cultural attractions. In 2020 the city population was 222,485, with about 150,000 more living in the wider metropolis.",https://upload.wikimedia.org/wikipedia/commons/8/8f/Renne_banner.jpg,city break,https://en.wikivoyage.org/wiki/Rennes
17,6,5,87.4,6,Rennes,StopPoint:OCEOUIGO-87471003,Rennes,48.103071,-1.672131,Rennes,"Rennes is the chief city of Brittany in northwest France. It's mostly modern and industrial, but has many grand 18th and 19th century buildings, and survivors of earlier times. It's also well-endowed with cultural attractions. In 2020 the city population was 222,485, with about 150,000 more living in the wider metropolis.",https://upload.wikimedia.org/wikipedia/commons/8/8f/Renne_banner.jpg,city break,https://en.wikivoyage.org/wiki/Rennes
18,6,7,37.2,6,Rennes,StopPoint:OCEOUIGO-87471003,Rennes,48.103071,-1.672131,Rennes,"Rennes is the chief city of Brittany in northwest France. It's mostly modern and industrial, but has many grand 18th and 19th century buildings, and survivors of earlier times. It's also well-endowed with cultural attractions. In 2020 the city population was 222,485, with about 150,000 more living in the wider metropolis.",https://upload.wikimedia.org/wikipedia/commons/8/8f/Renne_banner.jpg,city break,https://en.wikivoyage.org/wiki/Rennes
19,6,19,250.6,6,Rennes,StopPoint:OCEOUIGO-87471003,Rennes,48.103071,-1.672131,Rennes,"Rennes is the chief city of Brittany in northwest France. It's mostly modern and industrial, but has many grand 18th and 19th century buildings, and survivors of earlier times. It's also well-endowed with cultural attractions. In 2020 the city population was 222,485, with about 150,000 more living in the wider metropolis.",https://upload.wikimedia.org/wikipedia/commons/8/8f/Renne_banner.jpg,city break,https://en.wikivoyage.org/wiki/Rennes
20,10,15,49.5,10,La Rochelle,StopPoint:OCEINTERCITES-87485003,La Rochelle,46.152703,-1.145288,La Rochelle,"La Rochelle, capital of Charente-Maritime and one of the most livable cities in France, is a pretty good place to go and get nautical.",https://lh5.googleusercontent.com/1lhOkw7mb1tjYXRmy8mnq0EfurGEXw-3SYoXNMRN3TzEgyYQanwdWpwKx5TBCTpiAaOqbT5g-PzOssErNk30scg=w16383,,https://www.low-carb-travel.info/deeper-dives/train-to-spain/hop-offs/france/la-rochelle
21,10,24,142.58333333333334,10,La Rochelle,StopPoint:OCEINTERCITES-87485003,La Rochelle,46.152703,-1.145288,La Rochelle,"La Rochelle, capital of Charente-Maritime and one of the most livable cities in France, is a pretty good place to go and get nautical.",https://lh5.googleusercontent.com/1lhOkw7mb1tjYXRmy8mnq0EfurGEXw-3SYoXNMRN3TzEgyYQanwdWpwKx5TBCTpiAaOqbT5g-PzOssErNk30scg=w16383,,https://www.low-carb-travel.info/deeper-dives/train-to-spain/hop-offs/france/la-rochelle
22,15,10,48.59090909090909,15,Saintes,StopPoint:OCEINTERCITES-87491001,Saintes,45.748886,-0.617356,Saintes,"Saintes is a city on the Charente river in Charente-Maritime, in southwestern France. It was the capital of the historical Saintogne County, many landmarks from its glorious past have been preserved, and as such it has been classified as a Ville d'art et d'histoire (""City of art and history"").",https://upload.wikimedia.org/wikipedia/commons/0/07/Saintes_Banner.png,history|city break,https://en.wikivoyage.org/wiki/Saintes
23,15,24,91.08333333333333,15,Saintes,StopPoint:OCEINTERCITES-87491001,Saintes,45.748886,-0.617356,Saintes,"Saintes is a city on the Charente river in Charente-Maritime, in southwestern France. It was the capital of the historical Saintogne County, many landmarks from its glorious past have been preserved, and as such it has been classified as a Ville d'art et d'histoire (""City of art and history"").",https://upload.wikimedia.org/wikipedia/commons/0/07/Saintes_Banner.png,history|city break,https://en.wikivoyage.org/wiki/Saintes
24,19,1,171.5,19,Paris,StopPoint:OCEOUIGO-87547000,Paris Austerlitz,48.840496,2.367079,Paris,"We’ll always have Paris' - Casablanca \nAh Paris, where do you start...",https://lh6.googleusercontent.com/cjoB14f8hoFIScIN-lS0AFZ7VN05Hqg-2nGynptvQP4ZXIM4aVxLcexxtnoICM9X0xUo7zvcrJz3AoJNajeGhbQ=w16383,history|kids|city break,https://www.low-carb-travel.info/deeper-dives/train-to-spain/hop-offs/france/paris
25,19,2,57.11764705882353,19,Paris,StopPoint:OCEOUIGO-87547000,Paris Austerlitz,48.840496,2.367079,Paris,"We’ll always have Paris' - Casablanca \nAh Paris, where do you start...",https://lh6.googleusercontent.com/cjoB14f8hoFIScIN-lS0AFZ7VN05Hqg-2nGynptvQP4ZXIM4aVxLcexxtnoICM9X0xUo7zvcrJz3AoJNajeGhbQ=w16383,history|kids|city break,https://www.low-carb-travel.info/deeper-dives/train-to-spain/hop-offs/france/paris
26,19,3,33.05882352941177,19,Paris,StopPoint:OCEOUIGO-87547000,Paris Austerlitz,48.840496,2.367079,Paris,"We’ll always have Paris' - Casablanca \nAh Paris, where do you start...",https://lh6.googleusercontent.com/cjoB14f8hoFIScIN-lS0AFZ7VN05Hqg-2nGynptvQP4ZXIM4aVxLcexxtnoICM9X0xUo7zvcrJz3AoJNajeGhbQ=w16383,history|kids|city break,https://www.low-carb-travel.info/deeper-dives/train-to-spain/hop-offs/france/paris
27,19,4,106.11764705882354,19,Paris,StopPoint:OCEOUIGO-87547000,Paris Austerlitz,48.840496,2.367079,Paris,"We’ll always have Paris' - Casablanca \nAh Paris, where do you start...",https://lh6.googleusercontent.com/cjoB14f8hoFIScIN-lS0AFZ7VN05Hqg-2nGynptvQP4ZXIM4aVxLcexxtnoICM9X0xUo7zvcrJz3AoJNajeGhbQ=w16383,history|kids|city break,https://www.low-carb-travel.info/deeper-dives/train-to-spain/hop-offs/france/paris
28,19,5,173.11764705882354,19,Paris,StopPoint:OCEOUIGO-87547000,Paris Austerlitz,48.840496,2.367079,Paris,"We’ll always have Paris' - Casablanca \nAh Paris, where do you start...",https://lh6.googleusercontent.com/cjoB14f8hoFIScIN-lS0AFZ7VN05Hqg-2nGynptvQP4ZXIM4aVxLcexxtnoICM9X0xUo7zvcrJz3AoJNajeGhbQ=w16383,history|kids|city break,https://www.low-carb-travel.info/deeper-dives/train-to-spain/hop-offs/france/paris
29,19,6,276.3333333333333,19,Paris,StopPoint:OCEOUIGO-87547000,Paris Austerlitz,48.840496,2.367079,Paris,"We’ll always have Paris' - Casablanca \nAh Paris, where do you start...",https://lh6.googleusercontent.com/cjoB14f8hoFIScIN-lS0AFZ7VN05Hqg-2nGynptvQP4ZXIM4aVxLcexxtnoICM9X0xUo7zvcrJz3AoJNajeGhbQ=w16383,history|kids|city break,https://www.low-carb-travel.info/deeper-dives/train-to-spain/hop-offs/france/paris
30,19,7,235.16666666666666,19,Paris,StopPoint:OCEOUIGO-87547000,Paris Austerlitz,48.840496,2.367079,Paris,"We’ll always have Paris' - Casablanca \nAh Paris, where do you start...",https://lh6.googleusercontent.com/cjoB14f8hoFIScIN-lS0AFZ7VN05Hqg-2nGynptvQP4ZXIM4aVxLcexxtnoICM9X0xUo7zvcrJz3AoJNajeGhbQ=w16383,history|kids|city break,https://www.low-carb-travel.info/deeper-dives/train-to-spain/hop-offs/france/paris
31,19,24,306.5,19,Paris,StopPoint:OCEOUIGO-87547000,Paris Austerlitz,48.840496,2.367079,Paris,"We’ll always have Paris' - Casablanca \nAh Paris, where do you start...",https://lh6.googleusercontent.com/cjoB14f8hoFIScIN-lS0AFZ7VN05Hqg-2nGynptvQP4ZXIM4aVxLcexxtnoICM9X0xUo7zvcrJz3AoJNajeGhbQ=w16383,history|kids|city break,https://www.low-carb-travel.info/deeper-dives/train-to-spain/hop-offs/france/paris
32,19,28,206.3125,19,Paris,StopPoint:OCEOUIGO-87547000,Paris Austerlitz,48.840496,2.367079,Paris,"We’ll always have Paris' - Casablanca \nAh Paris, where do you start...",https://lh6.googleusercontent.com/cjoB14f8hoFIScIN-lS0AFZ7VN05Hqg-2nGynptvQP4ZXIM4aVxLcexxtnoICM9X0xUo7zvcrJz3AoJNajeGhbQ=w16383,history|kids|city break,https://www.low-carb-travel.info/deeper-dives/train-to-spain/hop-offs/france/paris
33,19,38,440.85714285714283,19,Paris,StopPoint:OCEOUIGO-87547000,Paris Austerlitz,48.840496,2.367079,Paris,"We’ll always have Paris' - Casablanca \nAh Paris, where do you start...",https://lh6.googleusercontent.com/cjoB14f8hoFIScIN-lS0AFZ7VN05Hqg-2nGynptvQP4ZXIM4aVxLcexxtnoICM9X0xUo7zvcrJz3AoJNajeGhbQ=w16383,history|kids|city break,https://www.low-carb-travel.info/deeper-dives/train-to-spain/hop-offs/france/paris
34,19,45,730.3461538461538,19,Paris,StopPoint:OCEOUIGO-87547000,Paris Austerlitz,48.840496,2.367079,Paris,"We’ll always have Paris' - Casablanca \nAh Paris, where do you start...",https://lh6.googleusercontent.com/cjoB14f8hoFIScIN-lS0AFZ7VN05Hqg-2nGynptvQP4ZXIM4aVxLcexxtnoICM9X0xUo7zvcrJz3AoJNajeGhbQ=w16383,history|kids|city break,https://www.low-carb-travel.info/deeper-dives/train-to-spain/hop-offs/france/paris
35,19,72,566.9375,19,Paris,StopPoint:OCEOUIGO-87547000,Paris Austerlitz,48.840496,2.367079,Paris,"We’ll always have Paris' - Casablanca \nAh Paris, where do you start...",https://lh6.googleusercontent.com/cjoB14f8hoFIScIN-lS0AFZ7VN05Hqg-2nGynptvQP4ZXIM4aVxLcexxtnoICM9X0xUo7zvcrJz3AoJNajeGhbQ=w16383,history|kids|city break,https://www.low-carb-travel.info/deeper-dives/train-to-spain/hop-offs/france/paris
36,19,80,641.6333333333333,19,Paris,StopPoint:OCEOUIGO-87547000,Paris Austerlitz,48.840496,2.367079,Paris,"We’ll always have Paris' - Casablanca \nAh Paris, where do you start...",https://lh6.googleusercontent.com/cjoB14f8hoFIScIN-lS0AFZ7VN05Hqg-2nGynptvQP4ZXIM4aVxLcexxtnoICM9X0xUo7zvcrJz3AoJNajeGhbQ=w16383,history|kids|city break,https://www.low-carb-travel.info/deeper-dives/train-to-spain/hop-offs/france/paris
37,19,93,305.27272727272725,19,Paris,StopPoint:OCEOUIGO-87547000,Paris Austerlitz,48.840496,2.367079,Paris,"We’ll always have Paris' - Casablanca \nAh Paris, where do you start...",https://lh6.googleusercontent.com/cjoB14f8hoFIScIN-lS0AFZ7VN05Hqg-2nGynptvQP4ZXIM4aVxLcexxtnoICM9X0xUo7zvcrJz3AoJNajeGhbQ=w16383,history|kids|city break,https://www.low-carb-travel.info/deeper-dives/train-to-spain/hop-offs/france/paris
38,19,97,179.64367816091954,19,Paris,StopPoint:OCEOUIGO-87547000,Paris Austerlitz,48.840496,2.367079,Paris,"We’ll always have Paris' - Casablanca \nAh Paris, where do you start...",https://lh6.googleusercontent.com/cjoB14f8hoFIScIN-lS0AFZ7VN05Hqg-2nGynptvQP4ZXIM4aVxLcexxtnoICM9X0xUo7zvcrJz3AoJNajeGhbQ=w16383,history|kids|city break,https://www.low-carb-travel.info/deeper-dives/train-to-spain/hop-offs/france/paris
39,19,105,596.7058823529412,19,Paris,StopPoint:OCEOUIGO-87547000,Paris Austerlitz,48.840496,2.367079,Paris,"We’ll always have Paris' - Casablanca \nAh Paris, where do you start...",https://lh6.googleusercontent.com/cjoB14f8hoFIScIN-lS0AFZ7VN05Hqg-2nGynptvQP4ZXIM4aVxLcexxtnoICM9X0xUo7zvcrJz3AoJNajeGhbQ=w16383,history|kids|city break,https://www.low-carb-travel.info/deeper-dives/train-to-spain/hop-offs/france/paris
40,19,123,556.5,19,Paris,StopPoint:OCEOUIGO-87547000,Paris Austerlitz,48.840496,2.367079,Paris,"We’ll always have Paris' - Casablanca \nAh Paris, where do you start...",https://lh6.googleusercontent.com/cjoB14f8hoFIScIN-lS0AFZ7VN05Hqg-2nGynptvQP4ZXIM4aVxLcexxtnoICM9X0xUo7zvcrJz3AoJNajeGhbQ=w16383,history|kids|city break,https://www.low-carb-travel.info/deeper-dives/train-to-spain/hop-offs/france/paris
41,19,124,578.25,19,Paris,StopPoint:OCEOUIGO-87547000,Paris Austerlitz,48.840496,2.367079,Paris,"We’ll always have Paris' - Casablanca \nAh Paris, where do you start...",https://lh6.googleusercontent.com/cjoB14f8hoFIScIN-lS0AFZ7VN05Hqg-2nGynptvQP4ZXIM4aVxLcexxtnoICM9X0xUo7zvcrJz3AoJNajeGhbQ=w16383,history|kids|city break,https://www.low-carb-travel.info/deeper-dives/train-to-spain/hop-offs/france/paris
42,19,125,526.5,19,Paris,StopPoint:OCEOUIGO-87547000,Paris Austerlitz,48.840496,2.367079,Paris,"We’ll always have Paris' - Casablanca \nAh Paris, where do you start...",https://lh6.googleusercontent.com/cjoB14f8hoFIScIN-lS0AFZ7VN05Hqg-2nGynptvQP4ZXIM4aVxLcexxtnoICM9X0xUo7zvcrJz3AoJNajeGhbQ=w16383,history|kids|city break,https://www.low-carb-travel.info/deeper-dives/train-to-spain/hop-offs/france/paris
43,19,127,608.8333333333334,19,Paris,StopPoint:OCEOUIGO-87547000,Paris Austerlitz,48.840496,2.367079,Paris,"We’ll always have Paris' - Casablanca \nAh Paris, where do you start...",https://lh6.googleusercontent.com/cjoB14f8hoFIScIN-lS0AFZ7VN05Hqg-2nGynptvQP4ZXIM4aVxLcexxtnoICM9X0xUo7zvcrJz3AoJNajeGhbQ=w16383,history|kids|city break,https://www.low-carb-travel.info/deeper-dives/train-to-spain/hop-offs/france/paris
44,19,145,679.7083333333334,19,Paris,StopPoint:OCEOUIGO-87547000,Paris Austerlitz,48.840496,2.367079,Paris,"We’ll always have Paris' - Casablanca \nAh Paris, where do you start...",https://lh6.googleusercontent.com/cjoB14f8hoFIScIN-lS0AFZ7VN05Hqg-2nGynptvQP4ZXIM4aVxLcexxtnoICM9X0xUo7zvcrJz3AoJNajeGhbQ=w16383,history|kids|city break,https://www.low-carb-travel.info/deeper-dives/train-to-spain/hop-offs/france/paris
45,19,148,708.9583333333334,19,Paris,StopPoint:OCEOUIGO-87547000,Paris Austerlitz,48.840496,2.367079,Paris,"We’ll always have Paris' - Casablanca \nAh Paris, where do you start...",https://lh6.googleusercontent.com/cjoB14f8hoFIScIN-lS0AFZ7VN05Hqg-2nGynptvQP4ZXIM4aVxLcexxtnoICM9X0xUo7zvcrJz3AoJNajeGhbQ=w16383,history|kids|city break,https://www.low-carb-travel.info/deeper-dives/train-to-spain/hop-offs/france/paris
46,19,151,728.7916666666666,19,Paris,StopPoint:OCEOUIGO-87547000,Paris Austerlitz,48.840496,2.367079,Paris,"We’ll always have Paris' - Casablanca \nAh Paris, where do you start...",https://lh6.googleusercontent.com/cjoB14f8hoFIScIN-lS0AFZ7VN05Hqg-2nGynptvQP4ZXIM4aVxLcexxtnoICM9X0xUo7zvcrJz3AoJNajeGhbQ=w16383,history|kids|city break,https://www.low-carb-travel.info/deeper-dives/train-to-spain/hop-offs/france/paris
47,24,1,135.5,24,Bordeaux,StopPoint:OCEOUIGO-87581009,Bordeaux Saint-Jean,44.825823,-0.556012,Bordeaux,"Bordeaux, resting on the banks of the Garonne is the global capital of wine and it would be rude not to get straight to the point and pay a visit to La Cité du Vin where you can learn about how the giggle-juice is made and maybe do some tasting?",https://lh4.googleusercontent.com/OvutzVxc8rop6CbW76s32yeurjE6vOno61BBSNB0OOlYJfgYOYESE83amOp7Nxbqwycv3BI73dJs3tGw3QLCOx0=w16383,history|kids|city break,https://www.low-carb-travel.info/deeper-dives/train-to-spain/hop-offs/france/bordeaux
48,24,10,146.72727272727272,24,Bordeaux,StopPoint:OCEOUIGO-87581009,Bordeaux Saint-Jean,44.825823,-0.556012,Bordeaux,"Bordeaux, resting on the banks of the Garonne is the global capital of wine and it would be rude not to get straight to the point and pay a visit to La Cité du Vin where you can learn about how the giggle-juice is made and maybe do some tasting?",https://lh4.googleusercontent.com/OvutzVxc8rop6CbW76s32yeurjE6vOno61BBSNB0OOlYJfgYOYESE83amOp7Nxbqwycv3BI73dJs3tGw3QLCOx0=w16383,history|kids|city break,https://www.low-carb-travel.info/deeper-dives/train-to-spain/hop-offs/france/bordeaux
49,24,15,96.13636363636364,24,Bordeaux,StopPoint:OCEOUIGO-87581009,Bordeaux Saint-Jean,44.825823,-0.556012,Bordeaux,"Bordeaux, resting on the banks of the Garonne is the global capital of wine and it would be rude not to get straight to the point and pay a visit to La Cité du Vin where you can learn about how the giggle-juice is made and maybe do some tasting?",https://lh4.googleusercontent.com/OvutzVxc8rop6CbW76s32yeurjE6vOno61BBSNB0OOlYJfgYOYESE83amOp7Nxbqwycv3BI73dJs3tGw3QLCOx0=w16383,history|kids|city break,https://www.low-carb-travel.info/deeper-dives/train-to-spain/hop-offs/france/bordeaux
50,24,19,328.5,24,Bordeaux,StopPoint:OCEOUIGO-87581009,Bordeaux Saint-Jean,44.825823,-0.556012,Bordeaux,"Bordeaux, resting on the banks of the Garonne is the global capital of wine and it would be rude not to get straight to the point and pay a visit to La Cité du Vin where you can learn about how the giggle-juice is made and maybe do some tasting?",https://lh4.googleusercontent.com/OvutzVxc8rop6CbW76s32yeurjE6vOno61BBSNB0OOlYJfgYOYESE83amOp7Nxbqwycv3BI73dJs3tGw3QLCOx0=w16383,history|kids|city break,https://www.low-carb-travel.info/deeper-dives/train-to-spain/hop-offs/france/bordeaux
51,24,38,130.67441860465115,24,Bordeaux,StopPoint:OCEOUIGO-87581009,Bordeaux Saint-Jean,44.825823,-0.556012,Bordeaux,"Bordeaux, resting on the banks of the Garonne is the global capital of wine and it would be rude not to get straight to the point and pay a visit to La Cité du Vin where you can learn about how the giggle-juice is made and maybe do some tasting?",https://lh4.googleusercontent.com/OvutzVxc8rop6CbW76s32yeurjE6vOno61BBSNB0OOlYJfgYOYESE83amOp7Nxbqwycv3BI73dJs3tGw3QLCOx0=w16383,history|kids|city break,https://www.low-carb-travel.info/deeper-dives/train-to-spain/hop-offs/france/bordeaux
52,24,72,180.27777777777777,24,Bordeaux,StopPoint:OCEOUIGO-87581009,Bordeaux Saint-Jean,44.825823,-0.556012,Bordeaux,"Bordeaux, resting on the banks of the Garonne is the global capital of wine and it would be rude not to get straight to the point and pay a visit to La Cité du Vin where you can learn about how the giggle-juice is made and maybe do some tasting?",https://lh4.googleusercontent.com/OvutzVxc8rop6CbW76s32yeurjE6vOno61BBSNB0OOlYJfgYOYESE83amOp7Nxbqwycv3BI73dJs3tGw3QLCOx0=w16383,history|kids|city break,https://www.low-carb-travel.info/deeper-dives/train-to-spain/hop-offs/france/bordeaux
53,24,105,369.7241379310345,24,Bordeaux,StopPoint:OCEOUIGO-87581009,Bordeaux Saint-Jean,44.825823,-0.556012,Bordeaux,"Bordeaux, resting on the banks of the Garonne is the global capital of wine and it would be rude not to get straight to the point and pay a visit to La Cité du Vin where you can learn about how the giggle-juice is made and maybe do some tasting?",https://lh4.googleusercontent.com/OvutzVxc8rop6CbW76s32yeurjE6vOno61BBSNB0OOlYJfgYOYESE83amOp7Nxbqwycv3BI73dJs3tGw3QLCOx0=w16383,history|kids|city break,https://www.low-carb-travel.info/deeper-dives/train-to-spain/hop-offs/france/bordeaux
54,24,106,323.5833333333333,24,Bordeaux,StopPoint:OCEOUIGO-87581009,Bordeaux Saint-Jean,44.825823,-0.556012,Bordeaux,"Bordeaux, resting on the banks of the Garonne is the global capital of wine and it would be rude not to get straight to the point and pay a visit to La Cité du Vin where you can learn about how the giggle-juice is made and maybe do some tasting?",https://lh4.googleusercontent.com/OvutzVxc8rop6CbW76s32yeurjE6vOno61BBSNB0OOlYJfgYOYESE83amOp7Nxbqwycv3BI73dJs3tGw3QLCOx0=w16383,history|kids|city break,https://www.low-carb-travel.info/deeper-dives/train-to-spain/hop-offs/france/bordeaux
55,24,123,269.75757575757575,24,Bordeaux,StopPoint:OCEOUIGO-87581009,Bordeaux Saint-Jean,44.825823,-0.556012,Bordeaux,"Bordeaux, resting on the banks of the Garonne is the global capital of wine and it would be rude not to get straight to the point and pay a visit to La Cité du Vin where you can learn about how the giggle-juice is made and maybe do some tasting?",https://lh4.googleusercontent.com/OvutzVxc8rop6CbW76s32yeurjE6vOno61BBSNB0OOlYJfgYOYESE83amOp7Nxbqwycv3BI73dJs3tGw3QLCOx0=w16383,history|kids|city break,https://www.low-carb-travel.info/deeper-dives/train-to-spain/hop-offs/france/bordeaux
56,24,124,251.33333333333334,24,Bordeaux,StopPoint:OCEOUIGO-87581009,Bordeaux Saint-Jean,44.825823,-0.556012,Bordeaux,"Bordeaux, resting on the banks of the Garonne is the global capital of wine and it would be rude not to get straight to the point and pay a visit to La Cité du Vin where you can learn about how the giggle-juice is made and maybe do some tasting?",https://lh4.googleusercontent.com/OvutzVxc8rop6CbW76s32yeurjE6vOno61BBSNB0OOlYJfgYOYESE83amOp7Nxbqwycv3BI73dJs3tGw3QLCOx0=w16383,history|kids|city break,https://www.low-carb-travel.info/deeper-dives/train-to-spain/hop-offs/france/bordeaux
57,24,125,298.0,24,Bordeaux,StopPoint:OCEOUIGO-87581009,Bordeaux Saint-Jean,44.825823,-0.556012,Bordeaux,"Bordeaux, resting on the banks of the Garonne is the global capital of wine and it would be rude not to get straight to the point and pay a visit to La Cité du Vin where you can learn about how the giggle-juice is made and maybe do some tasting?",https://lh4.googleusercontent.com/OvutzVxc8rop6CbW76s32yeurjE6vOno61BBSNB0OOlYJfgYOYESE83amOp7Nxbqwycv3BI73dJs3tGw3QLCOx0=w16383,history|kids|city break,https://www.low-carb-travel.info/deeper-dives/train-to-spain/hop-offs/france/bordeaux
58,24,127,212.13888888888889,24,Bordeaux,StopPoint:OCEOUIGO-87581009,Bordeaux Saint-Jean,44.825823,-0.556012,Bordeaux,"Bordeaux, resting on the banks of the Garonne is the global capital of wine and it would be rude not to get straight to the point and pay a visit to La Cité du Vin where you can learn about how the giggle-juice is made and maybe do some tasting?",https://lh4.googleusercontent.com/OvutzVxc8rop6CbW76s32yeurjE6vOno61BBSNB0OOlYJfgYOYESE83amOp7Nxbqwycv3BI73dJs3tGw3QLCOx0=w16383,history|kids|city break,https://www.low-carb-travel.info/deeper-dives/train-to-spain/hop-offs/france/bordeaux
59,28,19,203.06451612903226,28,Limoges,StopPoint:OCEINTERCITES-87592006,Limoges Bénédictins,45.837218,1.269008,Limoges,"Limoges is a city in southwest-central France. It’s known for its decorated porcelain, much of which is on display at the Musée National Adrien Dubouché. In the historic center, medieval timber-frame houses line Rue de la Boucherie. Set in the former Episcopal Palace, the Musée des Beaux-Arts showcases the history of the city's medieval enamel. The Gothic Cathédrale St-Étienne de Limoges took 6 centuries to complete",https://upload.wikimedia.org/wikipedia/commons/f/f0/Limoges_banner.jpg,history|art,https://en.wikivoyage.org/wiki/Limoges
60,28,38,209.77272727272728,28,Limoges,StopPoint:OCEINTERCITES-87592006,Limoges Bénédictins,45.837218,1.269008,Limoges,"Limoges is a city in southwest-central France. It’s known for its decorated porcelain, much of which is on display at the Musée National Adrien Dubouché. In the historic center, medieval timber-frame houses line Rue de la Boucherie. Set in the former Episcopal Palace, the Musée des Beaux-Arts showcases the history of the city's medieval enamel. The Gothic Cathédrale St-Étienne de Limoges took 6 centuries to complete",https://upload.wikimedia.org/wikipedia/commons/f/f0/Limoges_banner.jpg,history|art,https://en.wikivoyage.org/wiki/Limoges
61,38,19,442.44444444444446,38,Toulouse,StopPoint:OCEINTERCITES de nuit-87611004,Toulouse Matabiau,43.611437,1.454237,Toulouse,"Toulouse, known as 'La Ville Rose', is the proud capital of the Occitan region of France which has had a distinctly independent culture and language - hence its bilingual street signs. Wandering around the city with its rose-coloured bricks, it does feel markedly different from the yellow limestone which dominates so many parts of France.",https://lh3.googleusercontent.com/otTmj5ar3j_EmP1swxMdojMoiuoNQC1Cq-uWYa5QcA-IcFXh_d4fGO-MHSSdPX8o4TgjmXnz5oWjT389zJ2-XGM=w16383,history|food,https://www.low-carb-travel.info/deeper-dives/train-to-spain/hop-offs/france/toulouse
62,38,24,130.01818181818183,38,Toulouse,StopPoint:OCEINTERCITES de nuit-87611004,Toulouse Matabiau,43.611437,1.454237,Toulouse,"Toulouse, known as 'La Ville Rose', is the proud capital of the Occitan region of France which has had a distinctly independent culture and language - hence its bilingual street signs. Wandering around the city with its rose-coloured bricks, it does feel markedly different from the yellow limestone which dominates so many parts of France.",https://lh3.googleusercontent.com/otTmj5ar3j_EmP1swxMdojMoiuoNQC1Cq-uWYa5QcA-IcFXh_d4fGO-MHSSdPX8o4TgjmXnz5oWjT389zJ2-XGM=w16383,history|food,https://www.low-carb-travel.info/deeper-dives/train-to-spain/hop-offs/france/toulouse
63,38,28,210.42857142857142,38,Toulouse,StopPoint:OCEINTERCITES de nuit-87611004,Toulouse Matabiau,43.611437,1.454237,Toulouse,"Toulouse, known as 'La Ville Rose', is the proud capital of the Occitan region of France which has had a distinctly independent culture and language - hence its bilingual street signs. Wandering around the city with its rose-coloured bricks, it does feel markedly different from the yellow limestone which dominates so many parts of France.",https://lh3.googleusercontent.com/otTmj5ar3j_EmP1swxMdojMoiuoNQC1Cq-uWYa5QcA-IcFXh_d4fGO-MHSSdPX8o4TgjmXnz5oWjT389zJ2-XGM=w16383,history|food,https://www.low-carb-travel.info/deeper-dives/train-to-spain/hop-offs/france/toulouse
64,38,72,43.851063829787236,38,Toulouse,StopPoint:OCEINTERCITES de nuit-87611004,Toulouse Matabiau,43.611437,1.454237,Toulouse,"Toulouse, known as 'La Ville Rose', is the proud capital of the Occitan region of France which has had a distinctly independent culture and language - hence its bilingual street signs. Wandering around the city with its rose-coloured bricks, it does feel markedly different from the yellow limestone which dominates so many parts of France.",https://lh3.googleusercontent.com/otTmj5ar3j_EmP1swxMdojMoiuoNQC1Cq-uWYa5QcA-IcFXh_d4fGO-MHSSdPX8o4TgjmXnz5oWjT389zJ2-XGM=w16383,history|food,https://www.low-carb-travel.info/deeper-dives/train-to-spain/hop-offs/france/toulouse
65,38,80,109.76190476190476,38,Toulouse,StopPoint:OCEINTERCITES de nuit-87611004,Toulouse Matabiau,43.611437,1.454237,Toulouse,"Toulouse, known as 'La Ville Rose', is the proud capital of the Occitan region of France which has had a distinctly independent culture and language - hence its bilingual street signs. Wandering around the city with its rose-coloured bricks, it does feel markedly different from the yellow limestone which dominates so many parts of France.",https://lh3.googleusercontent.com/otTmj5ar3j_EmP1swxMdojMoiuoNQC1Cq-uWYa5QcA-IcFXh_d4fGO-MHSSdPX8o4TgjmXnz5oWjT389zJ2-XGM=w16383,history|food,https://www.low-carb-travel.info/deeper-dives/train-to-spain/hop-offs/france/toulouse
66,38,83,218.10526315789474,38,Toulouse,StopPoint:OCEINTERCITES de nuit-87611004,Toulouse Matabiau,43.611437,1.454237,Toulouse,"Toulouse, known as 'La Ville Rose', is the proud capital of the Occitan region of France which has had a distinctly independent culture and language - hence its bilingual street signs. Wandering around the city with its rose-coloured bricks, it does feel markedly different from the yellow limestone which dominates so many parts of France.",https://lh3.googleusercontent.com/otTmj5ar3j_EmP1swxMdojMoiuoNQC1Cq-uWYa5QcA-IcFXh_d4fGO-MHSSdPX8o4TgjmXnz5oWjT389zJ2-XGM=w16383,history|food,https://www.low-carb-travel.info/deeper-dives/train-to-spain/hop-offs/france/toulouse
67,38,105,233.275,38,Toulouse,StopPoint:OCEINTERCITES de nuit-87611004,Toulouse Matabiau,43.611437,1.454237,Toulouse,"Toulouse, known as 'La Ville Rose', is the proud capital of the Occitan region of France which has had a distinctly independent culture and language - hence its bilingual street signs. Wandering around the city with its rose-coloured bricks, it does feel markedly different from the yellow limestone which dominates so many parts of France.",https://lh3.googleusercontent.com/otTmj5ar3j_EmP1swxMdojMoiuoNQC1Cq-uWYa5QcA-IcFXh_d4fGO-MHSSdPX8o4TgjmXnz5oWjT389zJ2-XGM=w16383,history|food,https://www.low-carb-travel.info/deeper-dives/train-to-spain/hop-offs/france/toulouse
68,38,106,187.73333333333332,38,Toulouse,StopPoint:OCEINTERCITES de nuit-87611004,Toulouse Matabiau,43.611437,1.454237,Toulouse,"Toulouse, known as 'La Ville Rose', is the proud capital of the Occitan region of France which has had a distinctly independent culture and language - hence its bilingual street signs. Wandering around the city with its rose-coloured bricks, it does feel markedly different from the yellow limestone which dominates so many parts of France.",https://lh3.googleusercontent.com/otTmj5ar3j_EmP1swxMdojMoiuoNQC1Cq-uWYa5QcA-IcFXh_d4fGO-MHSSdPX8o4TgjmXnz5oWjT389zJ2-XGM=w16383,history|food,https://www.low-carb-travel.info/deeper-dives/train-to-spain/hop-offs/france/toulouse
69,38,123,133.0,38,Toulouse,StopPoint:OCEINTERCITES de nuit-87611004,Toulouse Matabiau,43.611437,1.454237,Toulouse,"Toulouse, known as 'La Ville Rose', is the proud capital of the Occitan region of France which has had a distinctly independent culture and language - hence its bilingual street signs. Wandering around the city with its rose-coloured bricks, it does feel markedly different from the yellow limestone which dominates so many parts of France.",https://lh3.googleusercontent.com/otTmj5ar3j_EmP1swxMdojMoiuoNQC1Cq-uWYa5QcA-IcFXh_d4fGO-MHSSdPX8o4TgjmXnz5oWjT389zJ2-XGM=w16383,history|food,https://www.low-carb-travel.info/deeper-dives/train-to-spain/hop-offs/france/toulouse
70,38,124,115.33333333333333,38,Toulouse,StopPoint:OCEINTERCITES de nuit-87611004,Toulouse Matabiau,43.611437,1.454237,Toulouse,"Toulouse, known as 'La Ville Rose', is the proud capital of the Occitan region of France which has had a distinctly independent culture and language - hence its bilingual street signs. Wandering around the city with its rose-coloured bricks, it does feel markedly different from the yellow limestone which dominates so many parts of France.",https://lh3.googleusercontent.com/otTmj5ar3j_EmP1swxMdojMoiuoNQC1Cq-uWYa5QcA-IcFXh_d4fGO-MHSSdPX8o4TgjmXnz5oWjT389zJ2-XGM=w16383,history|food,https://www.low-carb-travel.info/deeper-dives/train-to-spain/hop-offs/france/toulouse
71,38,125,161.29545454545453,38,Toulouse,StopPoint:OCEINTERCITES de nuit-87611004,Toulouse Matabiau,43.611437,1.454237,Toulouse,"Toulouse, known as 'La Ville Rose', is the proud capital of the Occitan region of France which has had a distinctly independent culture and language - hence its bilingual street signs. Wandering around the city with its rose-coloured bricks, it does feel markedly different from the yellow limestone which dominates so many parts of France.",https://lh3.googleusercontent.com/otTmj5ar3j_EmP1swxMdojMoiuoNQC1Cq-uWYa5QcA-IcFXh_d4fGO-MHSSdPX8o4TgjmXnz5oWjT389zJ2-XGM=w16383,history|food,https://www.low-carb-travel.info/deeper-dives/train-to-spain/hop-offs/france/toulouse
72,38,127,75.63829787234043,38,Toulouse,StopPoint:OCEINTERCITES de nuit-87611004,Toulouse Matabiau,43.611437,1.454237,Toulouse,"Toulouse, known as 'La Ville Rose', is the proud capital of the Occitan region of France which has had a distinctly independent culture and language - hence its bilingual street signs. Wandering around the city with its rose-coloured bricks, it does feel markedly different from the yellow limestone which dominates so many parts of France.",https://lh3.googleusercontent.com/otTmj5ar3j_EmP1swxMdojMoiuoNQC1Cq-uWYa5QcA-IcFXh_d4fGO-MHSSdPX8o4TgjmXnz5oWjT389zJ2-XGM=w16383,history|food,https://www.low-carb-travel.info/deeper-dives/train-to-spain/hop-offs/france/toulouse
73,45,19,711.25,45,Latour-de-Carol - Enveitg,StopPoint:OCEINTERCITES de nuit-87611483,Latour-de-Carol - Enveitg,42.458954,1.904509,Latour-de-Carol - Enveitg,Gateway to Spain - Puigcerda in Spain is just a walk away.,https://lh5.googleusercontent.com/6VCzzTAXO2NKQhPG-Ycu6vtQU3IcZXUBepu3TafjcEu2ENvzxACagf2ldbqGRa2zDlzlsOlpC0BMnYltrFj8B9A=w16383,walking,https://www.low-carb-travel.info/scribblings/station-strolls/spain/puigcerd%C3%A0-to-latour-carol-enveitg
74,72,19,595.0,72,Carcassonne,StopPoint:OCEINTERCITES de nuit-87615286,Carcassonne,43.218165,2.35243,Carcassonne,"Carcassonne, one of the best preserved medieval cities in the world, has something of a fairytale feel thanks to the restoration work of Eugène Viollet-le-Duc.",https://lh5.googleusercontent.com/5AOhP9NiDLmv6cwkFFj5x4bgLiUTYB0BUqLIhBCJibqvhNcPM4DJHOl3ciVYQdM98UpxD1IF7c7VwYws2Xz6gew=w16383,history|kids,https://www.low-carb-travel.info/deeper-dives/train-to-spain/hop-offs/france/carcassonne
75,72,24,180.72,72,Carcassonne,StopPoint:OCEINTERCITES de nuit-87615286,Carcassonne,43.218165,2.35243,Carcassonne,"Carcassonne, one of the best preserved medieval cities in the world, has something of a fairytale feel thanks to the restoration work of Eugène Viollet-le-Duc.",https://lh5.googleusercontent.com/5AOhP9NiDLmv6cwkFFj5x4bgLiUTYB0BUqLIhBCJibqvhNcPM4DJHOl3ciVYQdM98UpxD1IF7c7VwYws2Xz6gew=w16383,history|kids,https://www.low-carb-travel.info/deeper-dives/train-to-spain/hop-offs/france/carcassonne
76,72,38,43.483333333333334,72,Carcassonne,StopPoint:OCEINTERCITES de nuit-87615286,Carcassonne,43.218165,2.35243,Carcassonne,"Carcassonne, one of the best preserved medieval cities in the world, has something of a fairytale feel thanks to the restoration work of Eugène Viollet-le-Duc.",https://lh5.googleusercontent.com/5AOhP9NiDLmv6cwkFFj5x4bgLiUTYB0BUqLIhBCJibqvhNcPM4DJHOl3ciVYQdM98UpxD1IF7c7VwYws2Xz6gew=w16383,history|kids,https://www.low-carb-travel.info/deeper-dives/train-to-spain/hop-offs/france/carcassonne
77,72,105,187.25,72,Carcassonne,StopPoint:OCEINTERCITES de nuit-87615286,Carcassonne,43.218165,2.35243,Carcassonne,"Carcassonne, one of the best preserved medieval cities in the world, has something of a fairytale feel thanks to the restoration work of Eugène Viollet-le-Duc.",https://lh5.googleusercontent.com/5AOhP9NiDLmv6cwkFFj5x4bgLiUTYB0BUqLIhBCJibqvhNcPM4DJHOl3ciVYQdM98UpxD1IF7c7VwYws2Xz6gew=w16383,history|kids,https://www.low-carb-travel.info/deeper-dives/train-to-spain/hop-offs/france/carcassonne
78,72,106,142.13333333333333,72,Carcassonne,StopPoint:OCEINTERCITES de nuit-87615286,Carcassonne,43.218165,2.35243,Carcassonne,"Carcassonne, one of the best preserved medieval cities in the world, has something of a fairytale feel thanks to the restoration work of Eugène Viollet-le-Duc.",https://lh5.googleusercontent.com/5AOhP9NiDLmv6cwkFFj5x4bgLiUTYB0BUqLIhBCJibqvhNcPM4DJHOl3ciVYQdM98UpxD1IF7c7VwYws2Xz6gew=w16383,history|kids,https://www.low-carb-travel.info/deeper-dives/train-to-spain/hop-offs/france/carcassonne
79,72,123,86.93181818181819,72,Carcassonne,StopPoint:OCEINTERCITES de nuit-87615286,Carcassonne,43.218165,2.35243,Carcassonne,"Carcassonne, one of the best preserved medieval cities in the world, has something of a fairytale feel thanks to the restoration work of Eugène Viollet-le-Duc.",https://lh5.googleusercontent.com/5AOhP9NiDLmv6cwkFFj5x4bgLiUTYB0BUqLIhBCJibqvhNcPM4DJHOl3ciVYQdM98UpxD1IF7c7VwYws2Xz6gew=w16383,history|kids,https://www.low-carb-travel.info/deeper-dives/train-to-spain/hop-offs/france/carcassonne
80,72,124,69.73333333333333,72,Carcassonne,StopPoint:OCEINTERCITES de nuit-87615286,Carcassonne,43.218165,2.35243,Carcassonne,"Carcassonne, one of the best preserved medieval cities in the world, has something of a fairytale feel thanks to the restoration work of Eugène Viollet-le-Duc.",https://lh5.googleusercontent.com/5AOhP9NiDLmv6cwkFFj5x4bgLiUTYB0BUqLIhBCJibqvhNcPM4DJHOl3ciVYQdM98UpxD1IF7c7VwYws2Xz6gew=w16383,history|kids,https://www.low-carb-travel.info/deeper-dives/train-to-spain/hop-offs/france/carcassonne
81,72,125,115.22727272727273,72,Carcassonne,StopPoint:OCEINTERCITES de nuit-87615286,Carcassonne,43.218165,2.35243,Carcassonne,"Carcassonne, one of the best preserved medieval cities in the world, has something of a fairytale feel thanks to the restoration work of Eugène Viollet-le-Duc.",https://lh5.googleusercontent.com/5AOhP9NiDLmv6cwkFFj5x4bgLiUTYB0BUqLIhBCJibqvhNcPM4DJHOl3ciVYQdM98UpxD1IF7c7VwYws2Xz6gew=w16383,history|kids,https://www.low-carb-travel.info/deeper-dives/train-to-spain/hop-offs/france/carcassonne
82,72,127,30.53968253968254,72,Carcassonne,StopPoint:OCEINTERCITES de nuit-87615286,Carcassonne,43.218165,2.35243,Carcassonne,"Carcassonne, one of the best preserved medieval cities in the world, has something of a fairytale feel thanks to the restoration work of Eugène Viollet-le-Duc.",https://lh5.googleusercontent.com/5AOhP9NiDLmv6cwkFFj5x4bgLiUTYB0BUqLIhBCJibqvhNcPM4DJHOl3ciVYQdM98UpxD1IF7c7VwYws2Xz6gew=w16383,history|kids,https://www.low-carb-travel.info/deeper-dives/train-to-spain/hop-offs/france/carcassonne
83,72,145,114.5,72,Carcassonne,StopPoint:OCEINTERCITES de nuit-87615286,Carcassonne,43.218165,2.35243,Carcassonne,"Carcassonne, one of the best preserved medieval cities in the world, has something of a fairytale feel thanks to the restoration work of Eugène Viollet-le-Duc.",https://lh5.googleusercontent.com/5AOhP9NiDLmv6cwkFFj5x4bgLiUTYB0BUqLIhBCJibqvhNcPM4DJHOl3ciVYQdM98UpxD1IF7c7VwYws2Xz6gew=w16383,history|kids,https://www.low-carb-travel.info/deeper-dives/train-to-spain/hop-offs/france/carcassonne
84,72,148,144.875,72,Carcassonne,StopPoint:OCEINTERCITES de nuit-87615286,Carcassonne,43.218165,2.35243,Carcassonne,"Carcassonne, one of the best preserved medieval cities in the world, has something of a fairytale feel thanks to the restoration work of Eugène Viollet-le-Duc.",https://lh5.googleusercontent.com/5AOhP9NiDLmv6cwkFFj5x4bgLiUTYB0BUqLIhBCJibqvhNcPM4DJHOl3ciVYQdM98UpxD1IF7c7VwYws2Xz6gew=w16383,history|kids,https://www.low-carb-travel.info/deeper-dives/train-to-spain/hop-offs/france/carcassonne
85,72,151,164.625,72,Carcassonne,StopPoint:OCEINTERCITES de nuit-87615286,Carcassonne,43.218165,2.35243,Carcassonne,"Carcassonne, one of the best preserved medieval cities in the world, has something of a fairytale feel thanks to the restoration work of Eugène Viollet-le-Duc.",https://lh5.googleusercontent.com/5AOhP9NiDLmv6cwkFFj5x4bgLiUTYB0BUqLIhBCJibqvhNcPM4DJHOl3ciVYQdM98UpxD1IF7c7VwYws2Xz6gew=w16383,history|kids,https://www.low-carb-travel.info/deeper-dives/train-to-spain/hop-offs/france/carcassonne
86,80,19,598.2,80,Lourdes,StopPoint:OCEINTERCITES de nuit-87671339,Lourdes,43.1006,-0.041812,Lourdes,"As a small town in the foothills of the Pyrenees, Lourdes used to be a bit of a backwater. But all of that changed in 1858 when 14-year-old Bernadette Soubirous visited a cave and met the Lady of the Immaculate Conception who told her about the healing properties of the water.",https://lh3.googleusercontent.com/SwPPkE3oYc2JXdMGKsZutdudwiJaPfuDX_fYad7uPr6iAp0poSOzkoK47TcuMo72NnTFkeAwjl9twKiHvq8xzMQ=w16383,history|walking,https://www.low-carb-travel.info/deeper-dives/train-to-spain/hop-offs/france/lourdes
87,80,38,110.21428571428571,80,Lourdes,StopPoint:OCEINTERCITES de nuit-87671339,Lourdes,43.1006,-0.041812,Lourdes,"As a small town in the foothills of the Pyrenees, Lourdes used to be a bit of a backwater. But all of that changed in 1858 when 14-year-old Bernadette Soubirous visited a cave and met the Lady of the Immaculate Conception who told her about the healing properties of the water.",https://lh3.googleusercontent.com/SwPPkE3oYc2JXdMGKsZutdudwiJaPfuDX_fYad7uPr6iAp0poSOzkoK47TcuMo72NnTFkeAwjl9twKiHvq8xzMQ=w16383,history|walking,https://www.low-carb-travel.info/deeper-dives/train-to-spain/hop-offs/france/lourdes
88,80,83,105.73684210526316,80,Lourdes,StopPoint:OCEINTERCITES de nuit-87671339,Lourdes,43.1006,-0.041812,Lourdes,"As a small town in the foothills of the Pyrenees, Lourdes used to be a bit of a backwater. But all of that changed in 1858 when 14-year-old Bernadette Soubirous visited a cave and met the Lady of the Immaculate Conception who told her about the healing properties of the water.",https://lh3.googleusercontent.com/SwPPkE3oYc2JXdMGKsZutdudwiJaPfuDX_fYad7uPr6iAp0poSOzkoK47TcuMo72NnTFkeAwjl9twKiHvq8xzMQ=w16383,history|walking,https://www.low-carb-travel.info/deeper-dives/train-to-spain/hop-offs/france/lourdes
89,83,38,220.25925925925927,83,Bayonne,StopPoint:OCEINTERCITES-87673004,Bayonne,43.497018,-1.470194,Bayonne,"If you've spent a few days getting body-beautiful down in San Sebastian or nearby Biarritz, why not go and undo all that good work with a trip to Bayonne!",https://lh4.googleusercontent.com/E5EErJJwTYFUZ4XMDiVQh0hcTdF-IzexLTUsCM1nxHfHrFaVmDcKwhl5-o6gCMOz3kzWsXpDu-KgEnBLddw1Z3Q=w16383,history|food,https://www.low-carb-travel.info/deeper-dives/train-to-spain/hop-offs/france/bayonne
90,83,80,107.03703703703704,83,Bayonne,StopPoint:OCEINTERCITES-87673004,Bayonne,43.497018,-1.470194,Bayonne,"If you've spent a few days getting body-beautiful down in San Sebastian or nearby Biarritz, why not go and undo all that good work with a trip to Bayonne!",https://lh4.googleusercontent.com/E5EErJJwTYFUZ4XMDiVQh0hcTdF-IzexLTUsCM1nxHfHrFaVmDcKwhl5-o6gCMOz3kzWsXpDu-KgEnBLddw1Z3Q=w16383,history|food,https://www.low-carb-travel.info/deeper-dives/train-to-spain/hop-offs/france/bayonne
91,93,19,302.06976744186045,93,Lyon,StopPoint:OCEOUIGO-87723197,Lyon Part Dieu,45.760596,4.859409,Lyon,"Lyon, France’s third largest city and reputed gastronomic capital of the world, sits at the junction of the Rhône and Saône rivers. Founded by the Romans, Lyon flourished in the late Middle Ages and has been a major centre for industry, commerce and banking for the last 500 years. The legacy of this wealth is on show through the fine set of buildings.",https://lh4.googleusercontent.com/YMqeimDKPaxCNsNJj8xKHdjSKg8veb4QP9a7jomleb61q25O_stRgNk1jrqbx03OTQbQKfdwYtI_qvAluYuCPrk=w16383,history|food|city break,https://www.low-carb-travel.info/deeper-dives/train-to-spain/hop-offs/france/lyon
92,93,93,8.448275862068966,93,Lyon,StopPoint:OCEOUIGO-87723197,Lyon Part Dieu,45.760596,4.859409,Lyon,"Lyon, France’s third largest city and reputed gastronomic capital of the world, sits at the junction of the Rhône and Saône rivers. Founded by the Romans, Lyon flourished in the late Middle Ages and has been a major centre for industry, commerce and banking for the last 500 years. The legacy of this wealth is on show through the fine set of buildings.",https://lh4.googleusercontent.com/YMqeimDKPaxCNsNJj8xKHdjSKg8veb4QP9a7jomleb61q25O_stRgNk1jrqbx03OTQbQKfdwYtI_qvAluYuCPrk=w16383,history|food|city break,https://www.low-carb-travel.info/deeper-dives/train-to-spain/hop-offs/france/lyon
93,97,19,187.40845070422534,97,Vichy,StopPoint:OCEINTERCITES-87732008,Vichy,46.126882,3.430707,Vichy,"Vichy is a town in Auvergne. It's known for two things: its spas (Vichy is one of eleven world heritage-listed European spa towns), and as the headquarters of the pro-Nazi Vichy regime during the Second World War.",https://upload.wikimedia.org/wikipedia/commons/5/5d/Vichy_banner.jpg,history|spa,https://en.wikivoyage.org/wiki/Vichy
94,105,19,597.28,105,Marseille,StopPoint:OCEINTERCITES-87751008,Marseille Saint-Charles,43.30303,5.380555,Marseille,"Marseille (Provençal: Marselha) is the second most populated city of France (and third urban area) the biggest Mediterranean port and the economic center of the Provence-Alpes-Côte d'Azur region. In 2013 the city (with its region) was the European Capital of Culture, a large series of cultural events took place, and several new infrastructures were inaugurated.",https://upload.wikimedia.org/wikipedia/commons/5/58/Marseille_banner.jpg,history|sea|city break,https://en.wikivoyage.org/wiki/Marseille
95,105,24,368.63157894736844,105,Marseille,StopPoint:OCEINTERCITES-87751008,Marseille Saint-Charles,43.30303,5.380555,Marseille,"Marseille (Provençal: Marselha) is the second most populated city of France (and third urban area) the biggest Mediterranean port and the economic center of the Provence-Alpes-Côte d'Azur region. In 2013 the city (with its region) was the European Capital of Culture, a large series of cultural events took place, and several new infrastructures were inaugurated.",https://upload.wikimedia.org/wikipedia/commons/5/58/Marseille_banner.jpg,history|sea|city break,https://en.wikivoyage.org/wiki/Marseille
96,105,38,231.22916666666666,105,Marseille,StopPoint:OCEINTERCITES-87751008,Marseille Saint-Charles,43.30303,5.380555,Marseille,"Marseille (Provençal: Marselha) is the second most populated city of France (and third urban area) the biggest Mediterranean port and the economic center of the Provence-Alpes-Côte d'Azur region. In 2013 the city (with its region) was the European Capital of Culture, a large series of cultural events took place, and several new infrastructures were inaugurated.",https://upload.wikimedia.org/wikipedia/commons/5/58/Marseille_banner.jpg,history|sea|city break,https://en.wikivoyage.org/wiki/Marseille
97,105,72,185.125,105,Marseille,StopPoint:OCEINTERCITES-87751008,Marseille Saint-Charles,43.30303,5.380555,Marseille,"Marseille (Provençal: Marselha) is the second most populated city of France (and third urban area) the biggest Mediterranean port and the economic center of the Provence-Alpes-Côte d'Azur region. In 2013 the city (with its region) was the European Capital of Culture, a large series of cultural events took place, and several new infrastructures were inaugurated.",https://upload.wikimedia.org/wikipedia/commons/5/58/Marseille_banner.jpg,history|sea|city break,https://en.wikivoyage.org/wiki/Marseille
98,105,106,45.42857142857143,105,Marseille,StopPoint:OCEINTERCITES-87751008,Marseille Saint-Charles,43.30303,5.380555,Marseille,"Marseille (Provençal: Marselha) is the second most populated city of France (and third urban area) the biggest Mediterranean port and the economic center of the Provence-Alpes-Côte d'Azur region. In 2013 the city (with its region) was the European Capital of Culture, a large series of cultural events took place, and several new infrastructures were inaugurated.",https://upload.wikimedia.org/wikipedia/commons/5/58/Marseille_banner.jpg,history|sea|city break,https://en.wikivoyage.org/wiki/Marseille
99,105,123,95.54166666666667,105,Marseille,StopPoint:OCEINTERCITES-87751008,Marseille Saint-Charles,43.30303,5.380555,Marseille,"Marseille (Provençal: Marselha) is the second most populated city of France (and third urban area) the biggest Mediterranean port and the economic center of the Provence-Alpes-Côte d'Azur region. In 2013 the city (with its region) was the European Capital of Culture, a large series of cultural events took place, and several new infrastructures were inaugurated.",https://upload.wikimedia.org/wikipedia/commons/5/58/Marseille_banner.jpg,history|sea|city break,https://en.wikivoyage.org/wiki/Marseille
100,105,124,119.625,105,Marseille,StopPoint:OCEINTERCITES-87751008,Marseille Saint-Charles,43.30303,5.380555,Marseille,"Marseille (Provençal: Marselha) is the second most populated city of France (and third urban area) the biggest Mediterranean port and the economic center of the Provence-Alpes-Côte d'Azur region. In 2013 the city (with its region) was the European Capital of Culture, a large series of cultural events took place, and several new infrastructures were inaugurated.",https://upload.wikimedia.org/wikipedia/commons/5/58/Marseille_banner.jpg,history|sea|city break,https://en.wikivoyage.org/wiki/Marseille
101,105,125,68.5,105,Marseille,StopPoint:OCEINTERCITES-87751008,Marseille Saint-Charles,43.30303,5.380555,Marseille,"Marseille (Provençal: Marselha) is the second most populated city of France (and third urban area) the biggest Mediterranean port and the economic center of the Provence-Alpes-Côte d'Azur region. In 2013 the city (with its region) was the European Capital of Culture, a large series of cultural events took place, and several new infrastructures were inaugurated.",https://upload.wikimedia.org/wikipedia/commons/5/58/Marseille_banner.jpg,history|sea|city break,https://en.wikivoyage.org/wiki/Marseille
102,105,127,152.83333333333334,105,Marseille,StopPoint:OCEINTERCITES-87751008,Marseille Saint-Charles,43.30303,5.380555,Marseille,"Marseille (Provençal: Marselha) is the second most populated city of France (and third urban area) the biggest Mediterranean port and the economic center of the Provence-Alpes-Côte d'Azur region. In 2013 the city (with its region) was the European Capital of Culture, a large series of cultural events took place, and several new infrastructures were inaugurated.",https://upload.wikimedia.org/wikipedia/commons/5/58/Marseille_banner.jpg,history|sea|city break,https://en.wikivoyage.org/wiki/Marseille
103,106,24,322.6923076923077,106,Arles,StopPoint:OCEINTERCITES-87753657,Arles,43.685359,4.632109,Arles,"Arles, spiritual capital of Provence, is located where the mighty Rhône meets the Camargue and was founded by the veterans of Julius Caesar's crack Sixth legion. And while it has world class Roman buildings (that are still in active use today), it's probably more famous for being the place where Vincent Van Gogh came in search of light - the art world hasn't been the same since.",https://lh6.googleusercontent.com/jbU3Kd8kDZZIz5VdCbCfDU9zd3wQPwM_781VUwMuHB3LqmLFWtbSx3umcnksHmd7E1IHfI2TAlxCb3WFrgl7xc8_aF5WpVEyS0apmJLEiQ23ItAo39tIiBn9xzI1w-kzSg=w1280,history|art,https://www.low-carb-travel.info/deeper-dives/train-to-spain/hop-offs/france/arles
104,106,38,184.78571428571428,106,Arles,StopPoint:OCEINTERCITES-87753657,Arles,43.685359,4.632109,Arles,"Arles, spiritual capital of Provence, is located where the mighty Rhône meets the Camargue and was founded by the veterans of Julius Caesar's crack Sixth legion. And while it has world class Roman buildings (that are still in active use today), it's probably more famous for being the place where Vincent Van Gogh came in search of light - the art world hasn't been the same since.",https://lh6.googleusercontent.com/jbU3Kd8kDZZIz5VdCbCfDU9zd3wQPwM_781VUwMuHB3LqmLFWtbSx3umcnksHmd7E1IHfI2TAlxCb3WFrgl7xc8_aF5WpVEyS0apmJLEiQ23ItAo39tIiBn9xzI1w-kzSg=w1280,history|art,https://www.low-carb-travel.info/deeper-dives/train-to-spain/hop-offs/france/arles
105,106,72,139.21428571428572,106,Arles,StopPoint:OCEINTERCITES-87753657,Arles,43.685359,4.632109,Arles,"Arles, spiritual capital of Provence, is located where the mighty Rhône meets the Camargue and was founded by the veterans of Julius Caesar's crack Sixth legion. And while it has world class Roman buildings (that are still in active use today), it's probably more famous for being the place where Vincent Van Gogh came in search of light - the art world hasn't been the same since.",https://lh6.googleusercontent.com/jbU3Kd8kDZZIz5VdCbCfDU9zd3wQPwM_781VUwMuHB3LqmLFWtbSx3umcnksHmd7E1IHfI2TAlxCb3WFrgl7xc8_aF5WpVEyS0apmJLEiQ23ItAo39tIiBn9xzI1w-kzSg=w1280,history|art,https://www.low-carb-travel.info/deeper-dives/train-to-spain/hop-offs/france/arles
106,106,105,45.666666666666664,106,Arles,StopPoint:OCEINTERCITES-87753657,Arles,43.685359,4.632109,Arles,"Arles, spiritual capital of Provence, is located where the mighty Rhône meets the Camargue and was founded by the veterans of Julius Caesar's crack Sixth legion. And while it has world class Roman buildings (that are still in active use today), it's probably more famous for being the place where Vincent Van Gogh came in search of light - the art world hasn't been the same since.",https://lh6.googleusercontent.com/jbU3Kd8kDZZIz5VdCbCfDU9zd3wQPwM_781VUwMuHB3LqmLFWtbSx3umcnksHmd7E1IHfI2TAlxCb3WFrgl7xc8_aF5WpVEyS0apmJLEiQ23ItAo39tIiBn9xzI1w-kzSg=w1280,history|art,https://www.low-carb-travel.info/deeper-dives/train-to-spain/hop-offs/france/arles
107,106,123,50.357142857142854,106,Arles,StopPoint:OCEINTERCITES-87753657,Arles,43.685359,4.632109,Arles,"Arles, spiritual capital of Provence, is located where the mighty Rhône meets the Camargue and was founded by the veterans of Julius Caesar's crack Sixth legion. And while it has world class Roman buildings (that are still in active use today), it's probably more famous for being the place where Vincent Van Gogh came in search of light - the art world hasn't been the same since.",https://lh6.googleusercontent.com/jbU3Kd8kDZZIz5VdCbCfDU9zd3wQPwM_781VUwMuHB3LqmLFWtbSx3umcnksHmd7E1IHfI2TAlxCb3WFrgl7xc8_aF5WpVEyS0apmJLEiQ23ItAo39tIiBn9xzI1w-kzSg=w1280,history|art,https://www.low-carb-travel.info/deeper-dives/train-to-spain/hop-offs/france/arles
108,106,124,72.25,106,Arles,StopPoint:OCEINTERCITES-87753657,Arles,43.685359,4.632109,Arles,"Arles, spiritual capital of Provence, is located where the mighty Rhône meets the Camargue and was founded by the veterans of Julius Caesar's crack Sixth legion. And while it has world class Roman buildings (that are still in active use today), it's probably more famous for being the place where Vincent Van Gogh came in search of light - the art world hasn't been the same since.",https://lh6.googleusercontent.com/jbU3Kd8kDZZIz5VdCbCfDU9zd3wQPwM_781VUwMuHB3LqmLFWtbSx3umcnksHmd7E1IHfI2TAlxCb3WFrgl7xc8_aF5WpVEyS0apmJLEiQ23ItAo39tIiBn9xzI1w-kzSg=w1280,history|art,https://www.low-carb-travel.info/deeper-dives/train-to-spain/hop-offs/france/arles
109,106,125,23.357142857142858,106,Arles,StopPoint:OCEINTERCITES-87753657,Arles,43.685359,4.632109,Arles,"Arles, spiritual capital of Provence, is located where the mighty Rhône meets the Camargue and was founded by the veterans of Julius Caesar's crack Sixth legion. And while it has world class Roman buildings (that are still in active use today), it's probably more famous for being the place where Vincent Van Gogh came in search of light - the art world hasn't been the same since.",https://lh6.googleusercontent.com/jbU3Kd8kDZZIz5VdCbCfDU9zd3wQPwM_781VUwMuHB3LqmLFWtbSx3umcnksHmd7E1IHfI2TAlxCb3WFrgl7xc8_aF5WpVEyS0apmJLEiQ23ItAo39tIiBn9xzI1w-kzSg=w1280,history|art,https://www.low-carb-travel.info/deeper-dives/train-to-spain/hop-offs/france/arles
110,106,127,107.07142857142857,106,Arles,StopPoint:OCEINTERCITES-87753657,Arles,43.685359,4.632109,Arles,"Arles, spiritual capital of Provence, is located where the mighty Rhône meets the Camargue and was founded by the veterans of Julius Caesar's crack Sixth legion. And while it has world class Roman buildings (that are still in active use today), it's probably more famous for being the place where Vincent Van Gogh came in search of light - the art world hasn't been the same since.",https://lh6.googleusercontent.com/jbU3Kd8kDZZIz5VdCbCfDU9zd3wQPwM_781VUwMuHB3LqmLFWtbSx3umcnksHmd7E1IHfI2TAlxCb3WFrgl7xc8_aF5WpVEyS0apmJLEiQ23ItAo39tIiBn9xzI1w-kzSg=w1280,history|art,https://www.low-carb-travel.info/deeper-dives/train-to-spain/hop-offs/france/arles
111,123,19,618.6153846153846,123,Montpellier,StopPoint:OCEINTERCITES de nuit-87773002,Montpellier Saint-Roch,43.60478,3.881168,Montpellier,"Montpellier is the principal city in the Languedoc-Roussillon region in southwest France. It's been the one of the fastest growing cities in France since the 1990s. As a result, it has very modern districts on the outskirts that are in stark contrast to the old winding roads of the city centre. The town is home to a lot of students due to the presence of the University of Montpellier which has the oldest medical school in Europe, and, as such, Montpellier has a very young feel to it.",https://upload.wikimedia.org/wikipedia/commons/c/c8/Montpellier_banner.jpg,history,https://en.wikivoyage.org/wiki/Montpellier
112,123,24,269.0851063829787,123,Montpellier,StopPoint:OCEINTERCITES de nuit-87773002,Montpellier Saint-Roch,43.60478,3.881168,Montpellier,"Montpellier is the principal city in the Languedoc-Roussillon region in southwest France. It's been the one of the fastest growing cities in France since the 1990s. As a result, it has very modern districts on the outskirts that are in stark contrast to the old winding roads of the city centre. The town is home to a lot of students due to the presence of the University of Montpellier which has the oldest medical school in Europe, and, as such, Montpellier has a very young feel to it.",https://upload.wikimedia.org/wikipedia/commons/c/c8/Montpellier_banner.jpg,history,https://en.wikivoyage.org/wiki/Montpellier
113,123,38,131.66666666666666,123,Montpellier,StopPoint:OCEINTERCITES de nuit-87773002,Montpellier Saint-Roch,43.60478,3.881168,Montpellier,"Montpellier is the principal city in the Languedoc-Roussillon region in southwest France. It's been the one of the fastest growing cities in France since the 1990s. As a result, it has very modern districts on the outskirts that are in stark contrast to the old winding roads of the city centre. The town is home to a lot of students due to the presence of the University of Montpellier which has the oldest medical school in Europe, and, as such, Montpellier has a very young feel to it.",https://upload.wikimedia.org/wikipedia/commons/c/c8/Montpellier_banner.jpg,history,https://en.wikivoyage.org/wiki/Montpellier
114,123,72,85.73684210526316,123,Montpellier,StopPoint:OCEINTERCITES de nuit-87773002,Montpellier Saint-Roch,43.60478,3.881168,Montpellier,"Montpellier is the principal city in the Languedoc-Roussillon region in southwest France. It's been the one of the fastest growing cities in France since the 1990s. As a result, it has very modern districts on the outskirts that are in stark contrast to the old winding roads of the city centre. The town is home to a lot of students due to the presence of the University of Montpellier which has the oldest medical school in Europe, and, as such, Montpellier has a very young feel to it.",https://upload.wikimedia.org/wikipedia/commons/c/c8/Montpellier_banner.jpg,history,https://en.wikivoyage.org/wiki/Montpellier
115,123,105,96.425,123,Montpellier,StopPoint:OCEINTERCITES de nuit-87773002,Montpellier Saint-Roch,43.60478,3.881168,Montpellier,"Montpellier is the principal city in the Languedoc-Roussillon region in southwest France. It's been the one of the fastest growing cities in France since the 1990s. As a result, it has very modern districts on the outskirts that are in stark contrast to the old winding roads of the city centre. The town is home to a lot of students due to the presence of the University of Montpellier which has the oldest medical school in Europe, and, as such, Montpellier has a very young feel to it.",https://upload.wikimedia.org/wikipedia/commons/c/c8/Montpellier_banner.jpg,history,https://en.wikivoyage.org/wiki/Montpellier
116,123,106,51.6,123,Montpellier,StopPoint:OCEINTERCITES de nuit-87773002,Montpellier Saint-Roch,43.60478,3.881168,Montpellier,"Montpellier is the principal city in the Languedoc-Roussillon region in southwest France. It's been the one of the fastest growing cities in France since the 1990s. As a result, it has very modern districts on the outskirts that are in stark contrast to the old winding roads of the city centre. The town is home to a lot of students due to the presence of the University of Montpellier which has the oldest medical school in Europe, and, as such, Montpellier has a very young feel to it.",https://upload.wikimedia.org/wikipedia/commons/c/c8/Montpellier_banner.jpg,history,https://en.wikivoyage.org/wiki/Montpellier
117,123,124,17.8,123,Montpellier,StopPoint:OCEINTERCITES de nuit-87773002,Montpellier Saint-Roch,43.60478,3.881168,Montpellier,"Montpellier is the principal city in the Languedoc-Roussillon region in southwest France. It's been the one of the fastest growing cities in France since the 1990s. As a result, it has very modern districts on the outskirts that are in stark contrast to the old winding roads of the city centre. The town is home to a lot of students due to the presence of the University of Montpellier which has the oldest medical school in Europe, and, as such, Montpellier has a very young feel to it.",https://upload.wikimedia.org/wikipedia/commons/c/c8/Montpellier_banner.jpg,history,https://en.wikivoyage.org/wiki/Montpellier
118,123,125,27.210526315789473,123,Montpellier,StopPoint:OCEINTERCITES de nuit-87773002,Montpellier Saint-Roch,43.60478,3.881168,Montpellier,"Montpellier is the principal city in the Languedoc-Roussillon region in southwest France. It's been the one of the fastest growing cities in France since the 1990s. As a result, it has very modern districts on the outskirts that are in stark contrast to the old winding roads of the city centre. The town is home to a lot of students due to the presence of the University of Montpellier which has the oldest medical school in Europe, and, as such, Montpellier has a very young feel to it.",https://upload.wikimedia.org/wikipedia/commons/c/c8/Montpellier_banner.jpg,history,https://en.wikivoyage.org/wiki/Montpellier
119,123,127,54.47692307692308,123,Montpellier,StopPoint:OCEINTERCITES de nuit-87773002,Montpellier Saint-Roch,43.60478,3.881168,Montpellier,"Montpellier is the principal city in the Languedoc-Roussillon region in southwest France. It's been the one of the fastest growing cities in France since the 1990s. As a result, it has very modern districts on the outskirts that are in stark contrast to the old winding roads of the city centre. The town is home to a lot of students due to the presence of the University of Montpellier which has the oldest medical school in Europe, and, as such, Montpellier has a very young feel to it.",https://upload.wikimedia.org/wikipedia/commons/c/c8/Montpellier_banner.jpg,history,https://en.wikivoyage.org/wiki/Montpellier
120,123,145,112.0,123,Montpellier,StopPoint:OCEINTERCITES de nuit-87773002,Montpellier Saint-Roch,43.60478,3.881168,Montpellier,"Montpellier is the principal city in the Languedoc-Roussillon region in southwest France. It's been the one of the fastest growing cities in France since the 1990s. As a result, it has very modern districts on the outskirts that are in stark contrast to the old winding roads of the city centre. The town is home to a lot of students due to the presence of the University of Montpellier which has the oldest medical school in Europe, and, as such, Montpellier has a very young feel to it.",https://upload.wikimedia.org/wikipedia/commons/c/c8/Montpellier_banner.jpg,history,https://en.wikivoyage.org/wiki/Montpellier
121,123,148,139.0,123,Montpellier,StopPoint:OCEINTERCITES de nuit-87773002,Montpellier Saint-Roch,43.60478,3.881168,Montpellier,"Montpellier is the principal city in the Languedoc-Roussillon region in southwest France. It's been the one of the fastest growing cities in France since the 1990s. As a result, it has very modern districts on the outskirts that are in stark contrast to the old winding roads of the city centre. The town is home to a lot of students due to the presence of the University of Montpellier which has the oldest medical school in Europe, and, as such, Montpellier has a very young feel to it.",https://upload.wikimedia.org/wikipedia/commons/c/c8/Montpellier_banner.jpg,history,https://en.wikivoyage.org/wiki/Montpellier
122,123,151,159.0,123,Montpellier,StopPoint:OCEINTERCITES de nuit-87773002,Montpellier Saint-Roch,43.60478,3.881168,Montpellier,"Montpellier is the principal city in the Languedoc-Roussillon region in southwest France. It's been the one of the fastest growing cities in France since the 1990s. As a result, it has very modern districts on the outskirts that are in stark contrast to the old winding roads of the city centre. The town is home to a lot of students due to the presence of the University of Montpellier which has the oldest medical school in Europe, and, as such, Montpellier has a very young feel to it.",https://upload.wikimedia.org/wikipedia/commons/c/c8/Montpellier_banner.jpg,history,https://en.wikivoyage.org/wiki/Montpellier
123,124,19,639.6153846153846,124,Sète,StopPoint:OCEINTERCITES de nuit-87773200,Sète,43.412808,3.69641,Sète,"Located between a lagoon and the Med and connecting the Canal du Midi to the sea, this southern French working port is a great place to get seafood and sea views. Throughout the summer you can also catch some water-jousting where old-style lifeboats (barque de sauvetage) with multiple oarsmen and one jouster charge at each other and try to unseat their opponent.",https://lh4.googleusercontent.com/AMYnxeEqeX3CUTjYFCeD4AOL14wj9Mgb0Y3oCkLjtHwihrtA0rVhw-sPYCOOrF0tr-aU20of4eUIh0qvXTsxNIE=w16383,history|art|sea,https://www.low-carb-travel.info/deeper-dives/train-to-spain/hop-offs/france/s%C3%A8te
124,124,24,249.52941176470588,124,Sète,StopPoint:OCEINTERCITES de nuit-87773200,Sète,43.412808,3.69641,Sète,"Located between a lagoon and the Med and connecting the Canal du Midi to the sea, this southern French working port is a great place to get seafood and sea views. Throughout the summer you can also catch some water-jousting where old-style lifeboats (barque de sauvetage) with multiple oarsmen and one jouster charge at each other and try to unseat their opponent.",https://lh4.googleusercontent.com/AMYnxeEqeX3CUTjYFCeD4AOL14wj9Mgb0Y3oCkLjtHwihrtA0rVhw-sPYCOOrF0tr-aU20of4eUIh0qvXTsxNIE=w16383,history|art|sea,https://www.low-carb-travel.info/deeper-dives/train-to-spain/hop-offs/france/s%C3%A8te
125,124,38,111.52941176470588,124,Sète,StopPoint:OCEINTERCITES de nuit-87773200,Sète,43.412808,3.69641,Sète,"Located between a lagoon and the Med and connecting the Canal du Midi to the sea, this southern French working port is a great place to get seafood and sea views. Throughout the summer you can also catch some water-jousting where old-style lifeboats (barque de sauvetage) with multiple oarsmen and one jouster charge at each other and try to unseat their opponent.",https://lh4.googleusercontent.com/AMYnxeEqeX3CUTjYFCeD4AOL14wj9Mgb0Y3oCkLjtHwihrtA0rVhw-sPYCOOrF0tr-aU20of4eUIh0qvXTsxNIE=w16383,history|art|sea,https://www.low-carb-travel.info/deeper-dives/train-to-spain/hop-offs/france/s%C3%A8te
126,124,72,66.29411764705883,124,Sète,StopPoint:OCEINTERCITES de nuit-87773200,Sète,43.412808,3.69641,Sète,"Located between a lagoon and the Med and connecting the Canal du Midi to the sea, this southern French working port is a great place to get seafood and sea views. Throughout the summer you can also catch some water-jousting where old-style lifeboats (barque de sauvetage) with multiple oarsmen and one jouster charge at each other and try to unseat their opponent.",https://lh4.googleusercontent.com/AMYnxeEqeX3CUTjYFCeD4AOL14wj9Mgb0Y3oCkLjtHwihrtA0rVhw-sPYCOOrF0tr-aU20of4eUIh0qvXTsxNIE=w16383,history|art|sea,https://www.low-carb-travel.info/deeper-dives/train-to-spain/hop-offs/france/s%C3%A8te
127,124,105,118.06666666666666,124,Sète,StopPoint:OCEINTERCITES de nuit-87773200,Sète,43.412808,3.69641,Sète,"Located between a lagoon and the Med and connecting the Canal du Midi to the sea, this southern French working port is a great place to get seafood and sea views. Throughout the summer you can also catch some water-jousting where old-style lifeboats (barque de sauvetage) with multiple oarsmen and one jouster charge at each other and try to unseat their opponent.",https://lh4.googleusercontent.com/AMYnxeEqeX3CUTjYFCeD4AOL14wj9Mgb0Y3oCkLjtHwihrtA0rVhw-sPYCOOrF0tr-aU20of4eUIh0qvXTsxNIE=w16383,history|art|sea,https://www.low-carb-travel.info/deeper-dives/train-to-spain/hop-offs/france/s%C3%A8te
128,124,106,70.4,124,Sète,StopPoint:OCEINTERCITES de nuit-87773200,Sète,43.412808,3.69641,Sète,"Located between a lagoon and the Med and connecting the Canal du Midi to the sea, this southern French working port is a great place to get seafood and sea views. Throughout the summer you can also catch some water-jousting where old-style lifeboats (barque de sauvetage) with multiple oarsmen and one jouster charge at each other and try to unseat their opponent.",https://lh4.googleusercontent.com/AMYnxeEqeX3CUTjYFCeD4AOL14wj9Mgb0Y3oCkLjtHwihrtA0rVhw-sPYCOOrF0tr-aU20of4eUIh0qvXTsxNIE=w16383,history|art|sea,https://www.low-carb-travel.info/deeper-dives/train-to-spain/hop-offs/france/s%C3%A8te
129,124,123,16.285714285714285,124,Sète,StopPoint:OCEINTERCITES de nuit-87773200,Sète,43.412808,3.69641,Sète,"Located between a lagoon and the Med and connecting the Canal du Midi to the sea, this southern French working port is a great place to get seafood and sea views. Throughout the summer you can also catch some water-jousting where old-style lifeboats (barque de sauvetage) with multiple oarsmen and one jouster charge at each other and try to unseat their opponent.",https://lh4.googleusercontent.com/AMYnxeEqeX3CUTjYFCeD4AOL14wj9Mgb0Y3oCkLjtHwihrtA0rVhw-sPYCOOrF0tr-aU20of4eUIh0qvXTsxNIE=w16383,history|art|sea,https://www.low-carb-travel.info/deeper-dives/train-to-spain/hop-offs/france/s%C3%A8te
130,124,125,50.07142857142857,124,Sète,StopPoint:OCEINTERCITES de nuit-87773200,Sète,43.412808,3.69641,Sète,"Located between a lagoon and the Med and connecting the Canal du Midi to the sea, this southern French working port is a great place to get seafood and sea views. Throughout the summer you can also catch some water-jousting where old-style lifeboats (barque de sauvetage) with multiple oarsmen and one jouster charge at each other and try to unseat their opponent.",https://lh4.googleusercontent.com/AMYnxeEqeX3CUTjYFCeD4AOL14wj9Mgb0Y3oCkLjtHwihrtA0rVhw-sPYCOOrF0tr-aU20of4eUIh0qvXTsxNIE=w16383,history|art|sea,https://www.low-carb-travel.info/deeper-dives/train-to-spain/hop-offs/france/s%C3%A8te
131,124,127,36.48,124,Sète,StopPoint:OCEINTERCITES de nuit-87773200,Sète,43.412808,3.69641,Sète,"Located between a lagoon and the Med and connecting the Canal du Midi to the sea, this southern French working port is a great place to get seafood and sea views. Throughout the summer you can also catch some water-jousting where old-style lifeboats (barque de sauvetage) with multiple oarsmen and one jouster charge at each other and try to unseat their opponent.",https://lh4.googleusercontent.com/AMYnxeEqeX3CUTjYFCeD4AOL14wj9Mgb0Y3oCkLjtHwihrtA0rVhw-sPYCOOrF0tr-aU20of4eUIh0qvXTsxNIE=w16383,history|art|sea,https://www.low-carb-travel.info/deeper-dives/train-to-spain/hop-offs/france/s%C3%A8te
132,124,145,92.0,124,Sète,StopPoint:OCEINTERCITES de nuit-87773200,Sète,43.412808,3.69641,Sète,"Located between a lagoon and the Med and connecting the Canal du Midi to the sea, this southern French working port is a great place to get seafood and sea views. Throughout the summer you can also catch some water-jousting where old-style lifeboats (barque de sauvetage) with multiple oarsmen and one jouster charge at each other and try to unseat their opponent.",https://lh4.googleusercontent.com/AMYnxeEqeX3CUTjYFCeD4AOL14wj9Mgb0Y3oCkLjtHwihrtA0rVhw-sPYCOOrF0tr-aU20of4eUIh0qvXTsxNIE=w16383,history|art|sea,https://www.low-carb-travel.info/deeper-dives/train-to-spain/hop-offs/france/s%C3%A8te
133,124,148,119.0,124,Sète,StopPoint:OCEINTERCITES de nuit-87773200,Sète,43.412808,3.69641,Sète,"Located between a lagoon and the Med and connecting the Canal du Midi to the sea, this southern French working port is a great place to get seafood and sea views. Throughout the summer you can also catch some water-jousting where old-style lifeboats (barque de sauvetage) with multiple oarsmen and one jouster charge at each other and try to unseat their opponent.",https://lh4.googleusercontent.com/AMYnxeEqeX3CUTjYFCeD4AOL14wj9Mgb0Y3oCkLjtHwihrtA0rVhw-sPYCOOrF0tr-aU20of4eUIh0qvXTsxNIE=w16383,history|art|sea,https://www.low-carb-travel.info/deeper-dives/train-to-spain/hop-offs/france/s%C3%A8te
134,124,151,139.0,124,Sète,StopPoint:OCEINTERCITES de nuit-87773200,Sète,43.412808,3.69641,Sète,"Located between a lagoon and the Med and connecting the Canal du Midi to the sea, this southern French working port is a great place to get seafood and sea views. Throughout the summer you can also catch some water-jousting where old-style lifeboats (barque de sauvetage) with multiple oarsmen and one jouster charge at each other and try to unseat their opponent.",https://lh4.googleusercontent.com/AMYnxeEqeX3CUTjYFCeD4AOL14wj9Mgb0Y3oCkLjtHwihrtA0rVhw-sPYCOOrF0tr-aU20of4eUIh0qvXTsxNIE=w16383,history|art|sea,https://www.low-carb-travel.info/deeper-dives/train-to-spain/hop-offs/france/s%C3%A8te
135,125,19,578.5384615384615,125,Nîmes,StopPoint:OCEINTERCITES de nuit-87775007,Nîmes Centre,43.832387,4.366081,Nîmes,"Known as the most Roman city outside of Italy, Nîmes has one of the best preserved arenas and Roman temples in the world. It's also the birthplace of denim ('de Nîmes'), so you could think of coming to Nîmes as a pilgrimage for your jeans! The city is full of activity and has events and festivals throughout the year, including an annual international music festival held in the Roman arena and local craft and produce markets.",https://lh3.googleusercontent.com/TyPwFxxNRBndzLZmKBMoP6nyMmqlFuUfUHPOFwjWB20imaw5Y2jqEm2gY6gEgY_PePiljJhDIO4Q01L_z0FDD0o=w16383,history|food,https://www.low-carb-travel.info/deeper-dives/train-to-spain/hop-offs/france/n%C3%AEmes
136,125,24,297.25531914893617,125,Nîmes,StopPoint:OCEINTERCITES de nuit-87775007,Nîmes Centre,43.832387,4.366081,Nîmes,"Known as the most Roman city outside of Italy, Nîmes has one of the best preserved arenas and Roman temples in the world. It's also the birthplace of denim ('de Nîmes'), so you could think of coming to Nîmes as a pilgrimage for your jeans! The city is full of activity and has events and festivals throughout the year, including an annual international music festival held in the Roman arena and local craft and produce markets.",https://lh3.googleusercontent.com/TyPwFxxNRBndzLZmKBMoP6nyMmqlFuUfUHPOFwjWB20imaw5Y2jqEm2gY6gEgY_PePiljJhDIO4Q01L_z0FDD0o=w16383,history|food,https://www.low-carb-travel.info/deeper-dives/train-to-spain/hop-offs/france/n%C3%AEmes
137,125,38,159.80701754385964,125,Nîmes,StopPoint:OCEINTERCITES de nuit-87775007,Nîmes Centre,43.832387,4.366081,Nîmes,"Known as the most Roman city outside of Italy, Nîmes has one of the best preserved arenas and Roman temples in the world. It's also the birthplace of denim ('de Nîmes'), so you could think of coming to Nîmes as a pilgrimage for your jeans! The city is full of activity and has events and festivals throughout the year, including an annual international music festival held in the Roman arena and local craft and produce markets.",https://lh3.googleusercontent.com/TyPwFxxNRBndzLZmKBMoP6nyMmqlFuUfUHPOFwjWB20imaw5Y2jqEm2gY6gEgY_PePiljJhDIO4Q01L_z0FDD0o=w16383,history|food,https://www.low-carb-travel.info/deeper-dives/train-to-spain/hop-offs/france/n%C3%AEmes
138,125,72,113.87719298245614,125,Nîmes,StopPoint:OCEINTERCITES de nuit-87775007,Nîmes Centre,43.832387,4.366081,Nîmes,"Known as the most Roman city outside of Italy, Nîmes has one of the best preserved arenas and Roman temples in the world. It's also the birthplace of denim ('de Nîmes'), so you could think of coming to Nîmes as a pilgrimage for your jeans! The city is full of activity and has events and festivals throughout the year, including an annual international music festival held in the Roman arena and local craft and produce markets.",https://lh3.googleusercontent.com/TyPwFxxNRBndzLZmKBMoP6nyMmqlFuUfUHPOFwjWB20imaw5Y2jqEm2gY6gEgY_PePiljJhDIO4Q01L_z0FDD0o=w16383,history|food,https://www.low-carb-travel.info/deeper-dives/train-to-spain/hop-offs/france/n%C3%AEmes
139,125,105,69.15,125,Nîmes,StopPoint:OCEINTERCITES de nuit-87775007,Nîmes Centre,43.832387,4.366081,Nîmes,"Known as the most Roman city outside of Italy, Nîmes has one of the best preserved arenas and Roman temples in the world. It's also the birthplace of denim ('de Nîmes'), so you could think of coming to Nîmes as a pilgrimage for your jeans! The city is full of activity and has events and festivals throughout the year, including an annual international music festival held in the Roman arena and local craft and produce markets.",https://lh3.googleusercontent.com/TyPwFxxNRBndzLZmKBMoP6nyMmqlFuUfUHPOFwjWB20imaw5Y2jqEm2gY6gEgY_PePiljJhDIO4Q01L_z0FDD0o=w16383,history|food,https://www.low-carb-travel.info/deeper-dives/train-to-spain/hop-offs/france/n%C3%AEmes
140,125,106,24.266666666666666,125,Nîmes,StopPoint:OCEINTERCITES de nuit-87775007,Nîmes Centre,43.832387,4.366081,Nîmes,"Known as the most Roman city outside of Italy, Nîmes has one of the best preserved arenas and Roman temples in the world. It's also the birthplace of denim ('de Nîmes'), so you could think of coming to Nîmes as a pilgrimage for your jeans! The city is full of activity and has events and festivals throughout the year, including an annual international music festival held in the Roman arena and local craft and produce markets.",https://lh3.googleusercontent.com/TyPwFxxNRBndzLZmKBMoP6nyMmqlFuUfUHPOFwjWB20imaw5Y2jqEm2gY6gEgY_PePiljJhDIO4Q01L_z0FDD0o=w16383,history|food,https://www.low-carb-travel.info/deeper-dives/train-to-spain/hop-offs/france/n%C3%AEmes
141,125,123,24.369230769230768,125,Nîmes,StopPoint:OCEINTERCITES de nuit-87775007,Nîmes Centre,43.832387,4.366081,Nîmes,"Known as the most Roman city outside of Italy, Nîmes has one of the best preserved arenas and Roman temples in the world. It's also the birthplace of denim ('de Nîmes'), so you could think of coming to Nîmes as a pilgrimage for your jeans! The city is full of activity and has events and festivals throughout the year, including an annual international music festival held in the Roman arena and local craft and produce markets.",https://lh3.googleusercontent.com/TyPwFxxNRBndzLZmKBMoP6nyMmqlFuUfUHPOFwjWB20imaw5Y2jqEm2gY6gEgY_PePiljJhDIO4Q01L_z0FDD0o=w16383,history|food,https://www.low-carb-travel.info/deeper-dives/train-to-spain/hop-offs/france/n%C3%AEmes
142,125,124,46.6,125,Nîmes,StopPoint:OCEINTERCITES de nuit-87775007,Nîmes Centre,43.832387,4.366081,Nîmes,"Known as the most Roman city outside of Italy, Nîmes has one of the best preserved arenas and Roman temples in the world. It's also the birthplace of denim ('de Nîmes'), so you could think of coming to Nîmes as a pilgrimage for your jeans! The city is full of activity and has events and festivals throughout the year, including an annual international music festival held in the Roman arena and local craft and produce markets.",https://lh3.googleusercontent.com/TyPwFxxNRBndzLZmKBMoP6nyMmqlFuUfUHPOFwjWB20imaw5Y2jqEm2gY6gEgY_PePiljJhDIO4Q01L_z0FDD0o=w16383,history|food,https://www.low-carb-travel.info/deeper-dives/train-to-spain/hop-offs/france/n%C3%AEmes
143,125,127,82.81538461538462,125,Nîmes,StopPoint:OCEINTERCITES de nuit-87775007,Nîmes Centre,43.832387,4.366081,Nîmes,"Known as the most Roman city outside of Italy, Nîmes has one of the best preserved arenas and Roman temples in the world. It's also the birthplace of denim ('de Nîmes'), so you could think of coming to Nîmes as a pilgrimage for your jeans! The city is full of activity and has events and festivals throughout the year, including an annual international music festival held in the Roman arena and local craft and produce markets.",https://lh3.googleusercontent.com/TyPwFxxNRBndzLZmKBMoP6nyMmqlFuUfUHPOFwjWB20imaw5Y2jqEm2gY6gEgY_PePiljJhDIO4Q01L_z0FDD0o=w16383,history|food,https://www.low-carb-travel.info/deeper-dives/train-to-spain/hop-offs/france/n%C3%AEmes
144,125,145,141.75,125,Nîmes,StopPoint:OCEINTERCITES de nuit-87775007,Nîmes Centre,43.832387,4.366081,Nîmes,"Known as the most Roman city outside of Italy, Nîmes has one of the best preserved arenas and Roman temples in the world. It's also the birthplace of denim ('de Nîmes'), so you could think of coming to Nîmes as a pilgrimage for your jeans! The city is full of activity and has events and festivals throughout the year, including an annual international music festival held in the Roman arena and local craft and produce markets.",https://lh3.googleusercontent.com/TyPwFxxNRBndzLZmKBMoP6nyMmqlFuUfUHPOFwjWB20imaw5Y2jqEm2gY6gEgY_PePiljJhDIO4Q01L_z0FDD0o=w16383,history|food,https://www.low-carb-travel.info/deeper-dives/train-to-spain/hop-offs/france/n%C3%AEmes
145,125,148,168.75,125,Nîmes,StopPoint:OCEINTERCITES de nuit-87775007,Nîmes Centre,43.832387,4.366081,Nîmes,"Known as the most Roman city outside of Italy, Nîmes has one of the best preserved arenas and Roman temples in the world. It's also the birthplace of denim ('de Nîmes'), so you could think of coming to Nîmes as a pilgrimage for your jeans! The city is full of activity and has events and festivals throughout the year, including an annual international music festival held in the Roman arena and local craft and produce markets.",https://lh3.googleusercontent.com/TyPwFxxNRBndzLZmKBMoP6nyMmqlFuUfUHPOFwjWB20imaw5Y2jqEm2gY6gEgY_PePiljJhDIO4Q01L_z0FDD0o=w16383,history|food,https://www.low-carb-travel.info/deeper-dives/train-to-spain/hop-offs/france/n%C3%AEmes
146,125,151,188.75,125,Nîmes,StopPoint:OCEINTERCITES de nuit-87775007,Nîmes Centre,43.832387,4.366081,Nîmes,"Known as the most Roman city outside of Italy, Nîmes has one of the best preserved arenas and Roman temples in the world. It's also the birthplace of denim ('de Nîmes'), so you could think of coming to Nîmes as a pilgrimage for your jeans! The city is full of activity and has events and festivals throughout the year, including an annual international music festival held in the Roman arena and local craft and produce markets.",https://lh3.googleusercontent.com/TyPwFxxNRBndzLZmKBMoP6nyMmqlFuUfUHPOFwjWB20imaw5Y2jqEm2gY6gEgY_PePiljJhDIO4Q01L_z0FDD0o=w16383,history|food,https://www.low-carb-travel.info/deeper-dives/train-to-spain/hop-offs/france/n%C3%AEmes
147,127,19,665.0,127,Narbonne,StopPoint:OCEINTERCITES de nuit-87781104,Narbonne,43.190664,3.005562,Narbonne,Narbonne has been an ideal place to stop off when going places since Roman times as it was where the via Aquitania from the Atlantic via Bordeaux and Toulouse met the via Domitia reaching into Spain. It’s still a great place to change trains when doing the same thing.,https://lh5.googleusercontent.com/kPBjmv2-geIgP413qK2L3JGokOpL9KHgrfocq-eQrH1plkChP2t9T2-J3T27UQLEw2K-PHG-IaOYJTSxCYhxXac=w16383,history,https://www.low-carb-travel.info/deeper-dives/train-to-spain/hop-offs/france/narbonne
148,127,24,212.02,127,Narbonne,StopPoint:OCEINTERCITES de nuit-87781104,Narbonne,43.190664,3.005562,Narbonne,Narbonne has been an ideal place to stop off when going places since Roman times as it was where the via Aquitania from the Atlantic via Bordeaux and Toulouse met the via Domitia reaching into Spain. It’s still a great place to change trains when doing the same thing.,https://lh5.googleusercontent.com/kPBjmv2-geIgP413qK2L3JGokOpL9KHgrfocq-eQrH1plkChP2t9T2-J3T27UQLEw2K-PHG-IaOYJTSxCYhxXac=w16383,history,https://www.low-carb-travel.info/deeper-dives/train-to-spain/hop-offs/france/narbonne
149,127,38,74.78333333333333,127,Narbonne,StopPoint:OCEINTERCITES de nuit-87781104,Narbonne,43.190664,3.005562,Narbonne,Narbonne has been an ideal place to stop off when going places since Roman times as it was where the via Aquitania from the Atlantic via Bordeaux and Toulouse met the via Domitia reaching into Spain. It’s still a great place to change trains when doing the same thing.,https://lh5.googleusercontent.com/kPBjmv2-geIgP413qK2L3JGokOpL9KHgrfocq-eQrH1plkChP2t9T2-J3T27UQLEw2K-PHG-IaOYJTSxCYhxXac=w16383,history,https://www.low-carb-travel.info/deeper-dives/train-to-spain/hop-offs/france/narbonne
150,127,72,31.276315789473685,127,Narbonne,StopPoint:OCEINTERCITES de nuit-87781104,Narbonne,43.190664,3.005562,Narbonne,Narbonne has been an ideal place to stop off when going places since Roman times as it was where the via Aquitania from the Atlantic via Bordeaux and Toulouse met the via Domitia reaching into Spain. It’s still a great place to change trains when doing the same thing.,https://lh5.googleusercontent.com/kPBjmv2-geIgP413qK2L3JGokOpL9KHgrfocq-eQrH1plkChP2t9T2-J3T27UQLEw2K-PHG-IaOYJTSxCYhxXac=w16383,history,https://www.low-carb-travel.info/deeper-dives/train-to-spain/hop-offs/france/narbonne
151,127,105,154.55,127,Narbonne,StopPoint:OCEINTERCITES de nuit-87781104,Narbonne,43.190664,3.005562,Narbonne,Narbonne has been an ideal place to stop off when going places since Roman times as it was where the via Aquitania from the Atlantic via Bordeaux and Toulouse met the via Domitia reaching into Spain. It’s still a great place to change trains when doing the same thing.,https://lh5.googleusercontent.com/kPBjmv2-geIgP413qK2L3JGokOpL9KHgrfocq-eQrH1plkChP2t9T2-J3T27UQLEw2K-PHG-IaOYJTSxCYhxXac=w16383,history,https://www.low-carb-travel.info/deeper-dives/train-to-spain/hop-offs/france/narbonne
152,127,106,109.46666666666667,127,Narbonne,StopPoint:OCEINTERCITES de nuit-87781104,Narbonne,43.190664,3.005562,Narbonne,Narbonne has been an ideal place to stop off when going places since Roman times as it was where the via Aquitania from the Atlantic via Bordeaux and Toulouse met the via Domitia reaching into Spain. It’s still a great place to change trains when doing the same thing.,https://lh5.googleusercontent.com/kPBjmv2-geIgP413qK2L3JGokOpL9KHgrfocq-eQrH1plkChP2t9T2-J3T27UQLEw2K-PHG-IaOYJTSxCYhxXac=w16383,history,https://www.low-carb-travel.info/deeper-dives/train-to-spain/hop-offs/france/narbonne
153,127,123,57.0,127,Narbonne,StopPoint:OCEINTERCITES de nuit-87781104,Narbonne,43.190664,3.005562,Narbonne,Narbonne has been an ideal place to stop off when going places since Roman times as it was where the via Aquitania from the Atlantic via Bordeaux and Toulouse met the via Domitia reaching into Spain. It’s still a great place to change trains when doing the same thing.,https://lh5.googleusercontent.com/kPBjmv2-geIgP413qK2L3JGokOpL9KHgrfocq-eQrH1plkChP2t9T2-J3T27UQLEw2K-PHG-IaOYJTSxCYhxXac=w16383,history,https://www.low-carb-travel.info/deeper-dives/train-to-spain/hop-offs/france/narbonne
154,127,124,41.107142857142854,127,Narbonne,StopPoint:OCEINTERCITES de nuit-87781104,Narbonne,43.190664,3.005562,Narbonne,Narbonne has been an ideal place to stop off when going places since Roman times as it was where the via Aquitania from the Atlantic via Bordeaux and Toulouse met the via Domitia reaching into Spain. It’s still a great place to change trains when doing the same thing.,https://lh5.googleusercontent.com/kPBjmv2-geIgP413qK2L3JGokOpL9KHgrfocq-eQrH1plkChP2t9T2-J3T27UQLEw2K-PHG-IaOYJTSxCYhxXac=w16383,history,https://www.low-carb-travel.info/deeper-dives/train-to-spain/hop-offs/france/narbonne
155,127,125,87.98245614035088,127,Narbonne,StopPoint:OCEINTERCITES de nuit-87781104,Narbonne,43.190664,3.005562,Narbonne,Narbonne has been an ideal place to stop off when going places since Roman times as it was where the via Aquitania from the Atlantic via Bordeaux and Toulouse met the via Domitia reaching into Spain. It’s still a great place to change trains when doing the same thing.,https://lh5.googleusercontent.com/kPBjmv2-geIgP413qK2L3JGokOpL9KHgrfocq-eQrH1plkChP2t9T2-J3T27UQLEw2K-PHG-IaOYJTSxCYhxXac=w16383,history,https://www.low-carb-travel.info/deeper-dives/train-to-spain/hop-offs/france/narbonne
156,127,145,51.0,127,Narbonne,StopPoint:OCEINTERCITES de nuit-87781104,Narbonne,43.190664,3.005562,Narbonne,Narbonne has been an ideal place to stop off when going places since Roman times as it was where the via Aquitania from the Atlantic via Bordeaux and Toulouse met the via Domitia reaching into Spain. It’s still a great place to change trains when doing the same thing.,https://lh5.googleusercontent.com/kPBjmv2-geIgP413qK2L3JGokOpL9KHgrfocq-eQrH1plkChP2t9T2-J3T27UQLEw2K-PHG-IaOYJTSxCYhxXac=w16383,history,https://www.low-carb-travel.info/deeper-dives/train-to-spain/hop-offs/france/narbonne
157,127,148,80.25,127,Narbonne,StopPoint:OCEINTERCITES de nuit-87781104,Narbonne,43.190664,3.005562,Narbonne,Narbonne has been an ideal place to stop off when going places since Roman times as it was where the via Aquitania from the Atlantic via Bordeaux and Toulouse met the via Domitia reaching into Spain. It’s still a great place to change trains when doing the same thing.,https://lh5.googleusercontent.com/kPBjmv2-geIgP413qK2L3JGokOpL9KHgrfocq-eQrH1plkChP2t9T2-J3T27UQLEw2K-PHG-IaOYJTSxCYhxXac=w16383,history,https://www.low-carb-travel.info/deeper-dives/train-to-spain/hop-offs/france/narbonne
158,127,151,100.08333333333333,127,Narbonne,StopPoint:OCEINTERCITES de nuit-87781104,Narbonne,43.190664,3.005562,Narbonne,Narbonne has been an ideal place to stop off when going places since Roman times as it was where the via Aquitania from the Atlantic via Bordeaux and Toulouse met the via Domitia reaching into Spain. It’s still a great place to change trains when doing the same thing.,https://lh5.googleusercontent.com/kPBjmv2-geIgP413qK2L3JGokOpL9KHgrfocq-eQrH1plkChP2t9T2-J3T27UQLEw2K-PHG-IaOYJTSxCYhxXac=w16383,history,https://www.low-carb-travel.info/deeper-dives/train-to-spain/hop-offs/france/narbonne
159,145,19,728.2413793103449,145,Perpignan,StopPoint:OCEINTERCITES de nuit-87784009,Perpignan,42.696079,2.879622,Perpignan,"Perpignan is home to about 120,000 people, and has two rivers flowing through it; with the Têt to the north, and the Basse through the centre. Once the continental capital of the Kingdom of Majorca, Perpignan has been an economical and educational centre for centuries, and this is evident in its architecture.","https://en.wikivoyage.org/wiki/Perpignan#/media/File:23_La_Bassa_(Perpiny%C3%A0),_des_de_la_pl._Gabriel_P%C3%A9ri.jpg",history|skiing,https://en.wikivoyage.org/wiki/Perpignan
160,145,72,119.125,145,Perpignan,StopPoint:OCEINTERCITES de nuit-87784009,Perpignan,42.696079,2.879622,Perpignan,"Perpignan is home to about 120,000 people, and has two rivers flowing through it; with the Têt to the north, and the Basse through the centre. Once the continental capital of the Kingdom of Majorca, Perpignan has been an economical and educational centre for centuries, and this is evident in its architecture.","https://en.wikivoyage.org/wiki/Perpignan#/media/File:23_La_Bassa_(Perpiny%C3%A0),_des_de_la_pl._Gabriel_P%C3%A9ri.jpg",history|skiing,https://en.wikivoyage.org/wiki/Perpignan
161,145,123,110.46153846153847,145,Perpignan,StopPoint:OCEINTERCITES de nuit-87784009,Perpignan,42.696079,2.879622,Perpignan,"Perpignan is home to about 120,000 people, and has two rivers flowing through it; with the Têt to the north, and the Basse through the centre. Once the continental capital of the Kingdom of Majorca, Perpignan has been an economical and educational centre for centuries, and this is evident in its architecture.","https://en.wikivoyage.org/wiki/Perpignan#/media/File:23_La_Bassa_(Perpiny%C3%A0),_des_de_la_pl._Gabriel_P%C3%A9ri.jpg",history|skiing,https://en.wikivoyage.org/wiki/Perpignan
162,145,124,89.46153846153847,145,Perpignan,StopPoint:OCEINTERCITES de nuit-87784009,Perpignan,42.696079,2.879622,Perpignan,"Perpignan is home to about 120,000 people, and has two rivers flowing through it; with the Têt to the north, and the Basse through the centre. Once the continental capital of the Kingdom of Majorca, Perpignan has been an economical and educational centre for centuries, and this is evident in its architecture.","https://en.wikivoyage.org/wiki/Perpignan#/media/File:23_La_Bassa_(Perpiny%C3%A0),_des_de_la_pl._Gabriel_P%C3%A9ri.jpg",history|skiing,https://en.wikivoyage.org/wiki/Perpignan
163,145,125,150.53846153846155,145,Perpignan,StopPoint:OCEINTERCITES de nuit-87784009,Perpignan,42.696079,2.879622,Perpignan,"Perpignan is home to about 120,000 people, and has two rivers flowing through it; with the Têt to the north, and the Basse through the centre. Once the continental capital of the Kingdom of Majorca, Perpignan has been an economical and educational centre for centuries, and this is evident in its architecture.","https://en.wikivoyage.org/wiki/Perpignan#/media/File:23_La_Bassa_(Perpiny%C3%A0),_des_de_la_pl._Gabriel_P%C3%A9ri.jpg",history|skiing,https://en.wikivoyage.org/wiki/Perpignan
164,145,127,43.793103448275865,145,Perpignan,StopPoint:OCEINTERCITES de nuit-87784009,Perpignan,42.696079,2.879622,Perpignan,"Perpignan is home to about 120,000 people, and has two rivers flowing through it; with the Têt to the north, and the Basse through the centre. Once the continental capital of the Kingdom of Majorca, Perpignan has been an economical and educational centre for centuries, and this is evident in its architecture.","https://en.wikivoyage.org/wiki/Perpignan#/media/File:23_La_Bassa_(Perpiny%C3%A0),_des_de_la_pl._Gabriel_P%C3%A9ri.jpg",history|skiing,https://en.wikivoyage.org/wiki/Perpignan
165,145,148,25.583333333333332,145,Perpignan,StopPoint:OCEINTERCITES de nuit-87784009,Perpignan,42.696079,2.879622,Perpignan,"Perpignan is home to about 120,000 people, and has two rivers flowing through it; with the Têt to the north, and the Basse through the centre. Once the continental capital of the Kingdom of Majorca, Perpignan has been an economical and educational centre for centuries, and this is evident in its architecture.","https://en.wikivoyage.org/wiki/Perpignan#/media/File:23_La_Bassa_(Perpiny%C3%A0),_des_de_la_pl._Gabriel_P%C3%A9ri.jpg",history|skiing,https://en.wikivoyage.org/wiki/Perpignan
166,145,151,45.416666666666664,145,Perpignan,StopPoint:OCEINTERCITES de nuit-87784009,Perpignan,42.696079,2.879622,Perpignan,"Perpignan is home to about 120,000 people, and has two rivers flowing through it; with the Têt to the north, and the Basse through the centre. Once the continental capital of the Kingdom of Majorca, Perpignan has been an economical and educational centre for centuries, and this is evident in its architecture.","https://en.wikivoyage.org/wiki/Perpignan#/media/File:23_La_Bassa_(Perpiny%C3%A0),_des_de_la_pl._Gabriel_P%C3%A9ri.jpg",history|skiing,https://en.wikivoyage.org/wiki/Perpignan
167,148,19,755.1724137931035,148,Collioure,StopPoint:OCEINTERCITES de nuit-87784256,Collioure,42.52692,3.078248,Collioure,Collioure is an ancient fishing village 27 km from Spain. The Mediterranean laps on its beaches and you can spy the last summits of the Pyrenees.,https://upload.wikimedia.org/wikipedia/commons/6/6b/CollioureView.jpg,history|sea,https://en.wikivoyage.org/wiki/Collioure
168,148,72,146.0625,148,Collioure,StopPoint:OCEINTERCITES de nuit-87784256,Collioure,42.52692,3.078248,Collioure,Collioure is an ancient fishing village 27 km from Spain. The Mediterranean laps on its beaches and you can spy the last summits of the Pyrenees.,https://upload.wikimedia.org/wikipedia/commons/6/6b/CollioureView.jpg,history|sea,https://en.wikivoyage.org/wiki/Collioure
169,148,123,137.3846153846154,148,Collioure,StopPoint:OCEINTERCITES de nuit-87784256,Collioure,42.52692,3.078248,Collioure,Collioure is an ancient fishing village 27 km from Spain. The Mediterranean laps on its beaches and you can spy the last summits of the Pyrenees.,https://upload.wikimedia.org/wikipedia/commons/6/6b/CollioureView.jpg,history|sea,https://en.wikivoyage.org/wiki/Collioure
170,148,124,116.38461538461539,148,Collioure,StopPoint:OCEINTERCITES de nuit-87784256,Collioure,42.52692,3.078248,Collioure,Collioure is an ancient fishing village 27 km from Spain. The Mediterranean laps on its beaches and you can spy the last summits of the Pyrenees.,https://upload.wikimedia.org/wikipedia/commons/6/6b/CollioureView.jpg,history|sea,https://en.wikivoyage.org/wiki/Collioure
171,148,125,177.46153846153845,148,Collioure,StopPoint:OCEINTERCITES de nuit-87784256,Collioure,42.52692,3.078248,Collioure,Collioure is an ancient fishing village 27 km from Spain. The Mediterranean laps on its beaches and you can spy the last summits of the Pyrenees.,https://upload.wikimedia.org/wikipedia/commons/6/6b/CollioureView.jpg,history|sea,https://en.wikivoyage.org/wiki/Collioure
172,148,127,70.72413793103448,148,Collioure,StopPoint:OCEINTERCITES de nuit-87784256,Collioure,42.52692,3.078248,Collioure,Collioure is an ancient fishing village 27 km from Spain. The Mediterranean laps on its beaches and you can spy the last summits of the Pyrenees.,https://upload.wikimedia.org/wikipedia/commons/6/6b/CollioureView.jpg,history|sea,https://en.wikivoyage.org/wiki/Collioure
173,148,145,23.93103448275862,148,Collioure,StopPoint:OCEINTERCITES de nuit-87784256,Collioure,42.52692,3.078248,Collioure,Collioure is an ancient fishing village 27 km from Spain. The Mediterranean laps on its beaches and you can spy the last summits of the Pyrenees.,https://upload.wikimedia.org/wikipedia/commons/6/6b/CollioureView.jpg,history|sea,https://en.wikivoyage.org/wiki/Collioure
174,148,151,17.833333333333332,148,Collioure,StopPoint:OCEINTERCITES de nuit-87784256,Collioure,42.52692,3.078248,Collioure,Collioure is an ancient fishing village 27 km from Spain. The Mediterranean laps on its beaches and you can spy the last summits of the Pyrenees.,https://upload.wikimedia.org/wikipedia/commons/6/6b/CollioureView.jpg,history|sea,https://en.wikivoyage.org/wiki/Collioure
175,151,19,776.2068965517242,151,Cerbère,StopPoint:OCEINTERCITES de nuit-87785006,Cerbère,42.442771,3.165528,Cerbère,"Gateway to Spain  - just wander over the hill! It's a journey made by made during times of strife, but these days it's all for pleasure",https://upload.wikimedia.org/wikipedia/commons/b/bb/Cerb%C3%A8re_Wikivoyage_Banner.jpg,history|sea,https://en.wikivoyage.org/wiki/Cerb%C3%A8re
176,151,72,168.125,151,Cerbère,StopPoint:OCEINTERCITES de nuit-87785006,Cerbère,42.442771,3.165528,Cerbère,"Gateway to Spain  - just wander over the hill! It's a journey made by made during times of strife, but these days it's all for pleasure",https://upload.wikimedia.org/wikipedia/commons/b/bb/Cerb%C3%A8re_Wikivoyage_Banner.jpg,history|sea,https://en.wikivoyage.org/wiki/Cerb%C3%A8re
177,151,123,157.15384615384616,151,Cerbère,StopPoint:OCEINTERCITES de nuit-87785006,Cerbère,42.442771,3.165528,Cerbère,"Gateway to Spain  - just wander over the hill! It's a journey made by made during times of strife, but these days it's all for pleasure",https://upload.wikimedia.org/wikipedia/commons/b/bb/Cerb%C3%A8re_Wikivoyage_Banner.jpg,history|sea,https://en.wikivoyage.org/wiki/Cerb%C3%A8re
178,151,124,136.15384615384616,151,Cerbère,StopPoint:OCEINTERCITES de nuit-87785006,Cerbère,42.442771,3.165528,Cerbère,"Gateway to Spain  - just wander over the hill! It's a journey made by made during times of strife, but these days it's all for pleasure",https://upload.wikimedia.org/wikipedia/commons/b/bb/Cerb%C3%A8re_Wikivoyage_Banner.jpg,history|sea,https://en.wikivoyage.org/wiki/Cerb%C3%A8re
179,151,125,197.23076923076923,151,Cerbère,StopPoint:OCEINTERCITES de nuit-87785006,Cerbère,42.442771,3.165528,Cerbère,"Gateway to Spain  - just wander over the hill! It's a journey made by made during times of strife, but these days it's all for pleasure",https://upload.wikimedia.org/wikipedia/commons/b/bb/Cerb%C3%A8re_Wikivoyage_Banner.jpg,history|sea,https://en.wikivoyage.org/wiki/Cerb%C3%A8re
180,151,127,91.75862068965517,151,Cerbère,StopPoint:OCEINTERCITES de nuit-87785006,Cerbère,42.442771,3.165528,Cerbère,"Gateway to Spain  - just wander over the hill! It's a journey made by made during times of strife, but these days it's all for pleasure",https://upload.wikimedia.org/wikipedia/commons/b/bb/Cerb%C3%A8re_Wikivoyage_Banner.jpg,history|sea,https://en.wikivoyage.org/wiki/Cerb%C3%A8re
181,151,145,44.96551724137931,151,Cerbère,StopPoint:OCEINTERCITES de nuit-87785006,Cerbère,42.442771,3.165528,Cerbère,"Gateway to Spain  - just wander over the hill! It's a journey made by made during times of strife, but these days it's all for pleasure",https://upload.wikimedia.org/wikipedia/commons/b/bb/Cerb%C3%A8re_Wikivoyage_Banner.jpg,history|sea,https://en.wikivoyage.org/wiki/Cerb%C3%A8re
182,151,148,19.03448275862069,151,Cerbère,StopPoint:OCEINTERCITES de nuit-87785006,Cerbère,42.442771,3.165528,Cerbère,"Gateway to Spain  - just wander over the hill! It's a journey made by made during times of strife, but these days it's all for pleasure",https://upload.wikimedia.org/wikipedia/commons/b/bb/Cerb%C3%A8re_Wikivoyage_Banner.jpg,history|sea,https://en.wikivoyage.org/wiki/Cerb%C3%A8re
