place_id	place_name	place_lat	place_lon	place_brief_desc	place_longer_desc	place_image	place_tags	place_links	place_country
france_1	Futuroscope	46.6699180	0.37720900	French theme park based upon multimedia, cinematographic, and audiovisual techniques. It has several 3D cinemas and a few 4D cinemas along with other attractions and shows, some of which are the only examples in the world	./static/places/futuroscope.html	./static/images/futuroscope.png	museum|science|kids	https://www.lonelyplanet.com/search?q=Futuroscope	France
france_2	Versailles	48.7956490	2.13592400	Versailles, famed for its royal residence built by King Louis XIV is a must see for most.	./static/places/versailles.html	./static/images/versailles.png	museum|history|kids| culture	https://www.lonelyplanet.com/search?q=Versailles	France
france_4	Chartres	48.4486280	1.48120200	Chartres, is famed for its massive Cathédrale Notre-Dame. The Gothic cathedral, completed in 1220, features 2 towering spires, flying buttresses, Romanesque sculptures, pavement labyrinth and elaborate rose windows. The interior's blue-tinted stained glass is distinctive, and the nearby Centre International du Vitrail has workshops and exhibits on stained-glass art	./static/places/chartres.html	./static/images/chartres.png	city break| culture| history	https://www.lonelyplanet.com/search?q=Chartres	France
france_6	Rennes	48.1030710	-1.6721310	Rennes is the chief city of Brittany in northwest France. It's mostly modern and industrial, but has many grand 18th and 19th century buildings, and survivors of earlier times. It's also well-endowed with cultural attractions. In 2020 the city population was 222,485, with about 150,000 more living in the wider metropolis.	./static/places/rennes.html	./static/images/rennes.png	city break	https://www.lonelyplanet.com/search?q=Rennes	France
france_10	La Rochelle	46.1527030	-1.1452880	La Rochelle, capital of Charente-Maritime and one of the most livable cities in France, is a pretty good place to go and get nautical.	./static/places/la rochelle.html	./static/images/la rochelle.png		https://www.lonelyplanet.com/search?q=La Rochelle	France
france_15	Saintes	45.7488860	-0.6173560	Saintes is a city on the Charente river in Charente-Maritime, in southwestern France. It was the capital of the historical Saintogne County, many landmarks from its glorious past have been preserved, and as such it has been classified as a Ville d'art et d'histoire ("City of art and history").	./static/places/saintes.html	./static/images/saintes.png	history|city break	https://www.lonelyplanet.com/search?q=Saintes	France
france_19	Paris	48.8404960	2.36707900	We’ll always have Paris' - Casablanca 	./static/places/paris.html	./static/images/paris.png	history|kids|city break	https://www.lonelyplanet.com/search?q=Paris	France
france_24	Bordeaux	44.8258230	-0.5560120	Bordeaux, resting on the banks of the Garonne is the global capital of wine and it would be rude not to get straight to the point and pay a visit to La Cité du Vin where you can learn about how the giggle-juice is made and maybe do some tasting?	./static/places/bordeaux.html	./static/images/bordeaux.png	history|kids|city break	https://www.lonelyplanet.com/search?q=Bordeaux	France
france_28	Limoges	45.8372180	1.26900800	Limoges is a city in southwest-central France. It’s known for its decorated porcelain, much of which is on display at the Musée National Adrien Dubouché. In the historic center, medieval timber-frame houses line Rue de la Boucherie. Set in the former Episcopal Palace, the Musée des Beaux-Arts showcases the history of the city's medieval enamel. The Gothic Cathédrale St-Étienne de Limoges took 6 centuries to complete	./static/places/limoges.html	./static/images/limoges.png	history|art	https://www.lonelyplanet.com/search?q=Limoges	France
france_38	Toulouse	43.6114370	1.45423700	Toulouse, known as 'La Ville Rose', is the proud capital of the Occitan region of France which has had a distinctly independent culture and language - hence its bilingual street signs. Wandering around the city with its rose-coloured bricks, it does feel markedly different from the yellow limestone which dominates so many parts of France.	./static/places/toulouse.html	./static/images/toulouse.png	history|food	https://www.lonelyplanet.com/search?q=Toulouse	France
france_45	Latour-de-Carol - Enveitg	42.4589540	1.90450900	Gateway to Spain - Puigcerda in Spain is just a walk away.	./static/places/latour-de-carol - enveitg.html	./static/images/latour-de-carol - enveitg.png	walking	https://www.lonelyplanet.com/search?q=Latour-de-Carol - Enveitg	France
france_72	Carcassonne	43.2181650	2.35243000	Carcassonne, one of the best preserved medieval cities in the world, has something of a fairytale feel thanks to the restoration work of Eugène Viollet-le-Duc.	./static/places/carcassonne.html	./static/images/carcassonne.png	history|kids	https://www.lonelyplanet.com/search?q=Carcassonne	France
france_80	Lourdes	43.1006000	-0.0418120	As a small town in the foothills of the Pyrenees, Lourdes used to be a bit of a backwater. But all of that changed in 1858 when 14-year-old Bernadette Soubirous visited a cave and met the Lady of the Immaculate Conception who told her about the healing properties of the water.	./static/places/lourdes.html	./static/images/lourdes.png	history|walking	https://www.lonelyplanet.com/search?q=Lourdes	France
france_83	Bayonne	43.4970180	-1.4701940	If you've spent a few days getting body-beautiful down in San Sebastian or nearby Biarritz, why not go and undo all that good work with a trip to Bayonne!	./static/places/bayonne.html	./static/images/bayonne.png	history|food	https://www.lonelyplanet.com/search?q=Bayonne	France
france_85	Hendaye	43.3531650	-1.7820950	Hendaye is a popular surfing destination renowned for its soft beach break waves suitable for beginners. Trains leave from here to Spain - or just walk across the border...	./static/places/hendaye.html	./static/images/hendaye.png		https://www.lonelyplanet.com/search?q=Hendaye	France
france_93	Lyon	45.7605960	4.85940900	Lyon, France’s third largest city and reputed gastronomic capital of the world, sits at the junction of the Rhône and Saône rivers. Founded by the Romans, Lyon flourished in the late Middle Ages and has been a major centre for industry, commerce and banking for the last 500 years. The legacy of this wealth is on show through the fine set of buildings.	./static/places/lyon.html	./static/images/lyon.png	history|food|city break	https://www.lonelyplanet.com/search?q=Lyon	France
france_97	Vichy	46.1268820	3.43070700	Vichy is a town in Auvergne. It's known for two things: its spas (Vichy is one of eleven world heritage-listed European spa towns), and as the headquarters of the pro-Nazi Vichy regime during the Second World War.	./static/places/vichy.html	./static/images/vichy.png	history|spa	https://www.lonelyplanet.com/search?q=Vichy	France
france_105	Marseille	43.3030300	5.38055500	Marseille (Provençal: Marselha) is the second most populated city of France (and third urban area) the biggest Mediterranean port and the economic center of the Provence-Alpes-Côte d'Azur region. In 2013 the city (with its region) was the European Capital of Culture, a large series of cultural events took place, and several new infrastructures were inaugurated.	./static/places/marseille.html	./static/images/marseille.png	history|sea|city break	https://www.lonelyplanet.com/search?q=Marseille	France
france_106	Arles	43.6853590	4.63210900	Arles, spiritual capital of Provence, is located where the mighty Rhône meets the Camargue and was founded by the veterans of Julius Caesar's crack Sixth legion. And while it has world class Roman buildings (that are still in active use today), it's probably more famous for being the place where Vincent Van Gogh came in search of light - the art world hasn't been the same since.	./static/places/arles.html	./static/images/arles.png	history|art	https://www.lonelyplanet.com/search?q=Arles	France
france_123	Montpellier	43.6047800	3.88116800	Montpellier is the principal city in the Languedoc-Roussillon region in southwest France. It's been the one of the fastest growing cities in France since the 1990s. As a result, it has very modern districts on the outskirts that are in stark contrast to the old winding roads of the city centre. The town is home to a lot of students due to the presence of the University of Montpellier which has the oldest medical school in Europe, and, as such, Montpellier has a very young feel to it.	./static/places/montpellier.html	./static/images/montpellier.png	history	https://www.lonelyplanet.com/search?q=Montpellier	France
france_124	Sete	43.4128080	3.69641000	Located between a lagoon and the Med and connecting the Canal du Midi to the sea, this southern French working port is a great place to get seafood and sea views. Throughout the summer you can also catch some water-jousting where old-style lifeboats (barque de sauvetage) with multiple oarsmen and one jouster charge at each other and try to unseat their opponent.	./static/places/sete.html	./static/images/sete.png	history|art|sea	https://www.lonelyplanet.com/search?q=Sète	France
france_125	Nimes	43.8323870	4.36608100	Known as the most Roman city outside of Italy, Nîmes has one of the best preserved arenas and Roman temples in the world. It's also the birthplace of denim ('de Nîmes'), so you could think of coming to Nîmes as a pilgrimage for your jeans! The city is full of activity and has events and festivals throughout the year, including an annual international music festival held in the Roman arena and local craft and produce markets.	./static/places/nimes.html	./static/images/nimes.png	history|food	https://www.lonelyplanet.com/search?q=Nîmes	France
france_127	Narbonne	43.1906640	3.00556200	Narbonne has been an ideal place to stop off when going places since Roman times as it was where the via Aquitania from the Atlantic via Bordeaux and Toulouse met the via Domitia reaching into Spain. It’s still a great place to change trains when doing the same thing.	./static/places/narbonne.html	./static/images/narbonne.png	history	https://www.lonelyplanet.com/search?q=Narbonne	France
france_145	Perpignan	42.6960790	2.87962200	Perpignan is home to about 120,000 people, and has two rivers flowing through it; with the Têt to the north, and the Basse through the centre. Once the continental capital of the Kingdom of Majorca, Perpignan has been an economical and educational centre for centuries, and this is evident in its architecture.	./static/places/perpignan.html	./static/images/perpignan.png	history|skiing	https://www.lonelyplanet.com/search?q=Perpignan	France
france_148	Collioure	42.5269200	3.07824800	Collioure is an ancient fishing village 27 km from Spain. The Mediterranean laps on its beaches and you can spy the last summits of the Pyrenees.	./static/places/collioure.html	./static/images/collioure.png	history|sea	https://www.lonelyplanet.com/search?q=Collioure	France
france_151	Cerbere	42.4427710	3.16552800	Gateway to Spain  - just wander over the hill! It's a journey made by made during times of strife, but these days it's all for pleasure	./static/places/cerbere.html	./static/images/cerbere.png	history|sea	https://www.lonelyplanet.com/search?q=Cerbère	France
spain_1	Barcelona	41.37922	2.140624	With around 20 million tourists per year, Barcelona is on the popular side...But it's with good reason. It's a sophisticated beach-side party town with world class architecture.	./static/places/barcelona.html	./static/images/barcelona.png	history|art	https://www.lonelyplanet.com/search?q=Barcelona	Spain
spain_19	Tarragona	41.1116240	1.25321400	Tarragona seems to effortlessly juggle being both a UNESCO-listed tourist destination and a busy port with all the associated industry	./static/places/tarragona.html	./static/images/tarragona.png	history	https://www.lonelyplanet.com/search?q=Tarragona	Spain
spain_20	Madrid	40.4720993	-3.6824687	Madrid, capital of Spain and former centre of a vast new-world empire has accumulated a wealth of art and architecture that should tickle even the most jaded of travellers.	./static/places/madrid.html	./static/images/madrid.png	history	https://www.lonelyplanet.com/search?q=Madrid	Spain
spain_44	San Sebastian	43.317669	-1.976704	Being just 20km from the French border, San Sebastian (Donostia in Basque) is an ideal hop off when travelling to Spain. Where better to top up your tan, fill up your tummy and empty your wallet in this seductively urbane resort?	./static/places/san sebastian.html	./static/images/san sebastian.png	history	https://www.lonelyplanet.com/search?q=San Sebastian/donostia	Spain
spain_55	Zaragoza	41.658649	-0.911615	The capital of Aragon has plenty to see in do thanks to two thousand years of history and two cathedrals	./static/places/zaragoza.html	./static/images/zaragoza.png	history	https://www.lonelyplanet.com/search?q=Zaragoza	Spain
spain_56	Tudela de Navarra	42.0594340	-1.5979310	With arid desert to the north and lush market gardens to the south, Tudela is quite unlike the rest of Navarre. For a start, you can leave behind your Basque dictionary as Spanish is the only official language here.	./static/places/tudela de navarra.html	./static/images/tudela de navarra.png	history	https://www.lonelyplanet.com/search?q=Tudela de Navarra	Spain
spain_61	Pamplona	42.8248770	-1.6614190	Pamplona, Iruña in Basque, is the historic capital of the Kingdom of Navarre which straddled Spain and France.	./static/places/pamplona.html	./static/images/pamplona.png	history	https://www.lonelyplanet.com/search?q=Pamplona/irunya	Spain
spain_96	Cordoba	37.8882910	-4.7894530	Córdoba's Mezquita (Great Mosque) with it's nested cathedral is reason enough to come here on its own, but there's plenty else to see and do in this ancient Andalusian city.	./static/places/cordoba.html	./static/images/cordoba.png	history	https://www.lonelyplanet.com/search?q=Cordoba	Spain
spain_97	Seville	37.3921277	-5.9752694	Few places encapsulate the story of Spain as well as Seville. And where better to tell that story than the vast Gothic Cathedral which was built on the site of a Moorish mosque and contains the remains of Christopher Columbus.	./static/places/seville.html	./static/images/seville.png	history	https://www.lonelyplanet.com/search?q=Seville	Spain
spain_104	Figueres	42.2647710	2.94354700	Figueres is the home of Salvador Dalí	./static/places/figueres.html	./static/images/figueres.png	history	https://www.lonelyplanet.com/search?q=Figueres	Spain
spain_105	Girona	41.9793030	2.81700600	The Catalan city of Girona is the smart choice for those who have found Barcelona just a bit too much...	./static/places/girona.html	./static/images/girona.png	history	https://www.lonelyplanet.com/search?q=Girona	Spain
spain_139	Tolosa	43.131936	-2.085247	If you are planning on travelling between San Sebastian and Pamplona, then why not make a detour via Tolosa?	./static/places/tolosa.html	./static/images/tolosa.png	history	https://www.lonelyplanet.com/search?q=Tolosa	Spain
spain_162	Algeciras	36.1268310	-5.4511080	The historic and forever functional Gibraltar is quite unique and a fitting endpoint for any journey from Blighty. Make sure to savour the experience of walking across the runway (following the green cross code at the pedestrian lights).	./static/places/algeciras.html	./static/images/algeciras.png	history	https://www.lonelyplanet.com/search?q=Algeciras	Spain
spain_742	Teruel	40.3410290	-1.1102840	famed as the town that doesn't exist - it's clearly a hidden gem	./static/places/teruel.html	./static/images/teruel.png	history	https://www.lonelyplanet.com/search?q=Teruel	Spain
Germany_1	Berlin	52.520501	13.386988	The capital of Germany is a must-see for anyone interested in the country's turbulent past and vibrant present.	./static/places/berlin.html	./static/images/berlin.png	history	https://www.lonelyplanet.com/search?q=Berlin	Germany
Germany_2	Dresden	51.040221	13.731409	Dresden: The city of Dresden was heavily bombed during World War II, but has been beautifully restored to its former glory. You can admire the stunning Baroque architecture of the Zwinger Palace, the Semper Opera House and the Frauenkirche, as well as explore the rich collections of art and history in the museums.	./static/places/dresden.html	./static/images/dresden.png	history	https://www.lonelyplanet.com/search?q=Dresden	Germany
Germany_3	Nuremberg	49.450748	11.077955	The city of Nuremberg is famous for its medieval old town, its Christmas market and its role in the Nazi era. You can walk along the ancient city walls, visit the imposing Nuremberg Castle, learn about the history of the Nazi Party Rally Grounds and the Nuremberg Trials, and sample some of the local specialties such as Nuremberg sausages and gingerbread.	./static/places/nuremberg.html	./static/images/nuremberg.png	history	https://www.lonelyplanet.com/search?q=Nuremberg	Germany
Germany_4	Munich	48.140364	11.558744	The capital of Bavaria is a popular destination for its Oktoberfest, its beer halls and its fairy-tale castles. You can enjoy the festive atmosphere at Marienplatz, see the famous Glockenspiel clock, visit the impressive Munich Residenz palace and museum, and take a day trip to Neuschwanstein Castle, one of the most spectacular castles in the world	./static/places/munich.html	./static/images/munich.png	history	https://www.lonelyplanet.com/search?q=Munich	Germany
Germany_5	Cologne	50.941312	6.967206	The city of Cologne is located on the banks of the Rhine river and is known for its Gothic cathedral, its Roman heritage and its carnival. You can marvel at the majestic Cologne Cathedral, which took over 600 years to complete, explore the Roman-Germanic Museum and the Chocolate Museum, and join the fun at the annual Cologne Carnival, one of the largest street festivals in Europe.	./static/places/cologne.html	./static/images/cologne.png	history	https://www.lonelyplanet.com/search?q=Cologne	Germany
Germany_6	Freiburg	47.997974	7.841344	The city of Freiburg is situated at the edge of the Black Forest and is one of the greenest and sunniest cities in Germany. You can wander around the charming old town with its colourful houses, cobblestone streets and canals, climb up to the Schlossberg hill for a panoramic view of the city and the forest, and take a scenic train ride on the Höllentalbahn or the Three Lakes Railway	./static/places/freiburg.html	./static/images/freiburg.png	history	https://www.lonelyplanet.com/search?q=Freiburg	Germany
Germany_7	Hamburg	53.55711	9.997434	The city of Hamburg is Germany's second-largest city and its biggest port. You can experience the maritime flair of this cosmopolitan city by visiting the Speicherstadt warehouse district, the Miniatur Wunderland model railway museum, the Elbphilharmonie concert hall and the Fish Market. You can also enjoy the nightlife and entertainment options at the Reeperbahn district, also known as "the sinful mile".	./static/places/hamburg.html	./static/images/hamburg.png	history	https://www.lonelyplanet.com/search?q=Hamburg	Germany
Germany_8	Heidelberg	49.403582	8.67548	The city of Heidelberg is one of the most romantic cities in Germany, thanks to its picturesque setting on the Neckar river and its historic castle. You can stroll along the Old Bridge, visit the Heidelberg Castle ruins and gardens, admire the Old Town Hall and the Church of the Holy Spirit, and soak up the academic atmosphere at Heidelberg University, Germany's oldest university.	./static/places/heidelberg.html	./static/images/heidelberg.png	history	https://www.lonelyplanet.com/search?q=Heidelberg	Germany
Germany_9	Aachen	50.767641	6.09119	Back in the 8th Century, this was the centre of Europe. Now it’s a comfortable spa town near the border with Belgium and the Netherlands where you can get pampered at Carolus Thermen, a modern spa complex with indoor and outdoor pools and saunas after a visit to Charlemagne’s shrine at Aachen Cathedral. It’s also the place to try Aachener Printen - its famous gingerbread-like cookies.	./static/places/aachen.html	./static/images/aachen.png	history	https://www.lonelyplanet.com/search?q=Aachen	Germany
Germany_10	Lubeck	53.86767	10.669737	Lübeck is a beautiful city in northern Germany with a rich medieval history and architecture that is a UNESCO World Heritage Site. The Holsten Gate is the city's landmark and a remnant of the old fortifications. The old town is full of charming gabled houses, churches and courtyards. It’s also the home of marzipan, a sweet treat made from almonds and sugar that comes in many shapes and flavours. Lübeck is also an ideal starting point for exploring the Baltic Sea coast. The city is located on the Trave, which flows about 20 kilometres further into the Baltic Sea. From here you can go on day trips on historic ships or visit the nearby beaches and seaside resorts.	./static/places/lubeck.html	./static/images/lubeck.png	history	https://www.lonelyplanet.com/search?q=Lubeck	Germany
czechia_1	Prague	50.081926	14.451481	The capital and largest city of the Czech Republic, Prague is a must-see destination for anyone visiting the country. Prague has a stunning old town, a majestic castle, a famous astronomical clock, and many other attractions. You can easily reach Prague by train from any major city in Europe.	./static/places/prague.html	./static/images/prague.png	history	https://www.lonelyplanet.com/search?q=Prague	Czechia
czechia_2	Cesky Krumlov	48.822429	14.317299	A UNESCO World Heritage Site, Cesky Krumlov is a picturesque town in the south of the country, surrounded by a meandering river and a medieval castle. The town has a charming atmosphere, with cobblestone streets, colorful houses, and cozy cafes.	./static/places/cesky krumlov.html	./static/images/cesky krumlov.png	history	https://www.lonelyplanet.com/search?q=Cesky Krumlov	Czechia
czechia_3	Karlovy Vary	50.235668	12.866854	A spa town in the west of the country, Karlovy Vary is famous for its mineral springs, elegant buildings, and film festival. You can relax in one of the many thermal baths, enjoy a walk along the colonnades, or visit the glass museum. You can take a direct train from Prague to Karlovy Vary in about two hours.	./static/places/karlovy vary.html	./static/images/karlovy vary.png	history	https://www.lonelyplanet.com/search?q=Karlovy Vary	Czechia
czechia_4	Kutna Hora	49.961839	15.300854	A historical town in Central Bohemia, Kutna Hora was once a prosperous silver mining center and a rival of Prague. Today, it is a popular tourist destination, with several impressive monuments, such as the Gothic cathedral of St. Barbara, the Italian court, and the ossuary of Sedlec. You can take a direct train from Prague to Kutna Hora in about an hour.	./static/places/kutna hora.html	./static/images/kutna hora.png	history	https://www.lonelyplanet.com/search?q=Kutna Hora	Czechia
czechia_5	Brno	49.190537	16.612776	The second largest city and the cultural hub of the Czech Republic, Brno is located in the southeast of the country. Brno has a vibrant nightlife, a modern art scene, and a variety of museums and galleries. You can also visit the nearby Moravian Karst, a natural wonder with caves and gorges. You can take a direct train from Prague to Brno in about two and a half hours.	./static/places/brno.html	./static/images/brno.png	history	https://www.lonelyplanet.com/search?q=Brno	Czechia
czechia_6	Pilsen	49.746889	13.377351	The birthplace of the famous Pilsner beer, Pilsen is a city in Western Bohemia that attracts beer lovers from all over the world. You can visit the Pilsner Urquell brewery, the largest brewery museum in Europe, and taste some of the best beers in the world. You can also explore the historical center of Pilsen, with its Gothic cathedral and Renaissance town hall. You can take a direct train from Prague to Pilsen in about an hour and a half.	./static/places/pilsen.html	./static/images/pilsen.png	history	https://www.lonelyplanet.com/search?q=Pilsen	Czechia
czechia_7	Olomouc	49.593128	17.277932	A university town in Eastern Moravia, Olomouc is often overlooked by tourists but has a lot to offer. Olomouc has one of the largest historical centers in the country, with many Baroque fountains, churches, and palaces. You can also admire the Holy Trinity Column, a UNESCO World Heritage Site and one of the largest sculptures in Europe. You can take a direct train from Prague to Olomouc in about two hours.	./static/places/olomouc.html	./static/images/olomouc.png	history	https://www.lonelyplanet.com/search?q=Olomouc	Czechia
czechia_8	Telc	49.1826	15.464278	Another UNESCO World Heritage Site, Telc is a small town in Southern Moravia that looks like a fairy tale. Telc has a stunning main square, lined with colorful Renaissance houses with arcades and gables. You can also visit the Telc Castle, a Renaissance masterpiece with lavish interiors and gardens. You can take a direct train from Prague to Telc in about three hours.	./static/places/telc.html	./static/images/telc.png	history	https://www.lonelyplanet.com/search?q=Telc	Czechia
czechia_9	Liberec	50.761429	15.045947	 A city in Northern Bohemia, Liberec is an ideal destination for nature lovers and winter sports enthusiasts. Liberec is surrounded by mountains and forests, where you can hike, bike, or ski. You can also visit the Jested Tower, a futuristic landmark that offers panoramic views of the city and beyond. You can take a direct train from Prague to Liberec in about an hour and 45 minutes.	./static/places/liberec.html	./static/images/liberec.png	history	https://www.lonelyplanet.com/search?q=Liberec	Czechia
czechia_10	Ceske Budejovice	48.974616	14.48875	A city in Southern Bohemia, Ceske Budejovice - original home of Budweiser is another place where you can take civilised strolls around the town in a mild fug of beer fumes.	./static/places/ceske budejovice.html	./static/images/ceske budejovice.png	history	https://www.lonelyplanet.com/search?q=Ceske Budejovice	Czechia
romania_1	Sighisoara	46.226398	24.795737	Sighișoara is a UNESCO World Heritage Site and one of the best-preserved medieval towns in Europe. It is also the birthplace of Vlad the Impaler, the inspiration for Dracula. You can explore the colourful houses, the cobblestone streets, the clock tower, and the citadel that overlooks the town. You can also visit the house where Vlad was born, now a museum and a restaurant.	./static/places/sighisoara.html	./static/images/sighisoara.png	history	https://www.lonelyplanet.com/search?q=Sighișoara	Romania
romania_2	Brasov	47.931922	8.456908	Brașov is a charming city surrounded by the Carpathian Mountains and known for its Gothic and Baroque architecture. It is also a gateway to some of the most famous attractions in Romania, such as Bran Castle (also known as Dracula's Castle), Peleș Castle (a former royal residence), and Râșnov Fortress (a medieval citadel). You can also enjoy the nature and wildlife of the nearby Piatra Craiului National Park or Poiana Brașov ski resort.	./static/places/brasov.html	./static/images/brasov.png	history	https://www.lonelyplanet.com/search?q=Brașov	Romania
romania_3	Sibiu	45.799977	24.161575	Another picturesque town in Transylvania, Sibiu was the European Capital of Culture in 2007 and has a rich cultural and architectural heritage. You can admire the colourful houses, the Brukenthal Museum, and the Bridge of Lies.	./static/places/sibiu.html	./static/images/sibiu.png	history	https://www.lonelyplanet.com/search?q=Sibiu	Romania
romania_4	Targu Mures	46.533344	24.549316	Targu Mures is a city in central Romania, known for its baroque architecture and multiculturalism. To dig deep into local history and culture visits to the Museum of Ethnography and Folk Art and the multi-museumed Palace of Culture are just the ticket. Alternatively, you could just join the locals and chill out at the Weekend Complex amusement park	./static/places/targu mures.html	./static/images/targu mures.png	history	https://www.lonelyplanet.com/search?q=Targu Mures	Romania
romania_5	Miercurea Ciuc	46.359574	25.793782	Capital of the Hargita province on the edge of the eastern Carpathians, this is a good place to get a better understanding of the ethnic complexity of Transylvania. Why not visit the Csiki Szekely Muzeum in the Mikó Castle which is dedicated to Szekler culture and traditions, as well as local history. Here you can admire collections of folk art, ceramics, textiles, furniture, weapons and coins. The Franciscan Monastery dates back to the 14th century and is a special historical and architectural monument. It houses a Gothic church with murals and stained glass, as well as a library including rare manuscripts and incunabula. The monastery is also a cultural and spiritual centre, which organises concerts, exhibitions and conferences.	./static/places/miercurea ciuc.html	./static/images/miercurea ciuc.png	history	https://www.lonelyplanet.com/search?q=Miercurea Ciuc	Romania
romania_6	Cluj-Napoca	46.784197	23.586616	Cluj-Napoca is the unofficial capital of Transylvania and a vibrant cultural and academic centre. It is home to the largest university in Romania, as well as numerous museums, art galleries, theatres, and festivals. You can enjoy the architecture of the old town, the botanical garden, and the central park. You can also visit the Turda Salt Mine, a spectacular underground attraction that features a lake, a museum, and a Ferris wheel.	./static/places/cluj-napoca.html	./static/images/cluj-napoca.png	history	https://www.lonelyplanet.com/search?q=Cluj-Napoca	Romania
romania_7	Timisoara	45.696772	21.198704	The largest city in western Romania, Timisoara is known as the "Little Vienna" for its elegant buildings and squares that reflect its Austro-Hungarian heritage. Timisoara is also a modern and dynamic city that was the first in Europe to have electric street lighting and trams. You can enjoy the cultural and nightlife options in Timisoara, or visit some of its attractions, such as the Orthodox Cathedral, the Huniade Castle, and the Botanical Garden.	./static/places/timisoara.html	./static/images/timisoara.png	history	https://www.lonelyplanet.com/search?q=Timisoara	Romania
romania_8	Tulcea	45.162084	28.769176	The Danube Delta is one of the largest and most biodiverse wetlands in Europe, where the Danube River flows into the Black Sea. It is a UNESCO World Heritage Site and a paradise for nature lovers and birdwatchers. You can take a boat tour or rent a kayak to admire the scenery and wildlife of this unique ecosystem. You can also visit some of the traditional fishing villages and sample some of the local cuisine based on fresh fish.	./static/places/tulcea.html	./static/images/tulcea.png	history	https://www.lonelyplanet.com/search?q=Tulcea	Romania
romania_9	Constanta	44.168767	28.631893	The largest port and seaside resort on the Black Sea coast, Constanta is a popular destination for sunbathing, swimming, and partying. You can also visit the ancient ruins of Tomis, the Casino, and the Aquarium.	./static/places/constanta.html	./static/images/constanta.png	history	https://www.lonelyplanet.com/search?q=Constanta	Romania
romania_10	Bucharest	44.428816	26.10382	It’s the capital and the largest city of Romania, as well as a dynamic and cosmopolitan metropolis. It offers a contrast between its historical and cultural heritage and its modern and eclectic vibe. You can visit the Palace of Parliament, one of the largest and most extravagant buildings in the world, built by the former communist dictator Nicolae Ceaușescu. You can also explore the old town, where you can find churches, museums, restaurants, and bars.	./static/places/bucharest.html	./static/images/bucharest.png	history	https://www.lonelyplanet.com/search?q=Bucharest	Romania
austria_1	Vienna	48.207037	16.341553	The capital of Austria is a must-see for any visitor. Vienna has something for everyone, from art and music to architecture and cuisine. You can admire the majestic Schönbrunn Palace, the former residence of the Habsburgs, or visit the Belvedere Palace, which houses the largest collection of Gustav Klimt's paintings. You can also enjoy the green spaces of Vienna, such as the Prater park or the Gardens of Mirabell Palace.	./static/places/vienna.html	./static/images/vienna.png	history	https://www.lonelyplanet.com/search?q=Vienna	Austria
austria_2	Salzburg	47.813848	13.045514	The birthplace of Mozart and the setting of The Sound of Music, Salzburg is a charming city with a baroque flair. You can explore the historic Old Town, which is a UNESCO World Heritage Site, or visit the Hohensalzburg Fortress, which offers panoramic views of the city and the surrounding mountains. You can also take a day trip to the nearby Salzkammergut region, where you can enjoy the crystal-clear lakes and picturesque villages.	./static/places/salzburg.html	./static/images/salzburg.png	history	https://www.lonelyplanet.com/search?q=Salzburg	Austria
austria_3	Graz	47.072301	15.416437	The second-largest city in Austria, Graz is a mix of old and new. You can marvel at the medieval buildings and monuments in the Old Town, such as the Styrian Armoury or the Clock Tower, or admire the modern architecture and design of the Kunsthaus or the Murinsel. Graz is also known for its culinary delights, especially its pumpkin seed oil and chocolate. The train journey from Vienna to Graz takes you through the Semmering railway, a spectacular UNESCO World Heritage Site that showcases the engineering and landscape of Austria.	./static/places/graz.html	./static/images/graz.png	history	https://www.lonelyplanet.com/search?q=Graz	Austria
austria_4	Innsbruck	47.263331	11.400506	The capital of Tyrol, Innsbruck is a paradise for outdoor enthusiasts and winter sports lovers. You can ski or snowboard on the slopes of the Nordkette mountain range, or hike and bike in the summer. You can also visit the Golden Roof, the landmark of Innsbruck that was built by Emperor Maximilian I, or enjoy the cultural attractions of the city, such as the Hofburg palace or the Tyrolean Folk Art Museum.	./static/places/innsbruck.html	./static/images/innsbruck.png	history	https://www.lonelyplanet.com/search?q=Innsbruck	Austria
austria_5	Bregenz	47.503001	9.739623	The capital of Vorarlberg, Bregenz is a scenic city on the shores of Lake Constance. You can enjoy the lake views and activities, such as swimming, boating, or cycling along the shore. You can also visit the Bregenz Festival, which features opera performances on a floating stage on the lake every summer. Bregenz is also close to some of the most beautiful alpine regions in Austria, such as the Bregenzerwald or the Arlberg.	./static/places/bregenz.html	./static/images/bregenz.png	history	https://www.lonelyplanet.com/search?q=Bregenz	Austria
switzerland_1	Jungfraujoch	46.548212	7.982502	This is the ultimate destination for mountain lovers, as it boasts three of Switzerland's most famous peaks: Eiger, Mönch, and Jungfrau. You can take a train ride up to the Jungfraujoch, Europe's highest train station at 3454m (11,332ft), and marvel at the views of glaciers and snow-capped mountains. You can also explore the picturesque towns of Grindelwald, Lauterbrunnen, Murren, and Wengen, where you can hike, ski, sled, or zip-line among the majestic scenery.	./static/places/jungfraujoch.html	./static/images/jungfraujoch.png	history	https://www.lonelyplanet.com/search?q=Jungfraujoch	Switzerland
switzerland_2	Bern	46.948834	7.439131	The capital city of Switzerland is a UNESCO World Heritage site, with a medieval Old Town that features 6km (3.7 miles) of covered arcades, colourful fountains, and historic buildings. You can visit the Einstein-Haus, where the genius developed his theory of relativity, the Kunsthaus, which has an outstanding fine arts collection, and the Zentrum Paul Klee, a modern museum dedicated to the Swiss painter. Bern is also surrounded by wooded hills and the turquoise Aare river, which you can swim in during summer.	./static/places/bern.html	./static/images/bern.png	history	https://www.lonelyplanet.com/search?q=Bern	Switzerland
switzerland_3	Geneva	46.210209	6.142455	The second-largest city in Switzerland is a cosmopolitan hub of culture, diplomacy, and innovation. It is home to the headquarters of many international organisations, such as the United Nations and the Red Cross. You can visit the Jet d'Eau, a huge fountain that shoots water 140m into the air, the Cathedral of St. Pierre, where John Calvin preached during the Reformation, and the Patek Philippe Museum, which showcases the history and craftsmanship of Swiss watchmaking. Geneva is also a gateway to the nearby vineyards and mountains of France.	./static/places/geneva.html	./static/images/geneva.png	history	https://www.lonelyplanet.com/search?q=Geneva	Switzerland
switzerland_4	Lucerne	47.050179	8.310186	This charming city in central Switzerland is situated on the shores of Lake Lucerne, with a backdrop of snow-capped mountains. You can stroll along the Chapel Bridge, a wooden bridge with painted panels that dates back to the 14th century, visit the Lion Monument, a carved stone lion that commemorates the Swiss soldiers who died during the French Revolution, and explore the Old Town, which has many colourful buildings and squares. You can also take a boat ride on the lake or a cable car up to Mount Pilatus or Mount Rigi for panoramic views.	./static/places/lucerne.html	./static/images/lucerne.png	history	https://www.lonelyplanet.com/search?q=Lucerne	Switzerland
switzerland_5	Zermatt	46.024582	7.748306	This car-free resort town at the foot of Matterhorn is a paradise for skiers and hikers alike. You can take a cogwheel train up to Gornergrat, where you can enjoy a stunning view of Matterhorn and 28 other peaks over 4000m (13,123ft). You can also visit the Matterhorn Museum, which tells the story of the first ascent of the iconic mountain in 1865 and displays artefacts from that expedition. Zermatt is also known for its gastronomy and nightlife, with many restaurants and bars to choose from	./static/places/zermatt.html	./static/images/zermatt.png	history	https://www.lonelyplanet.com/search?q=Zermatt	Switzerland
switzerland_6	Zurich	47.378968	8.540534	The largest city in Switzerland is a vibrant metropolis that combines urban flair with natural beauty. Shopping is a must for some and Bahnhofstrasse is one of Europe's most expensive streets.	./static/places/zurich.html	./static/images/zurich.png	history	https://www.lonelyplanet.com/search?q=Zurich	Switzerland
france_160	Orange	44.137557	4.819396	Famed for its Roman Theatre - a UNESCO World Heritage site. It dates from the reign of Emperor Augustus and is one of the best preserved amphitheaters. Every July, the Chorégies d'Orange take place in the theatre. It dates from 1860 and is France's oldest festival.	./static/places/orange.html	./static/images/orange.png	museums|history|kids| culture	https://www.lonelyplanet.com/search?q=avignon	France
france_161	Nice	43.704825	7.261765	With its mix of real-city life, old-world opulence, year-round sunshine, vibrant street life and stunning seaside location, no place in France compares with Nice.	./static/places/nice.html	./static/images/nice.png	museums|history|kids| culture	https://www.lonelyplanet.com/search?q=avignon	France
france_162	Strasbourg	48.585339	7.734067	Strasbourg is the perfect overture to all that is idiosyncratic about Alsace – walking a fine tightrope between France and Germany and between a medieval past and a progressive future, it pulls off its act in inimitable Alsatian style.	./static/places/strasbourg.html	./static/images/strasbourg.png	museums|history|kids| culture	https://www.lonelyplanet.com/search?q=avignon	France
france_163	Arras	50.286889	2.781829	An unexpected gem of a city with an exceptional ensemble of Flemish-style arcaded buildings – the main squares are especially lovely at night – and two subterranean WWI sites. The city makes a good base for visits to the Battle of the Somme memorials.	./static/places/arras.html	./static/images/arras.png	museums|history|kids| culture	https://www.lonelyplanet.com/search?q=avignon	France
spain_803	Vic	41.930805	2.248776	home of Sert and the sausage	./static/places/vic.html	./static/images/vic.png	history	https://www.lonelyplanet.com/search?q=vic	Spain
spain_804	Puigcerda	42.428908	1.924085	spa resort	./static/places/puigcerda.html	./static/images/puigcerda.png	history	https://www.lonelyplanet.com/search?q=puigcerda	Spain
spain_805	Llanca	42.3665949	3.14898700	holiday resort	./static/places/llanca.html	./static/images/llanca.png	history	https://www.lonelyplanet.com/search?q=llanca	Spain
spain_806	Portbou	42.4244940	3.15785800	border town with a long history	./static/places/portbou.html	./static/images/portbou.png	history	https://www.lonelyplanet.com/search?q=portbou	Spain